<?xml version="1.0" encoding="UTF-8"?>
	<kml xmlns="http://www.opengis.net/kml/2.2">
	  <Document><name>Cemeteries of the Commonwealth War Graves Commission for France</name>
  <description>Cemeteries in France from the Commonwealth War Graves Commission database (http://www.cwgc.org/) turned into a map by the World War One Centenary Project at The University of Oxford (http://ww1centenary.oucs.ox.ac.uk/). Licensed as Attribution-NonCommercial-ShareAlike 2.0 UK: England and Wales </description><Placemark>
		  <name>BAC-DU-SUD BRITISH CEMETERY, BAILLEULVAL</name>
		  <description><a href="http://www.cwgc.org/find-a-cemetery/cemetery/2000/BAC-DU-SUD%20BRITISH%20CEMETERY%2C%20BAILLEULVAL">BAC-DU-SUD BRITISH CEMETERY, BAILLEULVAL at the Commonwealth War Graves Commission</a>
		  </description>
		  <Point>
			<coordinates> 2.60344,50.22463</coordinates>
		  </Point>
		</Placemark><Placemark>
		  <name>GOUY-EN-ARTOIS COMMUNAL CEMETERY EXTENSION</name>
		  <description><a href="http://www.cwgc.org/find-a-cemetery/cemetery/2001/GOUY-EN-ARTOIS%20COMMUNAL%20CEMETERY%20EXTENSION">GOUY-EN-ARTOIS COMMUNAL CEMETERY EXTENSION at the Commonwealth War Graves Commission</a>
		  </description>
		  <Point>
			<coordinates> 2.59132,50.24475</coordinates>
		  </Point>
		</Placemark><Placemark>
		  <name>LONGUENESSE (ST. OMER) SOUVENIR CEMETERY</name>
		  <description><a href="http://www.cwgc.org/find-a-cemetery/cemetery/2100/LONGUENESSE%20%28ST.%20OMER%29%20SOUVENIR%20CEMETERY">LONGUENESSE (ST. OMER) SOUVENIR CEMETERY at the Commonwealth War Graves Commission</a>
		  </description>
		  <Point>
			<coordinates> 2.25126,50.73088</coordinates>
		  </Point>
		</Placemark><Placemark>
		  <name>CORBIE COMMUNAL CEMETERY</name>
		  <description><a href="http://www.cwgc.org/find-a-cemetery/cemetery/2200/CORBIE%20COMMUNAL%20CEMETERY">CORBIE COMMUNAL CEMETERY at the Commonwealth War Graves Commission</a>
		  </description>
		  <Point>
			<coordinates> 2.51941,49.9151</coordinates>
		  </Point>
		</Placemark><Placemark>
		  <name>CORBIE COMMUNAL CEMETERY EXTENSION</name>
		  <description><a href="http://www.cwgc.org/find-a-cemetery/cemetery/2201/CORBIE%20COMMUNAL%20CEMETERY%20EXTENSION">CORBIE COMMUNAL CEMETERY EXTENSION at the Commonwealth War Graves Commission</a>
		  </description>
		  <Point>
			<coordinates> 2.52053,49.91562</coordinates>
		  </Point>
		</Placemark><Placemark>
		  <name>HALLINES CHURCHYARD</name>
		  <description><a href="http://www.cwgc.org/find-a-cemetery/cemetery/2302/HALLINES%20CHURCHYARD">HALLINES CHURCHYARD at the Commonwealth War Graves Commission</a>
		  </description>
		  <Point>
			<coordinates> 2.21122,50.70692</coordinates>
		  </Point>
		</Placemark><Placemark>
		  <name>WIZERNES COMMUNAL CEMETERY</name>
		  <description><a href="http://www.cwgc.org/find-a-cemetery/cemetery/2303/WIZERNES%20COMMUNAL%20CEMETERY">WIZERNES COMMUNAL CEMETERY at the Commonwealth War Graves Commission</a>
		  </description>
		  <Point>
			<coordinates> 2.22746,50.70703</coordinates>
		  </Point>
		</Placemark><Placemark>
		  <name>GODEWAERSVELDE BRITISH CEMETERY</name>
		  <description><a href="http://www.cwgc.org/find-a-cemetery/cemetery/2400/GODEWAERSVELDE%20BRITISH%20CEMETERY">GODEWAERSVELDE BRITISH CEMETERY at the Commonwealth War Graves Commission</a>
		  </description>
		  <Point>
			<coordinates> 2.65226,50.79618</coordinates>
		  </Point>
		</Placemark><Placemark>
		  <name>DIVE COPSE BRITISH CEMETERY, SAILLY-LE-SEC</name>
		  <description><a href="http://www.cwgc.org/find-a-cemetery/cemetery/2500/DIVE%20COPSE%20BRITISH%20CEMETERY%2C%20SAILLY-LE-SEC">DIVE COPSE BRITISH CEMETERY, SAILLY-LE-SEC at the Commonwealth War Graves Commission</a>
		  </description>
		  <Point>
			<coordinates> 2.60492,49.92902</coordinates>
		  </Point>
		</Placemark><Placemark>
		  <name>ESQUELBECQ MILITARY CEMETERY</name>
		  <description><a href="http://www.cwgc.org/find-a-cemetery/cemetery/2600/ESQUELBECQ%20MILITARY%20CEMETERY">ESQUELBECQ MILITARY CEMETERY at the Commonwealth War Graves Commission</a>
		  </description>
		  <Point>
			<coordinates> 2.4161,50.88706</coordinates>
		  </Point>
		</Placemark><Placemark>
		  <name>ESQUELBECQ COMMUNAL CEMETERY</name>
		  <description><a href="http://www.cwgc.org/find-a-cemetery/cemetery/2601/ESQUELBECQ%20COMMUNAL%20CEMETERY">ESQUELBECQ COMMUNAL CEMETERY at the Commonwealth War Graves Commission</a>
		  </description>
		  <Point>
			<coordinates> 2.43291,50.88895</coordinates>
		  </Point>
		</Placemark><Placemark>
		  <name>ADELAIDE CEMETERY, VILLERS-BRETONNEUX</name>
		  <description><a href="http://www.cwgc.org/find-a-cemetery/cemetery/2701/ADELAIDE%20CEMETERY%2C%20VILLERS-BRETONNEUX">ADELAIDE CEMETERY, VILLERS-BRETONNEUX at the Commonwealth War Graves Commission</a>
		  </description>
		  <Point>
			<coordinates> 2.49798,49.87081</coordinates>
		  </Point>
		</Placemark><Placemark>
		  <name>ST. SEVER CEMETERY EXTENSION, ROUEN</name>
		  <description><a href="http://www.cwgc.org/find-a-cemetery/cemetery/2800/ST.%20SEVER%20CEMETERY%20EXTENSION%2C%20ROUEN">ST. SEVER CEMETERY EXTENSION, ROUEN at the Commonwealth War Graves Commission</a>
		  </description>
		  <Point>
			<coordinates> 1.06698,49.41035</coordinates>
		  </Point>
		</Placemark><Placemark>
		  <name>MONCHY BRITISH CEMETERY, MONCHY-LE-PREUX</name>
		  <description><a href="http://www.cwgc.org/find-a-cemetery/cemetery/2900/MONCHY%20BRITISH%20CEMETERY%2C%20MONCHY-LE-PREUX">MONCHY BRITISH CEMETERY, MONCHY-LE-PREUX at the Commonwealth War Graves Commission</a>
		  </description>
		  <Point>
			<coordinates> 2.87537,50.27245</coordinates>
		  </Point>
		</Placemark><Placemark>
		  <name>WINDMILL BRITISH CEMETERY, MONCHY-LE-PREUX</name>
		  <description><a href="http://www.cwgc.org/find-a-cemetery/cemetery/2901/WINDMILL%20BRITISH%20CEMETERY%2C%20MONCHY-LE-PREUX">WINDMILL BRITISH CEMETERY, MONCHY-LE-PREUX at the Commonwealth War Graves Commission</a>
		  </description>
		  <Point>
			<coordinates> 2.88364,50.26259</coordinates>
		  </Point>
		</Placemark><Placemark>
		  <name>LOUEZ MILITARY CEMETERY, DUISANS</name>
		  <description><a href="http://www.cwgc.org/find-a-cemetery/cemetery/3000/LOUEZ%20MILITARY%20CEMETERY%2C%20DUISANS">LOUEZ MILITARY CEMETERY, DUISANS at the Commonwealth War Graves Commission</a>
		  </description>
		  <Point>
			<coordinates> 2.72204,50.30671</coordinates>
		  </Point>
		</Placemark><Placemark>
		  <name>HABARCQ COMMUNAL CEMETERY EXTENSION</name>
		  <description><a href="http://www.cwgc.org/find-a-cemetery/cemetery/3001/HABARCQ%20COMMUNAL%20CEMETERY%20EXTENSION">HABARCQ COMMUNAL CEMETERY EXTENSION at the Commonwealth War Graves Commission</a>
		  </description>
		  <Point>
			<coordinates> 2.61616,50.30746</coordinates>
		  </Point>
		</Placemark><Placemark>
		  <name>WARLUS COMMUNAL CEMETERY</name>
		  <description><a href="http://www.cwgc.org/find-a-cemetery/cemetery/3002/WARLUS%20COMMUNAL%20CEMETERY">WARLUS COMMUNAL CEMETERY at the Commonwealth War Graves Commission</a>
		  </description>
		  <Point>
			<coordinates> 2.66586,50.28168</coordinates>
		  </Point>
		</Placemark><Placemark>
		  <name>BULLY-GRENAY COMMUNAL CEMETERY, BRITISH EXTENSION</name>
		  <description><a href="http://www.cwgc.org/find-a-cemetery/cemetery/3100/BULLY-GRENAY%20COMMUNAL%20CEMETERY%2C%20BRITISH%20EXTENSION">BULLY-GRENAY COMMUNAL CEMETERY, BRITISH EXTENSION at the Commonwealth War Graves Commission</a>
		  </description>
		  <Point>
			<coordinates> 2.71722,50.44698</coordinates>
		  </Point>
		</Placemark><Placemark>
		  <name>GROVE TOWN CEMETERY, MEAULTE</name>
		  <description><a href="http://www.cwgc.org/find-a-cemetery/cemetery/3200/GROVE%20TOWN%20CEMETERY%2C%20MEAULTE">GROVE TOWN CEMETERY, MEAULTE at the Commonwealth War Graves Commission</a>
		  </description>
		  <Point>
			<coordinates> 2.68542,49.96439</coordinates>
		  </Point>
		</Placemark><Placemark>
		  <name>WANCOURT BRITISH CEMETERY</name>
		  <description><a href="http://www.cwgc.org/find-a-cemetery/cemetery/3300/WANCOURT%20BRITISH%20CEMETERY">WANCOURT BRITISH CEMETERY at the Commonwealth War Graves Commission</a>
		  </description>
		  <Point>
			<coordinates> 2.87826,50.24475</coordinates>
		  </Point>
		</Placemark><Placemark>
		  <name>CAMBRIN MILITARY CEMETERY</name>
		  <description><a href="http://www.cwgc.org/find-a-cemetery/cemetery/3400/CAMBRIN%20MILITARY%20CEMETERY">CAMBRIN MILITARY CEMETERY at the Commonwealth War Graves Commission</a>
		  </description>
		  <Point>
			<coordinates> 2.73702,50.51227</coordinates>
		  </Point>
		</Placemark><Placemark>
		  <name>BRAY MILITARY CEMETERY</name>
		  <description><a href="http://www.cwgc.org/find-a-cemetery/cemetery/3500/BRAY%20MILITARY%20CEMETERY">BRAY MILITARY CEMETERY at the Commonwealth War Graves Commission</a>
		  </description>
		  <Point>
			<coordinates> 2.71957,49.94725</coordinates>
		  </Point>
		</Placemark><Placemark>
		  <name>BRAY-SUR-SOMME FRENCH NATIONAL CEMETERY</name>
		  <description><a href="http://www.cwgc.org/find-a-cemetery/cemetery/3501/BRAY-SUR-SOMME%20FRENCH%20NATIONAL%20CEMETERY">BRAY-SUR-SOMME FRENCH NATIONAL CEMETERY at the Commonwealth War Graves Commission</a>
		  </description>
		  <Point>
			<coordinates> 2.71696,49.9433</coordinates>
		  </Point>
		</Placemark><Placemark>
		  <name>BRAY-SUR-SOMME COMMUNAL CEMETERY</name>
		  <description><a href="http://www.cwgc.org/find-a-cemetery/cemetery/3502/BRAY-SUR-SOMME%20COMMUNAL%20CEMETERY">BRAY-SUR-SOMME COMMUNAL CEMETERY at the Commonwealth War Graves Commission</a>
		  </description>
		  <Point>
			<coordinates> 2.71735,49.94189</coordinates>
		  </Point>
		</Placemark><Placemark>
		  <name>BEAUVAL COMMUNAL CEMETERY</name>
		  <description><a href="http://www.cwgc.org/find-a-cemetery/cemetery/3601/BEAUVAL%20COMMUNAL%20CEMETERY">BEAUVAL COMMUNAL CEMETERY at the Commonwealth War Graves Commission</a>
		  </description>
		  <Point>
			<coordinates> 2.32927,50.11155</coordinates>
		  </Point>
		</Placemark><Placemark>
		  <name>GEZAINCOURT COMMUNAL CEMETERY</name>
		  <description><a href="http://www.cwgc.org/find-a-cemetery/cemetery/3602/GEZAINCOURT%20COMMUNAL%20CEMETERY">GEZAINCOURT COMMUNAL CEMETERY at the Commonwealth War Graves Commission</a>
		  </description>
		  <Point>
			<coordinates> 2.32346,50.14517</coordinates>
		  </Point>
		</Placemark><Placemark>
		  <name>GEZAINCOURT COMMUNAL CEMETERY EXTENSION</name>
		  <description><a href="http://www.cwgc.org/find-a-cemetery/cemetery/3604/GEZAINCOURT%20COMMUNAL%20CEMETERY%20EXTENSION">GEZAINCOURT COMMUNAL CEMETERY EXTENSION at the Commonwealth War Graves Commission</a>
		  </description>
		  <Point>
			<coordinates> 2.32308,50.14583</coordinates>
		  </Point>
		</Placemark><Placemark>
		  <name>HEM COMMUNAL CEMETERY, SOMME</name>
		  <description><a href="http://www.cwgc.org/find-a-cemetery/cemetery/3605/HEM%20COMMUNAL%20CEMETERY%2C%20SOMME">HEM COMMUNAL CEMETERY, SOMME at the Commonwealth War Graves Commission</a>
		  </description>
		  <Point>
			<coordinates> 2.29862,50.16132</coordinates>
		  </Point>
		</Placemark><Placemark>
		  <name>AMPLIER COMMUNAL CEMETERY</name>
		  <description><a href="http://www.cwgc.org/find-a-cemetery/cemetery/3606/AMPLIER%20COMMUNAL%20CEMETERY">AMPLIER COMMUNAL CEMETERY at the Commonwealth War Graves Commission</a>
		  </description>
		  <Point>
			<coordinates> 2.40325,50.13996</coordinates>
		  </Point>
		</Placemark><Placemark>
		  <name>TERRAMESNIL COMMUNAL CEMETERY</name>
		  <description><a href="http://www.cwgc.org/find-a-cemetery/cemetery/3608/TERRAMESNIL%20COMMUNAL%20CEMETERY">TERRAMESNIL COMMUNAL CEMETERY at the Commonwealth War Graves Commission</a>
		  </description>
		  <Point>
			<coordinates> 2.38596,50.10343</coordinates>
		  </Point>
		</Placemark><Placemark>
		  <name>WAILLY ORCHARD CEMETERY</name>
		  <description><a href="http://www.cwgc.org/find-a-cemetery/cemetery/3700/WAILLY%20ORCHARD%20CEMETERY">WAILLY ORCHARD CEMETERY at the Commonwealth War Graves Commission</a>
		  </description>
		  <Point>
			<coordinates> 2.7196,50.24744</coordinates>
		  </Point>
		</Placemark><Placemark>
		  <name>LE FERMONT MILITARY CEMETERY, RIVIERE</name>
		  <description><a href="http://www.cwgc.org/find-a-cemetery/cemetery/3701/LE%20FERMONT%20MILITARY%20CEMETERY%2C%20RIVIERE">LE FERMONT MILITARY CEMETERY, RIVIERE at the Commonwealth War Graves Commission</a>
		  </description>
		  <Point>
			<coordinates> 2.70459,50.24017</coordinates>
		  </Point>
		</Placemark><Placemark>
		  <name>DERNANCOURT COMMUNAL CEMETERY EXTENSION</name>
		  <description><a href="http://www.cwgc.org/find-a-cemetery/cemetery/3800/DERNANCOURT%20COMMUNAL%20CEMETERY%20EXTENSION">DERNANCOURT COMMUNAL CEMETERY EXTENSION at the Commonwealth War Graves Commission</a>
		  </description>
		  <Point>
			<coordinates> 2.62496,49.97684</coordinates>
		  </Point>
		</Placemark><Placemark>
		  <name>EBBLINGHEM MILITARY CEMETERY</name>
		  <description><a href="http://www.cwgc.org/find-a-cemetery/cemetery/3901/EBBLINGHEM%20MILITARY%20CEMETERY">EBBLINGHEM MILITARY CEMETERY at the Commonwealth War Graves Commission</a>
		  </description>
		  <Point>
			<coordinates> 2.41855,50.73467</coordinates>
		  </Point>
		</Placemark><Placemark>
		  <name>STAPLE CHURCHYARD</name>
		  <description><a href="http://www.cwgc.org/find-a-cemetery/cemetery/3905/STAPLE%20CHURCHYARD">STAPLE CHURCHYARD at the Commonwealth War Graves Commission</a>
		  </description>
		  <Point>
			<coordinates> 2.45473,50.74884</coordinates>
		  </Point>
		</Placemark><Placemark>
		  <name>NAMPS-AU-VAL BRITISH CEMETERY</name>
		  <description><a href="http://www.cwgc.org/find-a-cemetery/cemetery/4002/NAMPS-AU-VAL%20BRITISH%20CEMETERY">NAMPS-AU-VAL BRITISH CEMETERY at the Commonwealth War Graves Commission</a>
		  </description>
		  <Point>
			<coordinates> 2.10441,49.80572</coordinates>
		  </Point>
		</Placemark><Placemark>
		  <name>PLACHY-BUYON COMMUNAL CEMETERY</name>
		  <description><a href="http://www.cwgc.org/find-a-cemetery/cemetery/4004/PLACHY-BUYON%20COMMUNAL%20CEMETERY">PLACHY-BUYON COMMUNAL CEMETERY at the Commonwealth War Graves Commission</a>
		  </description>
		  <Point>
			<coordinates> 2.2198,49.81787</coordinates>
		  </Point>
		</Placemark><Placemark>
		  <name>DARTMOOR CEMETERY, BECORDEL-BECOURT</name>
		  <description><a href="http://www.cwgc.org/find-a-cemetery/cemetery/4100/DARTMOOR%20CEMETERY%2C%20BECORDEL-BECOURT">DARTMOOR CEMETERY, BECORDEL-BECOURT at the Commonwealth War Graves Commission</a>
		  </description>
		  <Point>
			<coordinates> 2.68813,49.99169</coordinates>
		  </Point>
		</Placemark><Placemark>
		  <name>NORFOLK CEMETERY, BECORDEL-BECOURT</name>
		  <description><a href="http://www.cwgc.org/find-a-cemetery/cemetery/4101/NORFOLK%20CEMETERY%2C%20BECORDEL-BECOURT">NORFOLK CEMETERY, BECORDEL-BECOURT at the Commonwealth War Graves Commission</a>
		  </description>
		  <Point>
			<coordinates> 2.69264,49.99948</coordinates>
		  </Point>
		</Placemark><Placemark>
		  <name>HIGHLAND CEMETERY, LE CATEAU</name>
		  <description><a href="http://www.cwgc.org/find-a-cemetery/cemetery/4202/HIGHLAND%20CEMETERY%2C%20LE%20CATEAU">HIGHLAND CEMETERY, LE CATEAU at the Commonwealth War Graves Commission</a>
		  </description>
		  <Point>
			<coordinates> 3.54783,50.08585</coordinates>
		  </Point>
		</Placemark><Placemark>
		  <name>NEUVILLY COMMUNAL CEMETERY EXTENSION</name>
		  <description><a href="http://www.cwgc.org/find-a-cemetery/cemetery/4203/NEUVILLY%20COMMUNAL%20CEMETERY%20EXTENSION">NEUVILLY COMMUNAL CEMETERY EXTENSION at the Commonwealth War Graves Commission</a>
		  </description>
		  <Point>
			<coordinates> 3.50671,50.1468</coordinates>
		  </Point>
		</Placemark><Placemark>
		  <name>DUISANS BRITISH CEMETERY, ETRUN</name>
		  <description><a href="http://www.cwgc.org/find-a-cemetery/cemetery/4300/DUISANS%20BRITISH%20CEMETERY%2C%20ETRUN">DUISANS BRITISH CEMETERY, ETRUN at the Commonwealth War Graves Commission</a>
		  </description>
		  <Point>
			<coordinates> 2.6741,50.31587</coordinates>
		  </Point>
		</Placemark><Placemark>
		  <name>OUTTERSTEENE COMMUNAL CEMETERY EXTENSION, BAILLEUL</name>
		  <description><a href="http://www.cwgc.org/find-a-cemetery/cemetery/4400/OUTTERSTEENE%20COMMUNAL%20CEMETERY%20EXTENSION%2C%20BAILLEUL">OUTTERSTEENE COMMUNAL CEMETERY EXTENSION, BAILLEUL at the Commonwealth War Graves Commission</a>
		  </description>
		  <Point>
			<coordinates> 2.68583,50.71393</coordinates>
		  </Point>
		</Placemark><Placemark>
		  <name>DOINGT COMMUNAL CEMETERY EXTENSION</name>
		  <description><a href="http://www.cwgc.org/find-a-cemetery/cemetery/4500/DOINGT%20COMMUNAL%20CEMETERY%20EXTENSION">DOINGT COMMUNAL CEMETERY EXTENSION at the Commonwealth War Graves Commission</a>
		  </description>
		  <Point>
			<coordinates> 2.96955,49.92338</coordinates>
		  </Point>
		</Placemark><Placemark>
		  <name>RIBEMONT COMMUNAL CEMETERY EXTENSION, SOMME</name>
		  <description><a href="http://www.cwgc.org/find-a-cemetery/cemetery/4604/RIBEMONT%20COMMUNAL%20CEMETERY%20EXTENSION%2C%20SOMME">RIBEMONT COMMUNAL CEMETERY EXTENSION, SOMME at the Commonwealth War Graves Commission</a>
		  </description>
		  <Point>
			<coordinates> 2.56078,49.96474</coordinates>
		  </Point>
		</Placemark><Placemark>
		  <name>MILLENCOURT COMMUNAL CEMETERY EXTENSION</name>
		  <description><a href="http://www.cwgc.org/find-a-cemetery/cemetery/4605/MILLENCOURT%20COMMUNAL%20CEMETERY%20EXTENSION">MILLENCOURT COMMUNAL CEMETERY EXTENSION at the Commonwealth War Graves Commission</a>
		  </description>
		  <Point>
			<coordinates> 2.58196,50.0029</coordinates>
		  </Point>
		</Placemark><Placemark>
		  <name>BUIRE-SUR-L'ANCRE COMMUNAL CEMETERY</name>
		  <description><a href="http://www.cwgc.org/find-a-cemetery/cemetery/4606/BUIRE-SUR-L%27ANCRE%20COMMUNAL%20CEMETERY">BUIRE-SUR-L'ANCRE COMMUNAL CEMETERY at the Commonwealth War Graves Commission</a>
		  </description>
		  <Point>
			<coordinates> 2.59163,49.96924</coordinates>
		  </Point>
		</Placemark><Placemark>
		  <name>LAVIEVILLE COMMUNAL CEMETERY</name>
		  <description><a href="http://www.cwgc.org/find-a-cemetery/cemetery/4607/LAVIEVILLE%20COMMUNAL%20CEMETERY">LAVIEVILLE COMMUNAL CEMETERY at the Commonwealth War Graves Commission</a>
		  </description>
		  <Point>
			<coordinates> 2.57347,49.99395</coordinates>
		  </Point>
		</Placemark><Placemark>
		  <name>HAZEBROUCK COMMUNAL CEMETERY</name>
		  <description><a href="http://www.cwgc.org/find-a-cemetery/cemetery/4700/HAZEBROUCK%20COMMUNAL%20CEMETERY">HAZEBROUCK COMMUNAL CEMETERY at the Commonwealth War Graves Commission</a>
		  </description>
		  <Point>
			<coordinates> 2.5328,50.71623</coordinates>
		  </Point>
		</Placemark><Placemark>
		  <name>BOULOGNE EASTERN CEMETERY</name>
		  <description><a href="http://www.cwgc.org/find-a-cemetery/cemetery/4800/BOULOGNE%20EASTERN%20CEMETERY">BOULOGNE EASTERN CEMETERY at the Commonwealth War Graves Commission</a>
		  </description>
		  <Point>
			<coordinates> 1.62272,50.72483</coordinates>
		  </Point>
		</Placemark><Placemark>
		  <name>ARNEKE BRITISH CEMETERY</name>
		  <description><a href="http://www.cwgc.org/find-a-cemetery/cemetery/5100/ARNEKE%20BRITISH%20CEMETERY">ARNEKE BRITISH CEMETERY at the Commonwealth War Graves Commission</a>
		  </description>
		  <Point>
			<coordinates> 2.40184,50.8445</coordinates>
		  </Point>
		</Placemark><Placemark>
		  <name>ARNEKE CHURCHYARD</name>
		  <description><a href="http://www.cwgc.org/find-a-cemetery/cemetery/5101/ARNEKE%20CHURCHYARD">ARNEKE CHURCHYARD at the Commonwealth War Graves Commission</a>
		  </description>
		  <Point>
			<coordinates> 2.41177,50.83154</coordinates>
		  </Point>
		</Placemark><Placemark>
		  <name>STE. CATHERINE BRITISH CEMETERY</name>
		  <description><a href="http://www.cwgc.org/find-a-cemetery/cemetery/5201/STE.%20CATHERINE%20BRITISH%20CEMETERY">STE. CATHERINE BRITISH CEMETERY at the Commonwealth War Graves Commission</a>
		  </description>
		  <Point>
			<coordinates> 2.75853,50.3034</coordinates>
		  </Point>
		</Placemark><Placemark>
		  <name>ST. NICOLAS BRITISH CEMETERY</name>
		  <description><a href="http://www.cwgc.org/find-a-cemetery/cemetery/5202/ST.%20NICOLAS%20BRITISH%20CEMETERY">ST. NICOLAS BRITISH CEMETERY at the Commonwealth War Graves Commission</a>
		  </description>
		  <Point>
			<coordinates> 2.76993,50.30364</coordinates>
		  </Point>
		</Placemark><Placemark>
		  <name>AUBIGNY COMMUNAL CEMETERY EXTENSION</name>
		  <description><a href="http://www.cwgc.org/find-a-cemetery/cemetery/5300/AUBIGNY%20COMMUNAL%20CEMETERY%20EXTENSION">AUBIGNY COMMUNAL CEMETERY EXTENSION at the Commonwealth War Graves Commission</a>
		  </description>
		  <Point>
			<coordinates> 2.58997,50.34827</coordinates>
		  </Point>
		</Placemark><Placemark>
		  <name>PHILOSOPHE BRITISH CEMETERY, MAZINGARBE</name>
		  <description><a href="http://www.cwgc.org/find-a-cemetery/cemetery/5400/PHILOSOPHE%20BRITISH%20CEMETERY%2C%20MAZINGARBE">PHILOSOPHE BRITISH CEMETERY, MAZINGARBE at the Commonwealth War Graves Commission</a>
		  </description>
		  <Point>
			<coordinates> 2.74168,50.47092</coordinates>
		  </Point>
		</Placemark><Placemark>
		  <name>LAPUGNOY MILITARY CEMETERY</name>
		  <description><a href="http://www.cwgc.org/find-a-cemetery/cemetery/5501/LAPUGNOY%20MILITARY%20CEMETERY">LAPUGNOY MILITARY CEMETERY at the Commonwealth War Graves Commission</a>
		  </description>
		  <Point>
			<coordinates> 2.52532,50.51796</coordinates>
		  </Point>
		</Placemark><Placemark>
		  <name>BURBURE COMMUNAL CEMETERY</name>
		  <description><a href="http://www.cwgc.org/find-a-cemetery/cemetery/5505/BURBURE%20COMMUNAL%20CEMETERY">BURBURE COMMUNAL CEMETERY at the Commonwealth War Graves Commission</a>
		  </description>
		  <Point>
			<coordinates> 2.45971,50.53785</coordinates>
		  </Point>
		</Placemark><Placemark>
		  <name>AUCHEL COMMUNAL CEMETERY</name>
		  <description><a href="http://www.cwgc.org/find-a-cemetery/cemetery/5506/AUCHEL%20COMMUNAL%20CEMETERY">AUCHEL COMMUNAL CEMETERY at the Commonwealth War Graves Commission</a>
		  </description>
		  <Point>
			<coordinates> 2.46701,50.51221</coordinates>
		  </Point>
		</Placemark><Placemark>
		  <name>DIVION COMMUNAL CEMETERY</name>
		  <description><a href="http://www.cwgc.org/find-a-cemetery/cemetery/5510/DIVION%20COMMUNAL%20CEMETERY">DIVION COMMUNAL CEMETERY at the Commonwealth War Graves Commission</a>
		  </description>
		  <Point>
			<coordinates> 2.51297,50.47311</coordinates>
		  </Point>
		</Placemark><Placemark>
		  <name>BAGNEUX BRITISH CEMETERY, GEZAINCOURT</name>
		  <description><a href="http://www.cwgc.org/find-a-cemetery/cemetery/5700/BAGNEUX%20BRITISH%20CEMETERY%2C%20GEZAINCOURT">BAGNEUX BRITISH CEMETERY, GEZAINCOURT at the Commonwealth War Graves Commission</a>
		  </description>
		  <Point>
			<coordinates> 2.31407,50.1343</coordinates>
		  </Point>
		</Placemark><Placemark>
		  <name>RATION FARM MILITARY CEMETERY, LA CHAPELLE-D'ARMENTIERES</name>
		  <description><a href="http://www.cwgc.org/find-a-cemetery/cemetery/5800/RATION%20FARM%20MILITARY%20CEMETERY%2C%20LA%20CHAPELLE-D%27ARMENTIERES">RATION FARM MILITARY CEMETERY, LA CHAPELLE-D'ARMENTIERES at the Commonwealth War Graves Commission</a>
		  </description>
		  <Point>
			<coordinates> 2.88829,50.65737</coordinates>
		  </Point>
		</Placemark><Placemark>
		  <name>BREWERY ORCHARD CEMETERY, BOIS-GRENIER</name>
		  <description><a href="http://www.cwgc.org/find-a-cemetery/cemetery/5801/BREWERY%20ORCHARD%20CEMETERY%2C%20BOIS-GRENIER">BREWERY ORCHARD CEMETERY, BOIS-GRENIER at the Commonwealth War Graves Commission</a>
		  </description>
		  <Point>
			<coordinates> 2.87551,50.65058</coordinates>
		  </Point>
		</Placemark><Placemark>
		  <name>VILLERS STATION CEMETERY, VILLERS-AU-BOIS</name>
		  <description><a href="http://www.cwgc.org/find-a-cemetery/cemetery/5900/VILLERS%20STATION%20CEMETERY%2C%20VILLERS-AU-BOIS">VILLERS STATION CEMETERY, VILLERS-AU-BOIS at the Commonwealth War Graves Commission</a>
		  </description>
		  <Point>
			<coordinates> 2.65554,50.38454</coordinates>
		  </Point>
		</Placemark><Placemark>
		  <name>BETHUNE TOWN CEMETERY</name>
		  <description><a href="http://www.cwgc.org/find-a-cemetery/cemetery/6000/BETHUNE%20TOWN%20CEMETERY">BETHUNE TOWN CEMETERY at the Commonwealth War Graves Commission</a>
		  </description>
		  <Point>
			<coordinates> 2.64277,50.53674</coordinates>
		  </Point>
		</Placemark><Placemark>
		  <name>PERNOIS BRITISH CEMETERY, HALLOY-LES-PERNOIS</name>
		  <description><a href="http://www.cwgc.org/find-a-cemetery/cemetery/6200/PERNOIS%20BRITISH%20CEMETERY%2C%20HALLOY-LES-PERNOIS">PERNOIS BRITISH CEMETERY, HALLOY-LES-PERNOIS at the Commonwealth War Graves Commission</a>
		  </description>
		  <Point>
			<coordinates> 2.19113,50.04565</coordinates>
		  </Point>
		</Placemark><Placemark>
		  <name>PERNOIS COMMUNAL CEMETERY</name>
		  <description><a href="http://www.cwgc.org/find-a-cemetery/cemetery/6201/PERNOIS%20COMMUNAL%20CEMETERY">PERNOIS COMMUNAL CEMETERY at the Commonwealth War Graves Commission</a>
		  </description>
		  <Point>
			<coordinates> 2.18367,50.05409</coordinates>
		  </Point>
		</Placemark><Placemark>
		  <name>VIGNACOURT BRITISH CEMETERY</name>
		  <description><a href="http://www.cwgc.org/find-a-cemetery/cemetery/6202/VIGNACOURT%20BRITISH%20CEMETERY">VIGNACOURT BRITISH CEMETERY at the Commonwealth War Graves Commission</a>
		  </description>
		  <Point>
			<coordinates> 2.20576,50.00961</coordinates>
		  </Point>
		</Placemark><Placemark>
		  <name>BERTEAUCOURT-LES-DAMES CHURCHYARD</name>
		  <description><a href="http://www.cwgc.org/find-a-cemetery/cemetery/6203/BERTEAUCOURT-LES-DAMES%20CHURCHYARD">BERTEAUCOURT-LES-DAMES CHURCHYARD at the Commonwealth War Graves Commission</a>
		  </description>
		  <Point>
			<coordinates> 2.15921,50.04804</coordinates>
		  </Point>
		</Placemark><Placemark>
		  <name>ST. LEGER-LES-DOMART COMMUNAL CEMETERY</name>
		  <description><a href="http://www.cwgc.org/find-a-cemetery/cemetery/6204/ST.%20LEGER-LES-DOMART%20COMMUNAL%20CEMETERY">ST. LEGER-LES-DOMART COMMUNAL CEMETERY at the Commonwealth War Graves Commission</a>
		  </description>
		  <Point>
			<coordinates> 2.13905,50.05817</coordinates>
		  </Point>
		</Placemark><Placemark>
		  <name>ECOIVRES MILITARY CEMETERY, MONT-ST. ELOI</name>
		  <description><a href="http://www.cwgc.org/find-a-cemetery/cemetery/6300/ECOIVRES%20MILITARY%20CEMETERY%2C%20MONT-ST.%20ELOI">ECOIVRES MILITARY CEMETERY, MONT-ST. ELOI at the Commonwealth War Graves Commission</a>
		  </description>
		  <Point>
			<coordinates> 2.68709,50.34215</coordinates>
		  </Point>
		</Placemark><Placemark>
		  <name>LA NEUVILLE BRITISH CEMETERY, CORBIE</name>
		  <description><a href="http://www.cwgc.org/find-a-cemetery/cemetery/6400/LA%20NEUVILLE%20BRITISH%20CEMETERY%2C%20CORBIE">LA NEUVILLE BRITISH CEMETERY, CORBIE at the Commonwealth War Graves Commission</a>
		  </description>
		  <Point>
			<coordinates> 2.48165,49.91095</coordinates>
		  </Point>
		</Placemark><Placemark>
		  <name>LA NEUVILLE COMMUNAL CEMETERY, CORBIE</name>
		  <description><a href="http://www.cwgc.org/find-a-cemetery/cemetery/6401/LA%20NEUVILLE%20COMMUNAL%20CEMETERY%2C%20CORBIE">LA NEUVILLE COMMUNAL CEMETERY, CORBIE at the Commonwealth War Graves Commission</a>
		  </description>
		  <Point>
			<coordinates> 2.49011,49.91719</coordinates>
		  </Point>
		</Placemark><Placemark>
		  <name>MORBECQUE BRITISH CEMETERY</name>
		  <description><a href="http://www.cwgc.org/find-a-cemetery/cemetery/6600/MORBECQUE%20BRITISH%20CEMETERY">MORBECQUE BRITISH CEMETERY at the Commonwealth War Graves Commission</a>
		  </description>
		  <Point>
			<coordinates> 2.51856,50.69304</coordinates>
		  </Point>
		</Placemark><Placemark>
		  <name>LE GRAND HASARD MILITARY CEMETERY, MORBECQUE</name>
		  <description><a href="http://www.cwgc.org/find-a-cemetery/cemetery/6601/LE%20GRAND%20HASARD%20MILITARY%20CEMETERY%2C%20MORBECQUE">LE GRAND HASARD MILITARY CEMETERY, MORBECQUE at the Commonwealth War Graves Commission</a>
		  </description>
		  <Point>
			<coordinates> 2.51913,50.70629</coordinates>
		  </Point>
		</Placemark><Placemark>
		  <name>THIENNES BRITISH CEMETERY</name>
		  <description><a href="http://www.cwgc.org/find-a-cemetery/cemetery/6602/THIENNES%20BRITISH%20CEMETERY">THIENNES BRITISH CEMETERY at the Commonwealth War Graves Commission</a>
		  </description>
		  <Point>
			<coordinates> 2.48013,50.65332</coordinates>
		  </Point>
		</Placemark><Placemark>
		  <name>TANNAY BRITISH CEMETERY, THIENNES</name>
		  <description><a href="http://www.cwgc.org/find-a-cemetery/cemetery/6603/TANNAY%20BRITISH%20CEMETERY%2C%20THIENNES">TANNAY BRITISH CEMETERY, THIENNES at the Commonwealth War Graves Commission</a>
		  </description>
		  <Point>
			<coordinates> 2.4958,50.63785</coordinates>
		  </Point>
		</Placemark><Placemark>
		  <name>CINQ RUES BRITISH CEMETERY, HAZEBROUCK</name>
		  <description><a href="http://www.cwgc.org/find-a-cemetery/cemetery/6700/CINQ%20RUES%20BRITISH%20CEMETERY%2C%20HAZEBROUCK">CINQ RUES BRITISH CEMETERY, HAZEBROUCK at the Commonwealth War Graves Commission</a>
		  </description>
		  <Point>
			<coordinates> 2.50183,50.72922</coordinates>
		  </Point>
		</Placemark><Placemark>
		  <name>LA KREULE MILITARY CEMETERY, HAZEBROUCK</name>
		  <description><a href="http://www.cwgc.org/find-a-cemetery/cemetery/6701/LA%20KREULE%20MILITARY%20CEMETERY%2C%20HAZEBROUCK">LA KREULE MILITARY CEMETERY, HAZEBROUCK at the Commonwealth War Graves Commission</a>
		  </description>
		  <Point>
			<coordinates> 2.54631,50.74095</coordinates>
		  </Point>
		</Placemark><Placemark>
		  <name>LE PEUPLIER MILITARY CEMETERY, CAESTRE</name>
		  <description><a href="http://www.cwgc.org/find-a-cemetery/cemetery/6800/LE%20PEUPLIER%20MILITARY%20CEMETERY%2C%20CAESTRE">LE PEUPLIER MILITARY CEMETERY, CAESTRE at the Commonwealth War Graves Commission</a>
		  </description>
		  <Point>
			<coordinates> 2.57783,50.75255</coordinates>
		  </Point>
		</Placemark><Placemark>
		  <name>CAESTRE MILITARY CEMETERY</name>
		  <description><a href="http://www.cwgc.org/find-a-cemetery/cemetery/6801/CAESTRE%20MILITARY%20CEMETERY">CAESTRE MILITARY CEMETERY at the Commonwealth War Graves Commission</a>
		  </description>
		  <Point>
			<coordinates> 2.59701,50.75903</coordinates>
		  </Point>
		</Placemark><Placemark>
		  <name>BORRE BRITISH CEMETERY</name>
		  <description><a href="http://www.cwgc.org/find-a-cemetery/cemetery/6802/BORRE%20BRITISH%20CEMETERY">BORRE BRITISH CEMETERY at the Commonwealth War Graves Commission</a>
		  </description>
		  <Point>
			<coordinates> 2.58303,50.73011</coordinates>
		  </Point>
		</Placemark><Placemark>
		  <name>CROUY BRITISH CEMETERY, CROUY-SUR-SOMME</name>
		  <description><a href="http://www.cwgc.org/find-a-cemetery/cemetery/6900/CROUY%20BRITISH%20CEMETERY%2C%20CROUY-SUR-SOMME">CROUY BRITISH CEMETERY, CROUY-SUR-SOMME at the Commonwealth War Graves Commission</a>
		  </description>
		  <Point>
			<coordinates> 2.08345,49.96188</coordinates>
		  </Point>
		</Placemark><Placemark>
		  <name>CROUY COMMUNAL CEMETERY</name>
		  <description><a href="http://www.cwgc.org/find-a-cemetery/cemetery/6901/CROUY%20COMMUNAL%20CEMETERY">CROUY COMMUNAL CEMETERY at the Commonwealth War Graves Commission</a>
		  </description>
		  <Point>
			<coordinates> 2.08933,49.96803</coordinates>
		  </Point>
		</Placemark><Placemark>
		  <name>AUCHONVILLERS MILITARY CEMETERY</name>
		  <description><a href="http://www.cwgc.org/find-a-cemetery/cemetery/7000/AUCHONVILLERS%20MILITARY%20CEMETERY">AUCHONVILLERS MILITARY CEMETERY at the Commonwealth War Graves Commission</a>
		  </description>
		  <Point>
			<coordinates> 2.62674,50.08059</coordinates>
		  </Point>
		</Placemark><Placemark>
		  <name>AUCHONVILLERS COMMUNAL CEMETERY</name>
		  <description><a href="http://www.cwgc.org/find-a-cemetery/cemetery/7001/AUCHONVILLERS%20COMMUNAL%20CEMETERY">AUCHONVILLERS COMMUNAL CEMETERY at the Commonwealth War Graves Commission</a>
		  </description>
		  <Point>
			<coordinates> 2.63287,50.07853</coordinates>
		  </Point>
		</Placemark><Placemark>
		  <name>PICQUIGNY BRITISH CEMETERY</name>
		  <description><a href="http://www.cwgc.org/find-a-cemetery/cemetery/7100/PICQUIGNY%20BRITISH%20CEMETERY">PICQUIGNY BRITISH CEMETERY at the Commonwealth War Graves Commission</a>
		  </description>
		  <Point>
			<coordinates> 2.13566,49.94347</coordinates>
		  </Point>
		</Placemark><Placemark>
		  <name>PICQUIGNY COMMUNAL CEMETERY</name>
		  <description><a href="http://www.cwgc.org/find-a-cemetery/cemetery/7101/PICQUIGNY%20COMMUNAL%20CEMETERY">PICQUIGNY COMMUNAL CEMETERY at the Commonwealth War Graves Commission</a>
		  </description>
		  <Point>
			<coordinates> 2.14091,49.94379</coordinates>
		  </Point>
		</Placemark><Placemark>
		  <name>LONGPRE-LES-CORPS SAINTS BRITISH CEMETERY</name>
		  <description><a href="http://www.cwgc.org/find-a-cemetery/cemetery/7102/LONGPRE-LES-CORPS%20SAINTS%20BRITISH%20CEMETERY">LONGPRE-LES-CORPS SAINTS BRITISH CEMETERY at the Commonwealth War Graves Commission</a>
		  </description>
		  <Point>
			<coordinates> 1.997,50.00731</coordinates>
		  </Point>
		</Placemark><Placemark>
		  <name>VARENNES MILITARY CEMETERY</name>
		  <description><a href="http://www.cwgc.org/find-a-cemetery/cemetery/7200/VARENNES%20MILITARY%20CEMETERY">VARENNES MILITARY CEMETERY at the Commonwealth War Graves Commission</a>
		  </description>
		  <Point>
			<coordinates> 2.52615,50.0545</coordinates>
		  </Point>
		</Placemark><Placemark>
		  <name>WARLOY-BAILLON COMMUNAL CEMETERY</name>
		  <description><a href="http://www.cwgc.org/find-a-cemetery/cemetery/7300/WARLOY-BAILLON%20COMMUNAL%20CEMETERY">WARLOY-BAILLON COMMUNAL CEMETERY at the Commonwealth War Graves Commission</a>
		  </description>
		  <Point>
			<coordinates> 2.52686,50.01247</coordinates>
		  </Point>
		</Placemark><Placemark>
		  <name>WARLOY-BAILLON COMMUNAL CEMETERY EXTENSION</name>
		  <description><a href="http://www.cwgc.org/find-a-cemetery/cemetery/7301/WARLOY-BAILLON%20COMMUNAL%20CEMETERY%20EXTENSION">WARLOY-BAILLON COMMUNAL CEMETERY EXTENSION at the Commonwealth War Graves Commission</a>
		  </description>
		  <Point>
			<coordinates> 2.52895,50.01311</coordinates>
		  </Point>
		</Placemark><Placemark>
		  <name>AVESNES-LE COMTE COMMUNAL CEMETERY</name>
		  <description><a href="http://www.cwgc.org/find-a-cemetery/cemetery/7400/AVESNES-LE%20COMTE%20COMMUNAL%20CEMETERY">AVESNES-LE COMTE COMMUNAL CEMETERY at the Commonwealth War Graves Commission</a>
		  </description>
		  <Point>
			<coordinates> 2.52372,50.27906</coordinates>
		  </Point>
		</Placemark><Placemark>
		  <name>AVESNES-LE-COMTE COMMUNAL CEMETERY EXTENSION</name>
		  <description><a href="http://www.cwgc.org/find-a-cemetery/cemetery/7401/AVESNES-LE-COMTE%20COMMUNAL%20CEMETERY%20EXTENSION">AVESNES-LE-COMTE COMMUNAL CEMETERY EXTENSION at the Commonwealth War Graves Commission</a>
		  </description>
		  <Point>
			<coordinates> 2.52337,50.27936</coordinates>
		  </Point>
		</Placemark><Placemark>
		  <name>IZEL-LES-HAMEAU COMMUNAL CEMETERY</name>
		  <description><a href="http://www.cwgc.org/find-a-cemetery/cemetery/7406/IZEL-LES-HAMEAU%20COMMUNAL%20CEMETERY">IZEL-LES-HAMEAU COMMUNAL CEMETERY at the Commonwealth War Graves Commission</a>
		  </description>
		  <Point>
			<coordinates> 2.52383,50.31593</coordinates>
		  </Point>
		</Placemark><Placemark>
		  <name>ABBEVILLE COMMUNAL CEMETERY</name>
		  <description><a href="http://www.cwgc.org/find-a-cemetery/cemetery/7500/ABBEVILLE%20COMMUNAL%20CEMETERY">ABBEVILLE COMMUNAL CEMETERY at the Commonwealth War Graves Commission</a>
		  </description>
		  <Point>
			<coordinates> 1.83214,50.12091</coordinates>
		  </Point>
		</Placemark><Placemark>
		  <name>DAOURS COMMUNAL CEMETERY</name>
		  <description><a href="http://www.cwgc.org/find-a-cemetery/cemetery/7600/DAOURS%20COMMUNAL%20CEMETERY">DAOURS COMMUNAL CEMETERY at the Commonwealth War Graves Commission</a>
		  </description>
		  <Point>
			<coordinates> 2.44551,49.90568</coordinates>
		  </Point>
		</Placemark><Placemark>
		  <name>QUERRIEU BRITISH CEMETERY</name>
		  <description><a href="http://www.cwgc.org/find-a-cemetery/cemetery/7601/QUERRIEU%20BRITISH%20CEMETERY">QUERRIEU BRITISH CEMETERY at the Commonwealth War Graves Commission</a>
		  </description>
		  <Point>
			<coordinates> 2.42977,49.93493</coordinates>
		  </Point>
		</Placemark><Placemark>
		  <name>PONT-NOYELLE COMMUNAL CEMETERY</name>
		  <description><a href="http://www.cwgc.org/find-a-cemetery/cemetery/7602/PONT-NOYELLE%20COMMUNAL%20CEMETERY">PONT-NOYELLE COMMUNAL CEMETERY at the Commonwealth War Graves Commission</a>
		  </description>
		  <Point>
			<coordinates> 2.4436,49.94231</coordinates>
		  </Point>
		</Placemark><Placemark>
		  <name>DAOURS COMMUNAL CEMETERY EXTENSION</name>
		  <description><a href="http://www.cwgc.org/find-a-cemetery/cemetery/7603/DAOURS%20COMMUNAL%20CEMETERY%20EXTENSION">DAOURS COMMUNAL CEMETERY EXTENSION at the Commonwealth War Graves Commission</a>
		  </description>
		  <Point>
			<coordinates> 2.44577,49.90549</coordinates>
		  </Point>
		</Placemark><Placemark>
		  <name>ABBEVILLE COMMUNAL CEMETERY EXTENSION</name>
		  <description><a href="http://www.cwgc.org/find-a-cemetery/cemetery/7700/ABBEVILLE%20COMMUNAL%20CEMETERY%20EXTENSION">ABBEVILLE COMMUNAL CEMETERY EXTENSION at the Commonwealth War Graves Commission</a>
		  </description>
		  <Point>
			<coordinates> 1.83222,50.12141</coordinates>
		  </Point>
		</Placemark><Placemark>
		  <name>HAUTE-AVESNES BRITISH CEMETERY</name>
		  <description><a href="http://www.cwgc.org/find-a-cemetery/cemetery/7800/HAUTE-AVESNES%20BRITISH%20CEMETERY">HAUTE-AVESNES BRITISH CEMETERY at the Commonwealth War Graves Commission</a>
		  </description>
		  <Point>
			<coordinates> 2.63441,50.32556</coordinates>
		  </Point>
		</Placemark><Placemark>
		  <name>DAINVILLE BRITISH CEMETERY</name>
		  <description><a href="http://www.cwgc.org/find-a-cemetery/cemetery/7801/DAINVILLE%20BRITISH%20CEMETERY">DAINVILLE BRITISH CEMETERY at the Commonwealth War Graves Commission</a>
		  </description>
		  <Point>
			<coordinates> 2.71258,50.28317</coordinates>
		  </Point>
		</Placemark><Placemark>
		  <name>DAINVILLE COMMUNAL CEMETERY</name>
		  <description><a href="http://www.cwgc.org/find-a-cemetery/cemetery/7802/DAINVILLE%20COMMUNAL%20CEMETERY">DAINVILLE COMMUNAL CEMETERY at the Commonwealth War Graves Commission</a>
		  </description>
		  <Point>
			<coordinates> 2.73078,50.28261</coordinates>
		  </Point>
		</Placemark><Placemark>
		  <name>WANQUETIN COMMUNAL CEMETERY EXTENSION</name>
		  <description><a href="http://www.cwgc.org/find-a-cemetery/cemetery/7804/WANQUETIN%20COMMUNAL%20CEMETERY%20EXTENSION">WANQUETIN COMMUNAL CEMETERY EXTENSION at the Commonwealth War Graves Commission</a>
		  </description>
		  <Point>
			<coordinates> 2.61966,50.27902</coordinates>
		  </Point>
		</Placemark><Placemark>
		  <name>WANQUETIN COMMUNAL CEMETERY</name>
		  <description><a href="http://www.cwgc.org/find-a-cemetery/cemetery/7806/WANQUETIN%20COMMUNAL%20CEMETERY">WANQUETIN COMMUNAL CEMETERY at the Commonwealth War Graves Commission</a>
		  </description>
		  <Point>
			<coordinates> 2.61986,50.27813</coordinates>
		  </Point>
		</Placemark><Placemark>
		  <name>LA CHAUDIERE MILITARY CEMETERY, VIMY</name>
		  <description><a href="http://www.cwgc.org/find-a-cemetery/cemetery/7900/LA%20CHAUDIERE%20MILITARY%20CEMETERY%2C%20VIMY">LA CHAUDIERE MILITARY CEMETERY, VIMY at the Commonwealth War Graves Commission</a>
		  </description>
		  <Point>
			<coordinates> 2.80328,50.38479</coordinates>
		  </Point>
		</Placemark><Placemark>
		  <name>CONTAY BRITISH CEMETERY, CONTAY</name>
		  <description><a href="http://www.cwgc.org/find-a-cemetery/cemetery/8000/CONTAY%20BRITISH%20CEMETERY%2C%20CONTAY">CONTAY BRITISH CEMETERY, CONTAY at the Commonwealth War Graves Commission</a>
		  </description>
		  <Point>
			<coordinates> 2.48277,49.99871</coordinates>
		  </Point>
		</Placemark><Placemark>
		  <name>HARPONVILLE COMMUNAL CEMETERY</name>
		  <description><a href="http://www.cwgc.org/find-a-cemetery/cemetery/8001/HARPONVILLE%20COMMUNAL%20CEMETERY">HARPONVILLE COMMUNAL CEMETERY at the Commonwealth War Graves Commission</a>
		  </description>
		  <Point>
			<coordinates> 2.50202,50.03899</coordinates>
		  </Point>
		</Placemark><Placemark>
		  <name>HARPONVILLE COMMUNAL CEMETERY EXTENSION</name>
		  <description><a href="http://www.cwgc.org/find-a-cemetery/cemetery/8002/HARPONVILLE%20COMMUNAL%20CEMETERY%20EXTENSION">HARPONVILLE COMMUNAL CEMETERY EXTENSION at the Commonwealth War Graves Commission</a>
		  </description>
		  <Point>
			<coordinates> 2.50231,50.03912</coordinates>
		  </Point>
		</Placemark><Placemark>
		  <name>DOULLENS COMMUNAL CEMETERY EXTENSION NO.2</name>
		  <description><a href="http://www.cwgc.org/find-a-cemetery/cemetery/8100/DOULLENS%20COMMUNAL%20CEMETERY%20EXTENSION%20NO.2">DOULLENS COMMUNAL CEMETERY EXTENSION NO.2 at the Commonwealth War Graves Commission</a>
		  </description>
		  <Point>
			<coordinates> 2.35041,50.15628</coordinates>
		  </Point>
		</Placemark><Placemark>
		  <name>DOULLENS COMMUNAL CEMETERY EXTENSION NO.1</name>
		  <description><a href="http://www.cwgc.org/find-a-cemetery/cemetery/8101/DOULLENS%20COMMUNAL%20CEMETERY%20EXTENSION%20NO.1">DOULLENS COMMUNAL CEMETERY EXTENSION NO.1 at the Commonwealth War Graves Commission</a>
		  </description>
		  <Point>
			<coordinates> 2.35102,50.15521</coordinates>
		  </Point>
		</Placemark><Placemark>
		  <name>WIMEREUX COMMUNAL CEMETERY</name>
		  <description><a href="http://www.cwgc.org/find-a-cemetery/cemetery/8200/WIMEREUX%20COMMUNAL%20CEMETERY">WIMEREUX COMMUNAL CEMETERY at the Commonwealth War Graves Commission</a>
		  </description>
		  <Point>
			<coordinates> 1.61333,50.77389</coordinates>
		  </Point>
		</Placemark><Placemark>
		  <name>LES BARAQUES MILITARY CEMETERY, SANGATTE</name>
		  <description><a href="http://www.cwgc.org/find-a-cemetery/cemetery/8300/LES%20BARAQUES%20MILITARY%20CEMETERY%2C%20SANGATTE">LES BARAQUES MILITARY CEMETERY, SANGATTE at the Commonwealth War Graves Commission</a>
		  </description>
		  <Point>
			<coordinates> 1.82406,50.96004</coordinates>
		  </Point>
		</Placemark><Placemark>
		  <name>WARLINCOURT HALTE BRITISH CEMETERY, SAULTY</name>
		  <description><a href="http://www.cwgc.org/find-a-cemetery/cemetery/8700/WARLINCOURT%20HALTE%20BRITISH%20CEMETERY%2C%20SAULTY">WARLINCOURT HALTE BRITISH CEMETERY, SAULTY at the Commonwealth War Graves Commission</a>
		  </description>
		  <Point>
			<coordinates> 2.51891,50.19835</coordinates>
		  </Point>
		</Placemark><Placemark>
		  <name>ETRETAT CHURCHYARD</name>
		  <description><a href="http://www.cwgc.org/find-a-cemetery/cemetery/9800/ETRETAT%20CHURCHYARD">ETRETAT CHURCHYARD at the Commonwealth War Graves Commission</a>
		  </description>
		  <Point>
			<coordinates> 0.21059,49.70773</coordinates>
		  </Point>
		</Placemark><Placemark>
		  <name>ETRETAT CHURCHYARD EXTENSION</name>
		  <description><a href="http://www.cwgc.org/find-a-cemetery/cemetery/9801/ETRETAT%20CHURCHYARD%20EXTENSION">ETRETAT CHURCHYARD EXTENSION at the Commonwealth War Graves Commission</a>
		  </description>
		  <Point>
			<coordinates> 0.212,49.70756</coordinates>
		  </Point>
		</Placemark><Placemark>
		  <name>TOURGEVILLE MILITARY CEMETERY</name>
		  <description><a href="http://www.cwgc.org/find-a-cemetery/cemetery/9802/TOURGEVILLE%20MILITARY%20CEMETERY">TOURGEVILLE MILITARY CEMETERY at the Commonwealth War Graves Commission</a>
		  </description>
		  <Point>
			<coordinates> 0.06901,49.33991</coordinates>
		  </Point>
		</Placemark><Placemark>
		  <name>FECAMP (LE VAL AUX CLERCS) COMMUNAL CEMETERY</name>
		  <description><a href="http://www.cwgc.org/find-a-cemetery/cemetery/9804/FECAMP%20%28LE%20VAL%20AUX%20CLERCS%29%20COMMUNAL%20CEMETERY">FECAMP (LE VAL AUX CLERCS) COMMUNAL CEMETERY at the Commonwealth War Graves Commission</a>
		  </description>
		  <Point>
			<coordinates> 0.37431,49.74837</coordinates>
		  </Point>
		</Placemark><Placemark>
		  <name>YVETOT COMMUNAL CEMETERY</name>
		  <description><a href="http://www.cwgc.org/find-a-cemetery/cemetery/9806/YVETOT%20COMMUNAL%20CEMETERY">YVETOT COMMUNAL CEMETERY at the Commonwealth War Graves Commission</a>
		  </description>
		  <Point>
			<coordinates> 0.76128,49.61347</coordinates>
		  </Point>
		</Placemark><Placemark>
		  <name>DEAUVILLE COMMUNAL CEMETERY</name>
		  <description><a href="http://www.cwgc.org/find-a-cemetery/cemetery/9808/DEAUVILLE%20COMMUNAL%20CEMETERY">DEAUVILLE COMMUNAL CEMETERY at the Commonwealth War Graves Commission</a>
		  </description>
		  <Point>
			<coordinates> 0.07177,49.34426</coordinates>
		  </Point>
		</Placemark><Placemark>
		  <name>TROUVILLE COMMUNAL CEMETERY</name>
		  <description><a href="http://www.cwgc.org/find-a-cemetery/cemetery/9810/TROUVILLE%20COMMUNAL%20CEMETERY">TROUVILLE COMMUNAL CEMETERY at the Commonwealth War Graves Commission</a>
		  </description>
		  <Point>
			<coordinates> 0.09327,49.35867</coordinates>
		  </Point>
		</Placemark><Placemark>
		  <name>FALAISE COMMUNAL CEMETERY</name>
		  <description><a href="http://www.cwgc.org/find-a-cemetery/cemetery/9812/FALAISE%20COMMUNAL%20CEMETERY">FALAISE COMMUNAL CEMETERY at the Commonwealth War Graves Commission</a>
		  </description>
		  <Point>
			<coordinates> -0.20377,48.89029</coordinates>
		  </Point>
		</Placemark><Placemark>
		  <name>LES MOUTIERS-HUBERT CHURCHYARD</name>
		  <description><a href="http://www.cwgc.org/find-a-cemetery/cemetery/9814/LES%20MOUTIERS-HUBERT%20CHURCHYARD">LES MOUTIERS-HUBERT CHURCHYARD at the Commonwealth War Graves Commission</a>
		  </description>
		  <Point>
			<coordinates> 0.26616,48.97617</coordinates>
		  </Point>
		</Placemark><Placemark>
		  <name>MAILLY WOOD CEMETERY, MAILLY-MAILLET</name>
		  <description><a href="http://www.cwgc.org/find-a-cemetery/cemetery/10900/MAILLY%20WOOD%20CEMETERY%2C%20MAILLY-MAILLET">MAILLY WOOD CEMETERY, MAILLY-MAILLET at the Commonwealth War Graves Commission</a>
		  </description>
		  <Point>
			<coordinates> 2.59923,50.0748</coordinates>
		  </Point>
		</Placemark><Placemark>
		  <name>COURCELLES-AU-BOIS COMMUNAL CEMETERY EXTENSION</name>
		  <description><a href="http://www.cwgc.org/find-a-cemetery/cemetery/10903/COURCELLES-AU-BOIS%20COMMUNAL%20CEMETERY%20EXTENSION">COURCELLES-AU-BOIS COMMUNAL CEMETERY EXTENSION at the Commonwealth War Graves Commission</a>
		  </description>
		  <Point>
			<coordinates> 2.58548,50.10582</coordinates>
		  </Point>
		</Placemark><Placemark>
		  <name>LE TREPORT MILITARY CEMETERY</name>
		  <description><a href="http://www.cwgc.org/find-a-cemetery/cemetery/11300/LE%20TREPORT%20MILITARY%20CEMETERY">LE TREPORT MILITARY CEMETERY at the Commonwealth War Graves Commission</a>
		  </description>
		  <Point>
			<coordinates> 1.37323,50.05742</coordinates>
		  </Point>
		</Placemark><Placemark>
		  <name>FORCEVILLE COMMUNAL CEMETERY AND EXTENSION</name>
		  <description><a href="http://www.cwgc.org/find-a-cemetery/cemetery/11400/FORCEVILLE%20COMMUNAL%20CEMETERY%20AND%20EXTENSION">FORCEVILLE COMMUNAL CEMETERY AND EXTENSION at the Commonwealth War Graves Commission</a>
		  </description>
		  <Point>
			<coordinates> 2.55237,50.06273</coordinates>
		  </Point>
		</Placemark><Placemark>
		  <name>LOUVENCOURT MILITARY CEMETERY</name>
		  <description><a href="http://www.cwgc.org/find-a-cemetery/cemetery/11500/LOUVENCOURT%20MILITARY%20CEMETERY">LOUVENCOURT MILITARY CEMETERY at the Commonwealth War Graves Commission</a>
		  </description>
		  <Point>
			<coordinates> 2.5037,50.08929</coordinates>
		  </Point>
		</Placemark><Placemark>
		  <name>ACHEUX BRITISH CEMETERY</name>
		  <description><a href="http://www.cwgc.org/find-a-cemetery/cemetery/11501/ACHEUX%20BRITISH%20CEMETERY">ACHEUX BRITISH CEMETERY at the Commonwealth War Graves Commission</a>
		  </description>
		  <Point>
			<coordinates> 2.52444,50.07128</coordinates>
		  </Point>
		</Placemark><Placemark>
		  <name>BERTRANCOURT MILITARY CEMETERY</name>
		  <description><a href="http://www.cwgc.org/find-a-cemetery/cemetery/11502/BERTRANCOURT%20MILITARY%20CEMETERY">BERTRANCOURT MILITARY CEMETERY at the Commonwealth War Graves Commission</a>
		  </description>
		  <Point>
			<coordinates> 2.55083,50.09082</coordinates>
		  </Point>
		</Placemark><Placemark>
		  <name>BERTRANCOURT COMMUNAL CEMETERY</name>
		  <description><a href="http://www.cwgc.org/find-a-cemetery/cemetery/11503/BERTRANCOURT%20COMMUNAL%20CEMETERY">BERTRANCOURT COMMUNAL CEMETERY at the Commonwealth War Graves Commission</a>
		  </description>
		  <Point>
			<coordinates> 2.55873,50.10086</coordinates>
		  </Point>
		</Placemark><Placemark>
		  <name>BUS-LES-ARTOIS COMMUNAL CEMETERY</name>
		  <description><a href="http://www.cwgc.org/find-a-cemetery/cemetery/11504/BUS-LES-ARTOIS%20COMMUNAL%20CEMETERY">BUS-LES-ARTOIS COMMUNAL CEMETERY at the Commonwealth War Graves Commission</a>
		  </description>
		  <Point>
			<coordinates> 2.54682,50.10352</coordinates>
		  </Point>
		</Placemark><Placemark>
		  <name>PERNES BRITISH CEMETERY</name>
		  <description><a href="http://www.cwgc.org/find-a-cemetery/cemetery/11600/PERNES%20BRITISH%20CEMETERY">PERNES BRITISH CEMETERY at the Commonwealth War Graves Commission</a>
		  </description>
		  <Point>
			<coordinates> 2.3958,50.48333</coordinates>
		  </Point>
		</Placemark><Placemark>
		  <name>MONT HUON MILITARY CEMETERY, LE TREPORT</name>
		  <description><a href="http://www.cwgc.org/find-a-cemetery/cemetery/11700/MONT%20HUON%20MILITARY%20CEMETERY%2C%20LE%20TREPORT">MONT HUON MILITARY CEMETERY, LE TREPORT at the Commonwealth War Graves Commission</a>
		  </description>
		  <Point>
			<coordinates> 1.36489,50.046</coordinates>
		  </Point>
		</Placemark><Placemark>
		  <name>MAROEUIL BRITISH CEMETERY</name>
		  <description><a href="http://www.cwgc.org/find-a-cemetery/cemetery/11800/MAROEUIL%20BRITISH%20CEMETERY">MAROEUIL BRITISH CEMETERY at the Commonwealth War Graves Commission</a>
		  </description>
		  <Point>
			<coordinates> 2.69989,50.32789</coordinates>
		  </Point>
		</Placemark><Placemark>
		  <name>BOIS GUILLAUME COMMUNAL CEMETERY</name>
		  <description><a href="http://www.cwgc.org/find-a-cemetery/cemetery/11900/BOIS%20GUILLAUME%20COMMUNAL%20CEMETERY">BOIS GUILLAUME COMMUNAL CEMETERY at the Commonwealth War Graves Commission</a>
		  </description>
		  <Point>
			<coordinates> 1.11124,49.46856</coordinates>
		  </Point>
		</Placemark><Placemark>
		  <name>BOIS GUILLAUME COMMUNAL CEMETERY EXTENSION</name>
		  <description><a href="http://www.cwgc.org/find-a-cemetery/cemetery/11901/BOIS%20GUILLAUME%20COMMUNAL%20CEMETERY%20EXTENSION">BOIS GUILLAUME COMMUNAL CEMETERY EXTENSION at the Commonwealth War Graves Commission</a>
		  </description>
		  <Point>
			<coordinates> 1.11059,49.46928</coordinates>
		  </Point>
		</Placemark><Placemark>
		  <name>CHOCQUES MILITARY CEMETERY</name>
		  <description><a href="http://www.cwgc.org/find-a-cemetery/cemetery/16500/CHOCQUES%20MILITARY%20CEMETERY">CHOCQUES MILITARY CEMETERY at the Commonwealth War Graves Commission</a>
		  </description>
		  <Point>
			<coordinates> 2.57556,50.54419</coordinates>
		  </Point>
		</Placemark><Placemark>
		  <name>CAMBRIN CHURCHYARD EXTENSION</name>
		  <description><a href="http://www.cwgc.org/find-a-cemetery/cemetery/16800/CAMBRIN%20CHURCHYARD%20EXTENSION">CAMBRIN CHURCHYARD EXTENSION at the Commonwealth War Graves Commission</a>
		  </description>
		  <Point>
			<coordinates> 2.74138,50.51013</coordinates>
		  </Point>
		</Placemark><Placemark>
		  <name>ST. SEVER CEMETERY, ROUEN</name>
		  <description><a href="http://www.cwgc.org/find-a-cemetery/cemetery/16900/ST.%20SEVER%20CEMETERY%2C%20ROUEN">ST. SEVER CEMETERY, ROUEN at the Commonwealth War Graves Commission</a>
		  </description>
		  <Point>
			<coordinates> 1.06926,49.41263</coordinates>
		  </Point>
		</Placemark><Placemark>
		  <name>COUIN BRITISH CEMETERY</name>
		  <description><a href="http://www.cwgc.org/find-a-cemetery/cemetery/17200/COUIN%20BRITISH%20CEMETERY">COUIN BRITISH CEMETERY at the Commonwealth War Graves Commission</a>
		  </description>
		  <Point>
			<coordinates> 2.53346,50.13941</coordinates>
		  </Point>
		</Placemark><Placemark>
		  <name>COUIN NEW BRITISH CEMETERY</name>
		  <description><a href="http://www.cwgc.org/find-a-cemetery/cemetery/17201/COUIN%20NEW%20BRITISH%20CEMETERY">COUIN NEW BRITISH CEMETERY at the Commonwealth War Graves Commission</a>
		  </description>
		  <Point>
			<coordinates> 2.53301,50.13957</coordinates>
		  </Point>
		</Placemark><Placemark>
		  <name>COUIN COMMUNAL CEMETERY</name>
		  <description><a href="http://www.cwgc.org/find-a-cemetery/cemetery/17202/COUIN%20COMMUNAL%20CEMETERY">COUIN COMMUNAL CEMETERY at the Commonwealth War Graves Commission</a>
		  </description>
		  <Point>
			<coordinates> 2.52745,50.13004</coordinates>
		  </Point>
		</Placemark><Placemark>
		  <name>ROMERIES COMMUNAL CEMETERY EXTENSION</name>
		  <description><a href="http://www.cwgc.org/find-a-cemetery/cemetery/17300/ROMERIES%20COMMUNAL%20CEMETERY%20EXTENSION">ROMERIES COMMUNAL CEMETERY EXTENSION at the Commonwealth War Graves Commission</a>
		  </description>
		  <Point>
			<coordinates> 3.52343,50.20073</coordinates>
		  </Point>
		</Placemark><Placemark>
		  <name>MERICOURT-L'ABBE COMMUNAL CEMETERY EXTENSION</name>
		  <description><a href="http://www.cwgc.org/find-a-cemetery/cemetery/17400/MERICOURT-L%27ABBE%20COMMUNAL%20CEMETERY%20EXTENSION">MERICOURT-L'ABBE COMMUNAL CEMETERY EXTENSION at the Commonwealth War Graves Commission</a>
		  </description>
		  <Point>
			<coordinates> 2.57165,49.95277</coordinates>
		  </Point>
		</Placemark><Placemark>
		  <name>FRANVILLERS COMMUNAL CEMETERY</name>
		  <description><a href="http://www.cwgc.org/find-a-cemetery/cemetery/17405/FRANVILLERS%20COMMUNAL%20CEMETERY">FRANVILLERS COMMUNAL CEMETERY at the Commonwealth War Graves Commission</a>
		  </description>
		  <Point>
			<coordinates> 2.51149,49.9647</coordinates>
		  </Point>
		</Placemark><Placemark>
		  <name>FRANVILLERS COMMUNAL CEMETERY EXTENSION</name>
		  <description><a href="http://www.cwgc.org/find-a-cemetery/cemetery/17406/FRANVILLERS%20COMMUNAL%20CEMETERY%20EXTENSION">FRANVILLERS COMMUNAL CEMETERY EXTENSION at the Commonwealth War Graves Commission</a>
		  </description>
		  <Point>
			<coordinates> 2.51095,49.96496</coordinates>
		  </Point>
		</Placemark><Placemark>
		  <name>BONNAY COMMUNAL CEMETERY EXTENSION</name>
		  <description><a href="http://www.cwgc.org/find-a-cemetery/cemetery/17408/BONNAY%20COMMUNAL%20CEMETERY%20EXTENSION">BONNAY COMMUNAL CEMETERY EXTENSION at the Commonwealth War Graves Commission</a>
		  </description>
		  <Point>
			<coordinates> 2.50437,49.93734</coordinates>
		  </Point>
		</Placemark><Placemark>
		  <name>UNICORN CEMETERY, VENDHUILE</name>
		  <description><a href="http://www.cwgc.org/find-a-cemetery/cemetery/17500/UNICORN%20CEMETERY%2C%20VENDHUILE">UNICORN CEMETERY, VENDHUILE at the Commonwealth War Graves Commission</a>
		  </description>
		  <Point>
			<coordinates> 3.18192,49.99663</coordinates>
		  </Point>
		</Placemark><Placemark>
		  <name>VENDHUILE COMMUNAL CEMETERY</name>
		  <description><a href="http://www.cwgc.org/find-a-cemetery/cemetery/17501/VENDHUILE%20COMMUNAL%20CEMETERY">VENDHUILE COMMUNAL CEMETERY at the Commonwealth War Graves Commission</a>
		  </description>
		  <Point>
			<coordinates> 3.20581,50.01079</coordinates>
		  </Point>
		</Placemark><Placemark>
		  <name>BUCQUOY ROAD CEMETERY, FICHEUX</name>
		  <description><a href="http://www.cwgc.org/find-a-cemetery/cemetery/17600/BUCQUOY%20ROAD%20CEMETERY%2C%20FICHEUX">BUCQUOY ROAD CEMETERY, FICHEUX at the Commonwealth War Graves Commission</a>
		  </description>
		  <Point>
			<coordinates> 2.76229,50.22215</coordinates>
		  </Point>
		</Placemark><Placemark>
		  <name>KNIGHTSBRIDGE CEMETERY, MESNIL-MARTINSART</name>
		  <description><a href="http://www.cwgc.org/find-a-cemetery/cemetery/17900/KNIGHTSBRIDGE%20CEMETERY%2C%20MESNIL-MARTINSART">KNIGHTSBRIDGE CEMETERY, MESNIL-MARTINSART at the Commonwealth War Graves Commission</a>
		  </description>
		  <Point>
			<coordinates> 2.64373,50.06756</coordinates>
		  </Point>
		</Placemark><Placemark>
		  <name>BEAUMONT-HAMEL BRITISH CEMETERY</name>
		  <description><a href="http://www.cwgc.org/find-a-cemetery/cemetery/17901/BEAUMONT-HAMEL%20BRITISH%20CEMETERY">BEAUMONT-HAMEL BRITISH CEMETERY at the Commonwealth War Graves Commission</a>
		  </description>
		  <Point>
			<coordinates> 2.64981,50.08591</coordinates>
		  </Point>
		</Placemark><Placemark>
		  <name>MAZINGARBE COMMUNAL CEMETERY</name>
		  <description><a href="http://www.cwgc.org/find-a-cemetery/cemetery/18000/MAZINGARBE%20COMMUNAL%20CEMETERY">MAZINGARBE COMMUNAL CEMETERY at the Commonwealth War Graves Commission</a>
		  </description>
		  <Point>
			<coordinates> 2.7129,50.46966</coordinates>
		  </Point>
		</Placemark><Placemark>
		  <name>MAZINGARBE COMMUNAL CEMETERY EXTENSION</name>
		  <description><a href="http://www.cwgc.org/find-a-cemetery/cemetery/18001/MAZINGARBE%20COMMUNAL%20CEMETERY%20EXTENSION">MAZINGARBE COMMUNAL CEMETERY EXTENSION at the Commonwealth War Graves Commission</a>
		  </description>
		  <Point>
			<coordinates> 2.71354,50.46813</coordinates>
		  </Point>
		</Placemark><Placemark>
		  <name>HERSIN COMMUNAL CEMETERY EXTENSION</name>
		  <description><a href="http://www.cwgc.org/find-a-cemetery/cemetery/18002/HERSIN%20COMMUNAL%20CEMETERY%20EXTENSION">HERSIN COMMUNAL CEMETERY EXTENSION at the Commonwealth War Graves Commission</a>
		  </description>
		  <Point>
			<coordinates> 2.6541,50.44973</coordinates>
		  </Point>
		</Placemark><Placemark>
		  <name>MARTINSART BRITISH CEMETERY</name>
		  <description><a href="http://www.cwgc.org/find-a-cemetery/cemetery/18100/MARTINSART%20BRITISH%20CEMETERY">MARTINSART BRITISH CEMETERY at the Commonwealth War Graves Commission</a>
		  </description>
		  <Point>
			<coordinates> 2.63487,50.03773</coordinates>
		  </Point>
		</Placemark><Placemark>
		  <name>MESNIL COMMUNAL CEMETERY EXTENSION</name>
		  <description><a href="http://www.cwgc.org/find-a-cemetery/cemetery/18101/MESNIL%20COMMUNAL%20CEMETERY%20EXTENSION">MESNIL COMMUNAL CEMETERY EXTENSION at the Commonwealth War Graves Commission</a>
		  </description>
		  <Point>
			<coordinates> 2.6421,50.04898</coordinates>
		  </Point>
		</Placemark><Placemark>
		  <name>RAMICOURT BRITISH CEMETERY</name>
		  <description><a href="http://www.cwgc.org/find-a-cemetery/cemetery/18202/RAMICOURT%20BRITISH%20CEMETERY">RAMICOURT BRITISH CEMETERY at the Commonwealth War Graves Commission</a>
		  </description>
		  <Point>
			<coordinates> 3.33097,49.95477</coordinates>
		  </Point>
		</Placemark><Placemark>
		  <name>PROSPECT HILL CEMETERY, GOUY</name>
		  <description><a href="http://www.cwgc.org/find-a-cemetery/cemetery/18203/PROSPECT%20HILL%20CEMETERY%2C%20GOUY">PROSPECT HILL CEMETERY, GOUY at the Commonwealth War Graves Commission</a>
		  </description>
		  <Point>
			<coordinates> 3.27138,50.00249</coordinates>
		  </Point>
		</Placemark><Placemark>
		  <name>JONCOURT BRITISH CEMETERY</name>
		  <description><a href="http://www.cwgc.org/find-a-cemetery/cemetery/18204/JONCOURT%20BRITISH%20CEMETERY">JONCOURT BRITISH CEMETERY at the Commonwealth War Graves Commission</a>
		  </description>
		  <Point>
			<coordinates> 3.30255,49.94822</coordinates>
		  </Point>
		</Placemark><Placemark>
		  <name>JONCOURT EAST BRITISH CEMETERY</name>
		  <description><a href="http://www.cwgc.org/find-a-cemetery/cemetery/18205/JONCOURT%20EAST%20BRITISH%20CEMETERY">JONCOURT EAST BRITISH CEMETERY at the Commonwealth War Graves Commission</a>
		  </description>
		  <Point>
			<coordinates> 3.30967,49.95419</coordinates>
		  </Point>
		</Placemark><Placemark>
		  <name>JONCOURT COMMUNAL CEMETERY</name>
		  <description><a href="http://www.cwgc.org/find-a-cemetery/cemetery/18206/JONCOURT%20COMMUNAL%20CEMETERY">JONCOURT COMMUNAL CEMETERY at the Commonwealth War Graves Commission</a>
		  </description>
		  <Point>
			<coordinates> 3.30079,49.95494</coordinates>
		  </Point>
		</Placemark><Placemark>
		  <name>ADANAC MILITARY CEMETERY, MIRAUMONT</name>
		  <description><a href="http://www.cwgc.org/find-a-cemetery/cemetery/18300/ADANAC%20MILITARY%20CEMETERY%2C%20MIRAUMONT">ADANAC MILITARY CEMETERY, MIRAUMONT at the Commonwealth War Graves Commission</a>
		  </description>
		  <Point>
			<coordinates> 2.74349,50.07415</coordinates>
		  </Point>
		</Placemark><Placemark>
		  <name>LEBUCQUIERE COMMUNAL CEMETERY EXTENSION</name>
		  <description><a href="http://www.cwgc.org/find-a-cemetery/cemetery/18400/LEBUCQUIERE%20COMMUNAL%20CEMETERY%20EXTENSION">LEBUCQUIERE COMMUNAL CEMETERY EXTENSION at the Commonwealth War Graves Commission</a>
		  </description>
		  <Point>
			<coordinates> 2.96925,50.11181</coordinates>
		  </Point>
		</Placemark><Placemark>
		  <name>BLIGHTY VALLEY CEMETERY, AUTHUILLE WOOD</name>
		  <description><a href="http://www.cwgc.org/find-a-cemetery/cemetery/18500/BLIGHTY%20VALLEY%20CEMETERY%2C%20AUTHUILLE%20WOOD">BLIGHTY VALLEY CEMETERY, AUTHUILLE WOOD at the Commonwealth War Graves Commission</a>
		  </description>
		  <Point>
			<coordinates> 2.66828,50.03329</coordinates>
		  </Point>
		</Placemark><Placemark>
		  <name>BEACON CEMETERY, SAILLY-LAURETTE</name>
		  <description><a href="http://www.cwgc.org/find-a-cemetery/cemetery/18600/BEACON%20CEMETERY%2C%20SAILLY-LAURETTE">BEACON CEMETERY, SAILLY-LAURETTE at the Commonwealth War Graves Commission</a>
		  </description>
		  <Point>
			<coordinates> 2.61668,49.93697</coordinates>
		  </Point>
		</Placemark><Placemark>
		  <name>AVELUY COMMUNAL CEMETERY EXTENSION</name>
		  <description><a href="http://www.cwgc.org/find-a-cemetery/cemetery/18700/AVELUY%20COMMUNAL%20CEMETERY%20EXTENSION">AVELUY COMMUNAL CEMETERY EXTENSION at the Commonwealth War Graves Commission</a>
		  </description>
		  <Point>
			<coordinates> 2.65713,50.02456</coordinates>
		  </Point>
		</Placemark><Placemark>
		  <name>SAILLY-SUR-LA-LYS CHURCHYARD</name>
		  <description><a href="http://www.cwgc.org/find-a-cemetery/cemetery/18800/SAILLY-SUR-LA-LYS%20CHURCHYARD">SAILLY-SUR-LA-LYS CHURCHYARD at the Commonwealth War Graves Commission</a>
		  </description>
		  <Point>
			<coordinates> 2.76777,50.65918</coordinates>
		  </Point>
		</Placemark><Placemark>
		  <name>SAILLY-SUR-LA-LYS CANADIAN CEMETERY</name>
		  <description><a href="http://www.cwgc.org/find-a-cemetery/cemetery/18801/SAILLY-SUR-LA-LYS%20CANADIAN%20CEMETERY">SAILLY-SUR-LA-LYS CANADIAN CEMETERY at the Commonwealth War Graves Commission</a>
		  </description>
		  <Point>
			<coordinates> 2.76325,50.65271</coordinates>
		  </Point>
		</Placemark><Placemark>
		  <name>ANZAC CEMETERY, SAILLY-SUR-LA-LYS</name>
		  <description><a href="http://www.cwgc.org/find-a-cemetery/cemetery/18802/ANZAC%20CEMETERY%2C%20SAILLY-SUR-LA-LYS">ANZAC CEMETERY, SAILLY-SUR-LA-LYS at the Commonwealth War Graves Commission</a>
		  </description>
		  <Point>
			<coordinates> 2.76311,50.65271</coordinates>
		  </Point>
		</Placemark><Placemark>
		  <name>SAILLY-LABOURSE COMMUNAL CEMETERY</name>
		  <description><a href="http://www.cwgc.org/find-a-cemetery/cemetery/19000/SAILLY-LABOURSE%20COMMUNAL%20CEMETERY">SAILLY-LABOURSE COMMUNAL CEMETERY at the Commonwealth War Graves Commission</a>
		  </description>
		  <Point>
			<coordinates> 2.69865,50.49839</coordinates>
		  </Point>
		</Placemark><Placemark>
		  <name>SAILLY-LABOURSE COMMUNAL CEMETERY EXTENSION</name>
		  <description><a href="http://www.cwgc.org/find-a-cemetery/cemetery/19001/SAILLY-LABOURSE%20COMMUNAL%20CEMETERY%20EXTENSION">SAILLY-LABOURSE COMMUNAL CEMETERY EXTENSION at the Commonwealth War Graves Commission</a>
		  </description>
		  <Point>
			<coordinates> 2.69977,50.49878</coordinates>
		  </Point>
		</Placemark><Placemark>
		  <name>LABOURSE COMMUNAL CEMETERY</name>
		  <description><a href="http://www.cwgc.org/find-a-cemetery/cemetery/19002/LABOURSE%20COMMUNAL%20CEMETERY">LABOURSE COMMUNAL CEMETERY at the Commonwealth War Graves Commission</a>
		  </description>
		  <Point>
			<coordinates> 2.68379,50.49431</coordinates>
		  </Point>
		</Placemark><Placemark>
		  <name>POST OFFICE RIFLES CEMETERY, FESTUBERT</name>
		  <description><a href="http://www.cwgc.org/find-a-cemetery/cemetery/19101/POST%20OFFICE%20RIFLES%20CEMETERY%2C%20FESTUBERT">POST OFFICE RIFLES CEMETERY, FESTUBERT at the Commonwealth War Graves Commission</a>
		  </description>
		  <Point>
			<coordinates> 2.72559,50.54273</coordinates>
		  </Point>
		</Placemark><Placemark>
		  <name>PONT-D'ACHELLES MILITARY CEMETERY, NIEPPE</name>
		  <description><a href="http://www.cwgc.org/find-a-cemetery/cemetery/19200/PONT-D%27ACHELLES%20MILITARY%20CEMETERY%2C%20NIEPPE">PONT-D'ACHELLES MILITARY CEMETERY, NIEPPE at the Commonwealth War Graves Commission</a>
		  </description>
		  <Point>
			<coordinates> 2.81907,50.71538</coordinates>
		  </Point>
		</Placemark><Placemark>
		  <name>PONT-DE-NIEPPE COMMUNAL CEMETERY</name>
		  <description><a href="http://www.cwgc.org/find-a-cemetery/cemetery/19201/PONT-DE-NIEPPE%20COMMUNAL%20CEMETERY">PONT-DE-NIEPPE COMMUNAL CEMETERY at the Commonwealth War Graves Commission</a>
		  </description>
		  <Point>
			<coordinates> 2.85435,50.70051</coordinates>
		  </Point>
		</Placemark><Placemark>
		  <name>NIEPPE COMMUNAL CEMETERY</name>
		  <description><a href="http://www.cwgc.org/find-a-cemetery/cemetery/19202/NIEPPE%20COMMUNAL%20CEMETERY">NIEPPE COMMUNAL CEMETERY at the Commonwealth War Graves Commission</a>
		  </description>
		  <Point>
			<coordinates> 2.84126,50.70599</coordinates>
		  </Point>
		</Placemark><Placemark>
		  <name>ROCLINCOURT VALLEY CEMETERY</name>
		  <description><a href="http://www.cwgc.org/find-a-cemetery/cemetery/19300/ROCLINCOURT%20VALLEY%20CEMETERY">ROCLINCOURT VALLEY CEMETERY at the Commonwealth War Graves Commission</a>
		  </description>
		  <Point>
			<coordinates> 2.80449,50.33322</coordinates>
		  </Point>
		</Placemark><Placemark>
		  <name>ANZIN-ST. AUBIN BRITISH CEMETERY</name>
		  <description><a href="http://www.cwgc.org/find-a-cemetery/cemetery/19301/ANZIN-ST.%20AUBIN%20BRITISH%20CEMETERY">ANZIN-ST. AUBIN BRITISH CEMETERY at the Commonwealth War Graves Commission</a>
		  </description>
		  <Point>
			<coordinates> 2.74557,50.3163</coordinates>
		  </Point>
		</Placemark><Placemark>
		  <name>ST. AUBERT BRITISH CEMETERY</name>
		  <description><a href="http://www.cwgc.org/find-a-cemetery/cemetery/19500/ST.%20AUBERT%20BRITISH%20CEMETERY">ST. AUBERT BRITISH CEMETERY at the Commonwealth War Graves Commission</a>
		  </description>
		  <Point>
			<coordinates> 3.39722,50.20314</coordinates>
		  </Point>
		</Placemark><Placemark>
		  <name>AVESNES-LE-SEC COMMUNAL CEMETERY EXTENSION</name>
		  <description><a href="http://www.cwgc.org/find-a-cemetery/cemetery/19501/AVESNES-LE-SEC%20COMMUNAL%20CEMETERY%20EXTENSION">AVESNES-LE-SEC COMMUNAL CEMETERY EXTENSION at the Commonwealth War Graves Commission</a>
		  </description>
		  <Point>
			<coordinates> 3.36884,50.24918</coordinates>
		  </Point>
		</Placemark><Placemark>
		  <name>THILLOY ROAD CEMETERY, BEAULENCOURT</name>
		  <description><a href="http://www.cwgc.org/find-a-cemetery/cemetery/19901/THILLOY%20ROAD%20CEMETERY%2C%20BEAULENCOURT">THILLOY ROAD CEMETERY, BEAULENCOURT at the Commonwealth War Graves Commission</a>
		  </description>
		  <Point>
			<coordinates> 2.85311,50.07948</coordinates>
		  </Point>
		</Placemark><Placemark>
		  <name>FONCQUEVILLERS MILITARY CEMETERY</name>
		  <description><a href="http://www.cwgc.org/find-a-cemetery/cemetery/20200/FONCQUEVILLERS%20MILITARY%20CEMETERY">FONCQUEVILLERS MILITARY CEMETERY at the Commonwealth War Graves Commission</a>
		  </description>
		  <Point>
			<coordinates> 2.62608,50.14928</coordinates>
		  </Point>
		</Placemark><Placemark>
		  <name>HANNESCAMPS CHURCHYARD</name>
		  <description><a href="http://www.cwgc.org/find-a-cemetery/cemetery/20201/HANNESCAMPS%20CHURCHYARD">HANNESCAMPS CHURCHYARD at the Commonwealth War Graves Commission</a>
		  </description>
		  <Point>
			<coordinates> 2.63731,50.16649</coordinates>
		  </Point>
		</Placemark><Placemark>
		  <name>HANNESCAMPS NEW MILITARY CEMETERY</name>
		  <description><a href="http://www.cwgc.org/find-a-cemetery/cemetery/20202/HANNESCAMPS%20NEW%20MILITARY%20CEMETERY">HANNESCAMPS NEW MILITARY CEMETERY at the Commonwealth War Graves Commission</a>
		  </description>
		  <Point>
			<coordinates> 2.63703,50.1664</coordinates>
		  </Point>
		</Placemark><Placemark>
		  <name>BOUZINCOURT COMMUNAL CEMETERY</name>
		  <description><a href="http://www.cwgc.org/find-a-cemetery/cemetery/20700/BOUZINCOURT%20COMMUNAL%20CEMETERY">BOUZINCOURT COMMUNAL CEMETERY at the Commonwealth War Graves Commission</a>
		  </description>
		  <Point>
			<coordinates> 2.6075,50.02789</coordinates>
		  </Point>
		</Placemark><Placemark>
		  <name>LE GRAND BEAUMART BRITISH CEMETERY, STEENWERCK</name>
		  <description><a href="http://www.cwgc.org/find-a-cemetery/cemetery/20802/LE%20GRAND%20BEAUMART%20BRITISH%20CEMETERY%2C%20STEENWERCK">LE GRAND BEAUMART BRITISH CEMETERY, STEENWERCK at the Commonwealth War Graves Commission</a>
		  </description>
		  <Point>
			<coordinates> 2.75076,50.69788</coordinates>
		  </Point>
		</Placemark><Placemark>
		  <name>ST. ACHEUL FRENCH NATIONAL CEMETERY, AMIENS</name>
		  <description><a href="http://www.cwgc.org/find-a-cemetery/cemetery/20901/ST.%20ACHEUL%20FRENCH%20NATIONAL%20CEMETERY%2C%20AMIENS">ST. ACHEUL FRENCH NATIONAL CEMETERY, AMIENS at the Commonwealth War Graves Commission</a>
		  </description>
		  <Point>
			<coordinates> 2.31672,49.87764</coordinates>
		  </Point>
		</Placemark><Placemark>
		  <name>ST. PIERRE CEMETERY, AMIENS</name>
		  <description><a href="http://www.cwgc.org/find-a-cemetery/cemetery/20902/ST.%20PIERRE%20CEMETERY%2C%20AMIENS">ST. PIERRE CEMETERY, AMIENS at the Commonwealth War Graves Commission</a>
		  </description>
		  <Point>
			<coordinates> 2.32848,49.90977</coordinates>
		  </Point>
		</Placemark><Placemark>
		  <name>LONGUEAU COMMUNAL CEMETERY</name>
		  <description><a href="http://www.cwgc.org/find-a-cemetery/cemetery/20904/LONGUEAU%20COMMUNAL%20CEMETERY">LONGUEAU COMMUNAL CEMETERY at the Commonwealth War Graves Commission</a>
		  </description>
		  <Point>
			<coordinates> 2.35873,49.87472</coordinates>
		  </Point>
		</Placemark><Placemark>
		  <name>LONGUEAU BRITISH CEMETERY</name>
		  <description><a href="http://www.cwgc.org/find-a-cemetery/cemetery/20905/LONGUEAU%20BRITISH%20CEMETERY">LONGUEAU BRITISH CEMETERY at the Commonwealth War Graves Commission</a>
		  </description>
		  <Point>
			<coordinates> 2.35948,49.86954</coordinates>
		  </Point>
		</Placemark><Placemark>
		  <name>CAMON COMMUNAL CEMETERY</name>
		  <description><a href="http://www.cwgc.org/find-a-cemetery/cemetery/20906/CAMON%20COMMUNAL%20CEMETERY">CAMON COMMUNAL CEMETERY at the Commonwealth War Graves Commission</a>
		  </description>
		  <Point>
			<coordinates> 2.34914,49.89006</coordinates>
		  </Point>
		</Placemark><Placemark>
		  <name>BANCOURT COMMUNAL CEMETERY</name>
		  <description><a href="http://www.cwgc.org/find-a-cemetery/cemetery/21000/BANCOURT%20COMMUNAL%20CEMETERY">BANCOURT COMMUNAL CEMETERY at the Commonwealth War Graves Commission</a>
		  </description>
		  <Point>
			<coordinates> 2.8977,50.10225</coordinates>
		  </Point>
		</Placemark><Placemark>
		  <name>BANCOURT BRITISH CEMETERY</name>
		  <description><a href="http://www.cwgc.org/find-a-cemetery/cemetery/21001/BANCOURT%20BRITISH%20CEMETERY">BANCOURT BRITISH CEMETERY at the Commonwealth War Graves Commission</a>
		  </description>
		  <Point>
			<coordinates> 2.89748,50.10237</coordinates>
		  </Point>
		</Placemark><Placemark>
		  <name>MANCHESTER CEMETERY, RIENCOURT-LES-BAPAUME</name>
		  <description><a href="http://www.cwgc.org/find-a-cemetery/cemetery/21002/MANCHESTER%20CEMETERY%2C%20RIENCOURT-LES-BAPAUME">MANCHESTER CEMETERY, RIENCOURT-LES-BAPAUME at the Commonwealth War Graves Commission</a>
		  </description>
		  <Point>
			<coordinates> 2.88967,50.08533</coordinates>
		  </Point>
		</Placemark><Placemark>
		  <name>REGINA TRENCH CEMETERY, GRANDCOURT</name>
		  <description><a href="http://www.cwgc.org/find-a-cemetery/cemetery/23000/REGINA%20TRENCH%20CEMETERY%2C%20GRANDCOURT">REGINA TRENCH CEMETERY, GRANDCOURT at the Commonwealth War Graves Commission</a>
		  </description>
		  <Point>
			<coordinates> 2.72858,50.0666</coordinates>
		  </Point>
		</Placemark><Placemark>
		  <name>VILLERS-FAUCON COMMUNAL CEMETERY EXTENSION</name>
		  <description><a href="http://www.cwgc.org/find-a-cemetery/cemetery/23102/VILLERS-FAUCON%20COMMUNAL%20CEMETERY%20EXTENSION">VILLERS-FAUCON COMMUNAL CEMETERY EXTENSION at the Commonwealth War Graves Commission</a>
		  </description>
		  <Point>
			<coordinates> 3.10009,49.97941</coordinates>
		  </Point>
		</Placemark><Placemark>
		  <name>LE VERGUIER CHURCHYARD</name>
		  <description><a href="http://www.cwgc.org/find-a-cemetery/cemetery/23103/LE%20VERGUIER%20CHURCHYARD">LE VERGUIER CHURCHYARD at the Commonwealth War Graves Commission</a>
		  </description>
		  <Point>
			<coordinates> 3.16807,49.9254</coordinates>
		  </Point>
		</Placemark><Placemark>
		  <name>STE. EMILIE VALLEY CEMETERY, VILLERS-FAUCON</name>
		  <description><a href="http://www.cwgc.org/find-a-cemetery/cemetery/23104/STE.%20EMILIE%20VALLEY%20CEMETERY%2C%20VILLERS-FAUCON">STE. EMILIE VALLEY CEMETERY, VILLERS-FAUCON at the Commonwealth War Graves Commission</a>
		  </description>
		  <Point>
			<coordinates> 3.12024,49.97731</coordinates>
		  </Point>
		</Placemark><Placemark>
		  <name>JEANCOURT COMMUNAL CEMETERY EXTENSION</name>
		  <description><a href="http://www.cwgc.org/find-a-cemetery/cemetery/23105/JEANCOURT%20COMMUNAL%20CEMETERY%20EXTENSION">JEANCOURT COMMUNAL CEMETERY EXTENSION at the Commonwealth War Graves Commission</a>
		  </description>
		  <Point>
			<coordinates> 3.14312,49.92499</coordinates>
		  </Point>
		</Placemark><Placemark>
		  <name>UPLANDS CEMETERY, MAGNY-LA-FOSSE</name>
		  <description><a href="http://www.cwgc.org/find-a-cemetery/cemetery/23301/UPLANDS%20CEMETERY%2C%20MAGNY-LA-FOSSE">UPLANDS CEMETERY, MAGNY-LA-FOSSE at the Commonwealth War Graves Commission</a>
		  </description>
		  <Point>
			<coordinates> 3.28585,49.94424</coordinates>
		  </Point>
		</Placemark><Placemark>
		  <name>ARQUES-LA-BATAILLE BRITISH CEMETERY</name>
		  <description><a href="http://www.cwgc.org/find-a-cemetery/cemetery/23401/ARQUES-LA-BATAILLE%20BRITISH%20CEMETERY">ARQUES-LA-BATAILLE BRITISH CEMETERY at the Commonwealth War Graves Commission</a>
		  </description>
		  <Point>
			<coordinates> 1.14143,49.88846</coordinates>
		  </Point>
		</Placemark><Placemark>
		  <name>DELSAUX FARM CEMETERY, BEUGNY</name>
		  <description><a href="http://www.cwgc.org/find-a-cemetery/cemetery/23600/DELSAUX%20FARM%20CEMETERY%2C%20BEUGNY">DELSAUX FARM CEMETERY, BEUGNY at the Commonwealth War Graves Commission</a>
		  </description>
		  <Point>
			<coordinates> 2.93383,50.10879</coordinates>
		  </Point>
		</Placemark><Placemark>
		  <name>RED CROSS CORNER CEMETERY, BEUGNY</name>
		  <description><a href="http://www.cwgc.org/find-a-cemetery/cemetery/23601/RED%20CROSS%20CORNER%20CEMETERY%2C%20BEUGNY">RED CROSS CORNER CEMETERY, BEUGNY at the Commonwealth War Graves Commission</a>
		  </description>
		  <Point>
			<coordinates> 2.92565,50.11758</coordinates>
		  </Point>
		</Placemark><Placemark>
		  <name>BERNAFAY WOOD BRITISH CEMETERY, MONTAUBAN</name>
		  <description><a href="http://www.cwgc.org/find-a-cemetery/cemetery/24001/BERNAFAY%20WOOD%20BRITISH%20CEMETERY%2C%20MONTAUBAN">BERNAFAY WOOD BRITISH CEMETERY, MONTAUBAN at the Commonwealth War Graves Commission</a>
		  </description>
		  <Point>
			<coordinates> 2.7933,50.01164</coordinates>
		  </Point>
		</Placemark><Placemark>
		  <name>LONGUEVAL ROAD CEMETERY</name>
		  <description><a href="http://www.cwgc.org/find-a-cemetery/cemetery/24002/LONGUEVAL%20ROAD%20CEMETERY">LONGUEVAL ROAD CEMETERY at the Commonwealth War Graves Commission</a>
		  </description>
		  <Point>
			<coordinates> 2.79877,50.01916</coordinates>
		  </Point>
		</Placemark><Placemark>
		  <name>VILLERS HILL BRITISH CEMETERY, VILLERS-GUISLAIN</name>
		  <description><a href="http://www.cwgc.org/find-a-cemetery/cemetery/24100/VILLERS%20HILL%20BRITISH%20CEMETERY%2C%20VILLERS-GUISLAIN">VILLERS HILL BRITISH CEMETERY, VILLERS-GUISLAIN at the Commonwealth War Graves Commission</a>
		  </description>
		  <Point>
			<coordinates> 3.1619,50.03292</coordinates>
		  </Point>
		</Placemark><Placemark>
		  <name>MEATH CEMETERY, VILLERS-GUISLAIN</name>
		  <description><a href="http://www.cwgc.org/find-a-cemetery/cemetery/24101/MEATH%20CEMETERY%2C%20VILLERS-GUISLAIN">MEATH CEMETERY, VILLERS-GUISLAIN at the Commonwealth War Graves Commission</a>
		  </description>
		  <Point>
			<coordinates> 3.15733,50.02206</coordinates>
		  </Point>
		</Placemark><Placemark>
		  <name>GAUCHE WOOD CEMETERY, VILLERS-GUISLAIN</name>
		  <description><a href="http://www.cwgc.org/find-a-cemetery/cemetery/24102/GAUCHE%20WOOD%20CEMETERY%2C%20VILLERS-GUISLAIN">GAUCHE WOOD CEMETERY, VILLERS-GUISLAIN at the Commonwealth War Graves Commission</a>
		  </description>
		  <Point>
			<coordinates> 3.13858,50.04013</coordinates>
		  </Point>
		</Placemark><Placemark>
		  <name>HASPRES COPPICE CEMETERY, HASPRES</name>
		  <description><a href="http://www.cwgc.org/find-a-cemetery/cemetery/24200/HASPRES%20COPPICE%20CEMETERY%2C%20HASPRES">HASPRES COPPICE CEMETERY, HASPRES at the Commonwealth War Graves Commission</a>
		  </description>
		  <Point>
			<coordinates> 3.41288,50.24841</coordinates>
		  </Point>
		</Placemark><Placemark>
		  <name>YORK CEMETERY, HASPRES</name>
		  <description><a href="http://www.cwgc.org/find-a-cemetery/cemetery/24201/YORK%20CEMETERY%2C%20HASPRES">YORK CEMETERY, HASPRES at the Commonwealth War Graves Commission</a>
		  </description>
		  <Point>
			<coordinates> 3.4053,50.25026</coordinates>
		  </Point>
		</Placemark><Placemark>
		  <name>ST. VAAST COMMUNAL CEMETERY</name>
		  <description><a href="http://www.cwgc.org/find-a-cemetery/cemetery/24202/ST.%20VAAST%20COMMUNAL%20CEMETERY">ST. VAAST COMMUNAL CEMETERY at the Commonwealth War Graves Commission</a>
		  </description>
		  <Point>
			<coordinates> 3.41429,50.19226</coordinates>
		  </Point>
		</Placemark><Placemark>
		  <name>ST. VAAST COMMUNAL CEMETERY EXTENSION</name>
		  <description><a href="http://www.cwgc.org/find-a-cemetery/cemetery/24203/ST.%20VAAST%20COMMUNAL%20CEMETERY%20EXTENSION">ST. VAAST COMMUNAL CEMETERY EXTENSION at the Commonwealth War Graves Commission</a>
		  </description>
		  <Point>
			<coordinates> 3.41493,50.19237</coordinates>
		  </Point>
		</Placemark><Placemark>
		  <name>QUIEVY COMMUNAL CEMETERY EXTENSION</name>
		  <description><a href="http://www.cwgc.org/find-a-cemetery/cemetery/24204/QUIEVY%20COMMUNAL%20CEMETERY%20EXTENSION">QUIEVY COMMUNAL CEMETERY EXTENSION at the Commonwealth War Graves Commission</a>
		  </description>
		  <Point>
			<coordinates> 3.4354,50.16346</coordinates>
		  </Point>
		</Placemark><Placemark>
		  <name>ST. HILAIRE LES CAMBRAI BRITISH CEMETERY</name>
		  <description><a href="http://www.cwgc.org/find-a-cemetery/cemetery/24205/ST.%20HILAIRE%20LES%20CAMBRAI%20BRITISH%20CEMETERY">ST. HILAIRE LES CAMBRAI BRITISH CEMETERY at the Commonwealth War Graves Commission</a>
		  </description>
		  <Point>
			<coordinates> 3.41497,50.18113</coordinates>
		  </Point>
		</Placemark><Placemark>
		  <name>CANONNE FARM BRITISH CEMETERY, SOMMAING</name>
		  <description><a href="http://www.cwgc.org/find-a-cemetery/cemetery/24206/CANONNE%20FARM%20BRITISH%20CEMETERY%2C%20SOMMAING">CANONNE FARM BRITISH CEMETERY, SOMMAING at the Commonwealth War Graves Commission</a>
		  </description>
		  <Point>
			<coordinates> 3.48704,50.2528</coordinates>
		  </Point>
		</Placemark><Placemark>
		  <name>ST. AUBERT CHURCHYARD</name>
		  <description><a href="http://www.cwgc.org/find-a-cemetery/cemetery/24207/ST.%20AUBERT%20CHURCHYARD">ST. AUBERT CHURCHYARD at the Commonwealth War Graves Commission</a>
		  </description>
		  <Point>
			<coordinates> 3.41603,50.20545</coordinates>
		  </Point>
		</Placemark><Placemark>
		  <name>HINGES MILITARY CEMETERY</name>
		  <description><a href="http://www.cwgc.org/find-a-cemetery/cemetery/24301/HINGES%20MILITARY%20CEMETERY">HINGES MILITARY CEMETERY at the Commonwealth War Graves Commission</a>
		  </description>
		  <Point>
			<coordinates> 2.62085,50.56152</coordinates>
		  </Point>
		</Placemark><Placemark>
		  <name>LE VERTANNOY BRITISH CEMETERY, HINGES</name>
		  <description><a href="http://www.cwgc.org/find-a-cemetery/cemetery/24302/LE%20VERTANNOY%20BRITISH%20CEMETERY%2C%20HINGES">LE VERTANNOY BRITISH CEMETERY, HINGES at the Commonwealth War Graves Commission</a>
		  </description>
		  <Point>
			<coordinates> 2.60665,50.55998</coordinates>
		  </Point>
		</Placemark><Placemark>
		  <name>MONT-BERNANCHON CHURCHYARD</name>
		  <description><a href="http://www.cwgc.org/find-a-cemetery/cemetery/24303/MONT-BERNANCHON%20CHURCHYARD">MONT-BERNANCHON CHURCHYARD at the Commonwealth War Graves Commission</a>
		  </description>
		  <Point>
			<coordinates> 2.58802,50.58364</coordinates>
		  </Point>
		</Placemark><Placemark>
		  <name>MONT-BERNANCHON BRITISH CEMETERY, GONNEHEM</name>
		  <description><a href="http://www.cwgc.org/find-a-cemetery/cemetery/24304/MONT-BERNANCHON%20BRITISH%20CEMETERY%2C%20GONNEHEM">MONT-BERNANCHON BRITISH CEMETERY, GONNEHEM at the Commonwealth War Graves Commission</a>
		  </description>
		  <Point>
			<coordinates> 2.58493,50.57915</coordinates>
		  </Point>
		</Placemark><Placemark>
		  <name>ANNEZIN COMMUNAL CEMETERY</name>
		  <description><a href="http://www.cwgc.org/find-a-cemetery/cemetery/24306/ANNEZIN%20COMMUNAL%20CEMETERY">ANNEZIN COMMUNAL CEMETERY at the Commonwealth War Graves Commission</a>
		  </description>
		  <Point>
			<coordinates> 2.60448,50.54079</coordinates>
		  </Point>
		</Placemark><Placemark>
		  <name>HEUDICOURT COMMUNAL CEMETERY</name>
		  <description><a href="http://www.cwgc.org/find-a-cemetery/cemetery/24404/HEUDICOURT%20COMMUNAL%20CEMETERY">HEUDICOURT COMMUNAL CEMETERY at the Commonwealth War Graves Commission</a>
		  </description>
		  <Point>
			<coordinates> 3.07924,50.02072</coordinates>
		  </Point>
		</Placemark><Placemark>
		  <name>HEUDICOURT COMMUNAL CEMETERY EXTENSION</name>
		  <description><a href="http://www.cwgc.org/find-a-cemetery/cemetery/24405/HEUDICOURT%20COMMUNAL%20CEMETERY%20EXTENSION">HEUDICOURT COMMUNAL CEMETERY EXTENSION at the Commonwealth War Graves Commission</a>
		  </description>
		  <Point>
			<coordinates> 3.08088,50.02019</coordinates>
		  </Point>
		</Placemark><Placemark>
		  <name>ACHICOURT ROAD CEMETERY, ACHICOURT</name>
		  <description><a href="http://www.cwgc.org/find-a-cemetery/cemetery/24501/ACHICOURT%20ROAD%20CEMETERY%2C%20ACHICOURT">ACHICOURT ROAD CEMETERY, ACHICOURT at the Commonwealth War Graves Commission</a>
		  </description>
		  <Point>
			<coordinates> 2.77479,50.26864</coordinates>
		  </Point>
		</Placemark><Placemark>
		  <name>AGNY MILITARY CEMETERY</name>
		  <description><a href="http://www.cwgc.org/find-a-cemetery/cemetery/24503/AGNY%20MILITARY%20CEMETERY">AGNY MILITARY CEMETERY at the Commonwealth War Graves Commission</a>
		  </description>
		  <Point>
			<coordinates> 2.75394,50.26589</coordinates>
		  </Point>
		</Placemark><Placemark>
		  <name>ETERPIGNY BRITISH CEMETERY</name>
		  <description><a href="http://www.cwgc.org/find-a-cemetery/cemetery/24601/ETERPIGNY%20BRITISH%20CEMETERY">ETERPIGNY BRITISH CEMETERY at the Commonwealth War Graves Commission</a>
		  </description>
		  <Point>
			<coordinates> 2.98255,50.25943</coordinates>
		  </Point>
		</Placemark><Placemark>
		  <name>CRUCIFIX CORNER CEMETERY, VILLERS-BRETONNEUX</name>
		  <description><a href="http://www.cwgc.org/find-a-cemetery/cemetery/24800/CRUCIFIX%20CORNER%20CEMETERY%2C%20VILLERS-BRETONNEUX">CRUCIFIX CORNER CEMETERY, VILLERS-BRETONNEUX at the Commonwealth War Graves Commission</a>
		  </description>
		  <Point>
			<coordinates> 2.52397,49.85359</coordinates>
		  </Point>
		</Placemark><Placemark>
		  <name>HANGARD COMMUNAL CEMETERY EXTENSION</name>
		  <description><a href="http://www.cwgc.org/find-a-cemetery/cemetery/24801/HANGARD%20COMMUNAL%20CEMETERY%20EXTENSION">HANGARD COMMUNAL CEMETERY EXTENSION at the Commonwealth War Graves Commission</a>
		  </description>
		  <Point>
			<coordinates> 2.51922,49.82415</coordinates>
		  </Point>
		</Placemark><Placemark>
		  <name>DURY MILL BRITISH CEMETERY</name>
		  <description><a href="http://www.cwgc.org/find-a-cemetery/cemetery/24900/DURY%20MILL%20BRITISH%20CEMETERY">DURY MILL BRITISH CEMETERY at the Commonwealth War Graves Commission</a>
		  </description>
		  <Point>
			<coordinates> 2.99855,50.23885</coordinates>
		  </Point>
		</Placemark><Placemark>
		  <name>DURY CRUCIFIX CEMETERY</name>
		  <description><a href="http://www.cwgc.org/find-a-cemetery/cemetery/24901/DURY%20CRUCIFIX%20CEMETERY">DURY CRUCIFIX CEMETERY at the Commonwealth War Graves Commission</a>
		  </description>
		  <Point>
			<coordinates> 3.00593,50.24444</coordinates>
		  </Point>
		</Placemark><Placemark>
		  <name>SAUCHY-CAUCHY COMMUNAL CEMETERY EXTENSION</name>
		  <description><a href="http://www.cwgc.org/find-a-cemetery/cemetery/24903/SAUCHY-CAUCHY%20COMMUNAL%20CEMETERY%20EXTENSION">SAUCHY-CAUCHY COMMUNAL CEMETERY EXTENSION at the Commonwealth War Graves Commission</a>
		  </description>
		  <Point>
			<coordinates> 3.09166,50.23327</coordinates>
		  </Point>
		</Placemark><Placemark>
		  <name>ECOUST-ST. MEIN BRITISH CEMETERY</name>
		  <description><a href="http://www.cwgc.org/find-a-cemetery/cemetery/25001/ECOUST-ST.%20MEIN%20BRITISH%20CEMETERY">ECOUST-ST. MEIN BRITISH CEMETERY at the Commonwealth War Graves Commission</a>
		  </description>
		  <Point>
			<coordinates> 2.90602,50.18437</coordinates>
		  </Point>
		</Placemark><Placemark>
		  <name>HENINEL-CROISILLES ROAD CEMETERY</name>
		  <description><a href="http://www.cwgc.org/find-a-cemetery/cemetery/25002/HENINEL-CROISILLES%20ROAD%20CEMETERY">HENINEL-CROISILLES ROAD CEMETERY at the Commonwealth War Graves Commission</a>
		  </description>
		  <Point>
			<coordinates> 2.87382,50.228</coordinates>
		  </Point>
		</Placemark><Placemark>
		  <name>LAGNICOURT HEDGE CEMETERY</name>
		  <description><a href="http://www.cwgc.org/find-a-cemetery/cemetery/25003/LAGNICOURT%20HEDGE%20CEMETERY">LAGNICOURT HEDGE CEMETERY at the Commonwealth War Graves Commission</a>
		  </description>
		  <Point>
			<coordinates> 2.95316,50.15435</coordinates>
		  </Point>
		</Placemark><Placemark>
		  <name>MORCHIES COMMUNAL CEMETERY</name>
		  <description><a href="http://www.cwgc.org/find-a-cemetery/cemetery/25005/MORCHIES%20COMMUNAL%20CEMETERY">MORCHIES COMMUNAL CEMETERY at the Commonwealth War Graves Commission</a>
		  </description>
		  <Point>
			<coordinates> 2.95531,50.14332</coordinates>
		  </Point>
		</Placemark><Placemark>
		  <name>MORCHIES AUSTRALIAN CEMETERY</name>
		  <description><a href="http://www.cwgc.org/find-a-cemetery/cemetery/25006/MORCHIES%20AUSTRALIAN%20CEMETERY">MORCHIES AUSTRALIAN CEMETERY at the Commonwealth War Graves Commission</a>
		  </description>
		  <Point>
			<coordinates> 2.95472,50.13352</coordinates>
		  </Point>
		</Placemark><Placemark>
		  <name>MORCHIES MILITARY CEMETERY</name>
		  <description><a href="http://www.cwgc.org/find-a-cemetery/cemetery/25007/MORCHIES%20MILITARY%20CEMETERY">MORCHIES MILITARY CEMETERY at the Commonwealth War Graves Commission</a>
		  </description>
		  <Point>
			<coordinates> 2.95485,50.14257</coordinates>
		  </Point>
		</Placemark><Placemark>
		  <name>TINCOURT NEW BRITISH CEMETERY</name>
		  <description><a href="http://www.cwgc.org/find-a-cemetery/cemetery/25100/TINCOURT%20NEW%20BRITISH%20CEMETERY">TINCOURT NEW BRITISH CEMETERY at the Commonwealth War Graves Commission</a>
		  </description>
		  <Point>
			<coordinates> 3.03655,49.93982</coordinates>
		  </Point>
		</Placemark><Placemark>
		  <name>TINCOURT CHURCHYARD</name>
		  <description><a href="http://www.cwgc.org/find-a-cemetery/cemetery/25101/TINCOURT%20CHURCHYARD">TINCOURT CHURCHYARD at the Commonwealth War Graves Commission</a>
		  </description>
		  <Point>
			<coordinates> 3.03855,49.93807</coordinates>
		  </Point>
		</Placemark><Placemark>
		  <name>AIZECOURT-LE-BAS CHURCHYARD</name>
		  <description><a href="http://www.cwgc.org/find-a-cemetery/cemetery/25102/AIZECOURT-LE-BAS%20CHURCHYARD">AIZECOURT-LE-BAS CHURCHYARD at the Commonwealth War Graves Commission</a>
		  </description>
		  <Point>
			<coordinates> 3.032,49.98222</coordinates>
		  </Point>
		</Placemark><Placemark>
		  <name>BUIRE COMMUNAL CEMETERY</name>
		  <description><a href="http://www.cwgc.org/find-a-cemetery/cemetery/25103/BUIRE%20COMMUNAL%20CEMETERY">BUIRE COMMUNAL CEMETERY at the Commonwealth War Graves Commission</a>
		  </description>
		  <Point>
			<coordinates> 3.01866,49.928</coordinates>
		  </Point>
		</Placemark><Placemark>
		  <name>ATHIES COMMUNAL CEMETERY</name>
		  <description><a href="http://www.cwgc.org/find-a-cemetery/cemetery/25200/ATHIES%20COMMUNAL%20CEMETERY">ATHIES COMMUNAL CEMETERY at the Commonwealth War Graves Commission</a>
		  </description>
		  <Point>
			<coordinates> 2.83708,50.30369</coordinates>
		  </Point>
		</Placemark><Placemark>
		  <name>ATHIES COMMUNAL CEMETERY EXTENSION</name>
		  <description><a href="http://www.cwgc.org/find-a-cemetery/cemetery/25201/ATHIES%20COMMUNAL%20CEMETERY%20EXTENSION">ATHIES COMMUNAL CEMETERY EXTENSION at the Commonwealth War Graves Commission</a>
		  </description>
		  <Point>
			<coordinates> 2.83734,50.30399</coordinates>
		  </Point>
		</Placemark><Placemark>
		  <name>POINT-DU-JOUR MILITARY CEMETERY, ATHIES</name>
		  <description><a href="http://www.cwgc.org/find-a-cemetery/cemetery/25202/POINT-DU-JOUR%20MILITARY%20CEMETERY%2C%20ATHIES">POINT-DU-JOUR MILITARY CEMETERY, ATHIES at the Commonwealth War Graves Commission</a>
		  </description>
		  <Point>
			<coordinates> 2.83578,50.31377</coordinates>
		  </Point>
		</Placemark><Placemark>
		  <name>METEREN MILITARY CEMETERY</name>
		  <description><a href="http://www.cwgc.org/find-a-cemetery/cemetery/25300/METEREN%20MILITARY%20CEMETERY">METEREN MILITARY CEMETERY at the Commonwealth War Graves Commission</a>
		  </description>
		  <Point>
			<coordinates> 2.68886,50.74349</coordinates>
		  </Point>
		</Placemark><Placemark>
		  <name>CITY OF PARIS CEMETERY, BAGNEUX</name>
		  <description><a href="http://www.cwgc.org/find-a-cemetery/cemetery/25400/CITY%20OF%20PARIS%20CEMETERY%2C%20BAGNEUX">CITY OF PARIS CEMETERY, BAGNEUX at the Commonwealth War Graves Commission</a>
		  </description>
		  <Point>
			<coordinates> 2.3123,48.81003</coordinates>
		  </Point>
		</Placemark><Placemark>
		  <name>CITY OF PARIS CEMETERY, PANTIN</name>
		  <description><a href="http://www.cwgc.org/find-a-cemetery/cemetery/25401/CITY%20OF%20PARIS%20CEMETERY%2C%20PANTIN">CITY OF PARIS CEMETERY, PANTIN at the Commonwealth War Graves Commission</a>
		  </description>
		  <Point>
			<coordinates> 2.41353,48.90195</coordinates>
		  </Point>
		</Placemark><Placemark>
		  <name>CITY OF PARIS CEMETERY, ST. OUEN-SUR-SEINE</name>
		  <description><a href="http://www.cwgc.org/find-a-cemetery/cemetery/25402/CITY%20OF%20PARIS%20CEMETERY%2C%20ST.%20OUEN-SUR-SEINE">CITY OF PARIS CEMETERY, ST. OUEN-SUR-SEINE at the Commonwealth War Graves Commission</a>
		  </description>
		  <Point>
			<coordinates> 2.34579,48.90732</coordinates>
		  </Point>
		</Placemark><Placemark>
		  <name>IVRY-SUR-SEINE COMMUNAL CEMETERY</name>
		  <description><a href="http://www.cwgc.org/find-a-cemetery/cemetery/25403/IVRY-SUR-SEINE%20COMMUNAL%20CEMETERY">IVRY-SUR-SEINE COMMUNAL CEMETERY at the Commonwealth War Graves Commission</a>
		  </description>
		  <Point>
			<coordinates> 2.3791,48.80683</coordinates>
		  </Point>
		</Placemark><Placemark>
		  <name>JOINVILLE-LE-PONT COMMUNAL CEMETERY</name>
		  <description><a href="http://www.cwgc.org/find-a-cemetery/cemetery/25404/JOINVILLE-LE-PONT%20COMMUNAL%20CEMETERY">JOINVILLE-LE-PONT COMMUNAL CEMETERY at the Commonwealth War Graves Commission</a>
		  </description>
		  <Point>
			<coordinates> 2.47915,48.81845</coordinates>
		  </Point>
		</Placemark><Placemark>
		  <name>LEVALLOIS-PERRET COMMUNAL CEMETERY, PARIS</name>
		  <description><a href="http://www.cwgc.org/find-a-cemetery/cemetery/25405/LEVALLOIS-PERRET%20COMMUNAL%20CEMETERY%2C%20PARIS">LEVALLOIS-PERRET COMMUNAL CEMETERY, PARIS at the Commonwealth War Graves Commission</a>
		  </description>
		  <Point>
			<coordinates> 2.2904,48.89983</coordinates>
		  </Point>
		</Placemark><Placemark>
		  <name>NEUILLY-SUR-SEINE NEW COMMUNAL CEMETERY</name>
		  <description><a href="http://www.cwgc.org/find-a-cemetery/cemetery/25406/NEUILLY-SUR-SEINE%20NEW%20COMMUNAL%20CEMETERY">NEUILLY-SUR-SEINE NEW COMMUNAL CEMETERY at the Commonwealth War Graves Commission</a>
		  </description>
		  <Point>
			<coordinates> 2.23251,48.89575</coordinates>
		  </Point>
		</Placemark><Placemark>
		  <name>NEUILLY-SUR-SEINE OLD COMMUNAL CEMETERY</name>
		  <description><a href="http://www.cwgc.org/find-a-cemetery/cemetery/25407/NEUILLY-SUR-SEINE%20OLD%20COMMUNAL%20CEMETERY">NEUILLY-SUR-SEINE OLD COMMUNAL CEMETERY at the Commonwealth War Graves Commission</a>
		  </description>
		  <Point>
			<coordinates> 2.2652,48.88105</coordinates>
		  </Point>
		</Placemark><Placemark>
		  <name>ROSNY-SOUS-BOIS COMMUNAL CEMETERY</name>
		  <description><a href="http://www.cwgc.org/find-a-cemetery/cemetery/25409/ROSNY-SOUS-BOIS%20COMMUNAL%20CEMETERY">ROSNY-SOUS-BOIS COMMUNAL CEMETERY at the Commonwealth War Graves Commission</a>
		  </description>
		  <Point>
			<coordinates> 2.48404,48.87762</coordinates>
		  </Point>
		</Placemark><Placemark>
		  <name>ST. DENIS-SUR-SEINE COMMUNAL CEMETERY</name>
		  <description><a href="http://www.cwgc.org/find-a-cemetery/cemetery/25410/ST.%20DENIS-SUR-SEINE%20COMMUNAL%20CEMETERY">ST. DENIS-SUR-SEINE COMMUNAL CEMETERY at the Commonwealth War Graves Commission</a>
		  </description>
		  <Point>
			<coordinates> 2.36364,48.93654</coordinates>
		  </Point>
		</Placemark><Placemark>
		  <name>ST. MAURICE COMMUNAL CEMETERY</name>
		  <description><a href="http://www.cwgc.org/find-a-cemetery/cemetery/25411/ST.%20MAURICE%20COMMUNAL%20CEMETERY">ST. MAURICE COMMUNAL CEMETERY at the Commonwealth War Graves Commission</a>
		  </description>
		  <Point>
			<coordinates> 2.47794,48.80528</coordinates>
		  </Point>
		</Placemark><Placemark>
		  <name>ATHIS-MONS COMMUNAL CEMETERY</name>
		  <description><a href="http://www.cwgc.org/find-a-cemetery/cemetery/25413/ATHIS-MONS%20COMMUNAL%20CEMETERY">ATHIS-MONS COMMUNAL CEMETERY at the Commonwealth War Graves Commission</a>
		  </description>
		  <Point>
			<coordinates> 3.97492,50.45948</coordinates>
		  </Point>
		</Placemark><Placemark>
		  <name>CORBEIL COMMUNAL CEMETERY</name>
		  <description><a href="http://www.cwgc.org/find-a-cemetery/cemetery/25414/CORBEIL%20COMMUNAL%20CEMETERY">CORBEIL COMMUNAL CEMETERY at the Commonwealth War Graves Commission</a>
		  </description>
		  <Point>
			<coordinates> 2.47063,48.61433</coordinates>
		  </Point>
		</Placemark><Placemark>
		  <name>JUVISY-SUR-ORGE COMMUNAL CEMETERY</name>
		  <description><a href="http://www.cwgc.org/find-a-cemetery/cemetery/25415/JUVISY-SUR-ORGE%20COMMUNAL%20CEMETERY">JUVISY-SUR-ORGE COMMUNAL CEMETERY at the Commonwealth War Graves Commission</a>
		  </description>
		  <Point>
			<coordinates> 2.36758,48.69373</coordinates>
		  </Point>
		</Placemark><Placemark>
		  <name>LE RAINCY OLD COMMUNAL CEMETERY</name>
		  <description><a href="http://www.cwgc.org/find-a-cemetery/cemetery/25416/LE%20RAINCY%20OLD%20COMMUNAL%20CEMETERY">LE RAINCY OLD COMMUNAL CEMETERY at the Commonwealth War Graves Commission</a>
		  </description>
		  <Point>
			<coordinates> 2.525,48.90546</coordinates>
		  </Point>
		</Placemark><Placemark>
		  <name>LES GONARDS CEMETERY, VERSAILLES</name>
		  <description><a href="http://www.cwgc.org/find-a-cemetery/cemetery/25417/LES%20GONARDS%20CEMETERY%2C%20VERSAILLES">LES GONARDS CEMETERY, VERSAILLES at the Commonwealth War Graves Commission</a>
		  </description>
		  <Point>
			<coordinates> 2.13731,48.79343</coordinates>
		  </Point>
		</Placemark><Placemark>
		  <name>ST. CLOUD COMMUNAL CEMETERY</name>
		  <description><a href="http://www.cwgc.org/find-a-cemetery/cemetery/25419/ST.%20CLOUD%20COMMUNAL%20CEMETERY">ST. CLOUD COMMUNAL CEMETERY at the Commonwealth War Graves Commission</a>
		  </description>
		  <Point>
			<coordinates> 2.20484,48.84806</coordinates>
		  </Point>
		</Placemark><Placemark>
		  <name>ST. GERMAIN-EN-LAYE NEW COMMUNAL CEMETERY</name>
		  <description><a href="http://www.cwgc.org/find-a-cemetery/cemetery/25420/ST.%20GERMAIN-EN-LAYE%20NEW%20COMMUNAL%20CEMETERY">ST. GERMAIN-EN-LAYE NEW COMMUNAL CEMETERY at the Commonwealth War Graves Commission</a>
		  </description>
		  <Point>
			<coordinates> 2.06765,48.90149</coordinates>
		  </Point>
		</Placemark><Placemark>
		  <name>ST. GERMAIN-EN-LAYE OLD COMMUNAL CEMETERY</name>
		  <description><a href="http://www.cwgc.org/find-a-cemetery/cemetery/25421/ST.%20GERMAIN-EN-LAYE%20OLD%20COMMUNAL%20CEMETERY">ST. GERMAIN-EN-LAYE OLD COMMUNAL CEMETERY at the Commonwealth War Graves Commission</a>
		  </description>
		  <Point>
			<coordinates> 2.06711,48.90125</coordinates>
		  </Point>
		</Placemark><Placemark>
		  <name>VILLENEUVE-ST. GEORGES OLD COMMUNAL CEMETERY</name>
		  <description><a href="http://www.cwgc.org/find-a-cemetery/cemetery/25422/VILLENEUVE-ST.%20GEORGES%20OLD%20COMMUNAL%20CEMETERY">VILLENEUVE-ST. GEORGES OLD COMMUNAL CEMETERY at the Commonwealth War Graves Commission</a>
		  </description>
		  <Point>
			<coordinates> 2.45068,48.72598</coordinates>
		  </Point>
		</Placemark><Placemark>
		  <name>AIX-NOULETTE COMMUNAL CEMETERY EXTENSION</name>
		  <description><a href="http://www.cwgc.org/find-a-cemetery/cemetery/25500/AIX-NOULETTE%20COMMUNAL%20CEMETERY%20EXTENSION">AIX-NOULETTE COMMUNAL CEMETERY EXTENSION at the Commonwealth War Graves Commission</a>
		  </description>
		  <Point>
			<coordinates> 2.71223,50.43106</coordinates>
		  </Point>
		</Placemark><Placemark>
		  <name>ONTARIO CEMETERY, SAINS-LES-MARQUION</name>
		  <description><a href="http://www.cwgc.org/find-a-cemetery/cemetery/25600/ONTARIO%20CEMETERY%2C%20SAINS-LES-MARQUION">ONTARIO CEMETERY, SAINS-LES-MARQUION at the Commonwealth War Graves Commission</a>
		  </description>
		  <Point>
			<coordinates> 3.07224,50.18264</coordinates>
		  </Point>
		</Placemark><Placemark>
		  <name>TRIANGLE CEMETERY, INCHY-EN-ARTOIS</name>
		  <description><a href="http://www.cwgc.org/find-a-cemetery/cemetery/25601/TRIANGLE%20CEMETERY%2C%20INCHY-EN-ARTOIS">TRIANGLE CEMETERY, INCHY-EN-ARTOIS at the Commonwealth War Graves Commission</a>
		  </description>
		  <Point>
			<coordinates> 3.05927,50.17389</coordinates>
		  </Point>
		</Placemark><Placemark>
		  <name>SUCRERIE BRITISH CEMETERY, GRAINCOURT-LES-HAVRINCOURT</name>
		  <description><a href="http://www.cwgc.org/find-a-cemetery/cemetery/25602/SUCRERIE%20BRITISH%20CEMETERY%2C%20GRAINCOURT-LES-HAVRINCOURT">SUCRERIE BRITISH CEMETERY, GRAINCOURT-LES-HAVRINCOURT at the Commonwealth War Graves Commission</a>
		  </description>
		  <Point>
			<coordinates> 3.09912,50.1604</coordinates>
		  </Point>
		</Placemark>