<?xml version="1.0" encoding="UTF-8"?>
	<kml xmlns="http://www.opengis.net/kml/2.2">
	  <Document><name>Cemeteries of the Commonwealth War Graves Commission for Ireland, Republic of</name>
  <description>Cemeteries in Ireland, Republic of from the Commonwealth War Graves Commission database (http://www.cwgc.org/) turned into a map by the World War One Centenary Project at The University of Oxford (http://ww1centenary.oucs.ox.ac.uk/). Licensed as Attribution-NonCommercial-ShareAlike 2.0 UK: England and Wales </description><Placemark>
		  <name>BALLINABRANNAGH CATHOLIC CHURCHYARD</name>
		  <description><a href="http://www.cwgc.org/find-a-cemetery/cemetery/73800/BALLINABRANNAGH%20CATHOLIC%20CHURCHYARD">BALLINABRANNAGH CATHOLIC CHURCHYARD at the Commonwealth War Graves Commission</a>
		  </description>
		  <Point>
			<coordinates> -6.98254,52.78525</coordinates>
		  </Point>
		</Placemark><Placemark>
		  <name>BALLYELLIN CEMETERY</name>
		  <description><a href="http://www.cwgc.org/find-a-cemetery/cemetery/73801/BALLYELLIN%20CEMETERY">BALLYELLIN CEMETERY at the Commonwealth War Graves Commission</a>
		  </description>
		  <Point>
			<coordinates> -6.98061,52.63267</coordinates>
		  </Point>
		</Placemark><Placemark>
		  <name>CARLOW OLD CEMETERY</name>
		  <description><a href="http://www.cwgc.org/find-a-cemetery/cemetery/73803/CARLOW%20OLD%20CEMETERY">CARLOW OLD CEMETERY at the Commonwealth War Graves Commission</a>
		  </description>
		  <Point>
			<coordinates> -6.93226,52.842</coordinates>
		  </Point>
		</Placemark><Placemark>
		  <name>CARLOW (ST. MARY'S) CEMETERY</name>
		  <description><a href="http://www.cwgc.org/find-a-cemetery/cemetery/73804/CARLOW%20%28ST.%20MARY%27S%29%20CEMETERY">CARLOW (ST. MARY'S) CEMETERY at the Commonwealth War Graves Commission</a>
		  </description>
		  <Point>
			<coordinates> -6.91738,52.84481</coordinates>
		  </Point>
		</Placemark><Placemark>
		  <name>MULLAWN (ST. BRIDGET'S) CEMETERY</name>
		  <description><a href="http://www.cwgc.org/find-a-cemetery/cemetery/73805/MULLAWN%20%28ST.%20BRIDGET%27S%29%20CEMETERY">MULLAWN (ST. BRIDGET'S) CEMETERY at the Commonwealth War Graves Commission</a>
		  </description>
		  <Point>
			<coordinates> -6.73372,52.79987</coordinates>
		  </Point>
		</Placemark><Placemark>
		  <name>RATHTOE CATHOLIC CHURCHYARD</name>
		  <description><a href="http://www.cwgc.org/find-a-cemetery/cemetery/73806/RATHTOE%20CATHOLIC%20CHURCHYARD">RATHTOE CATHOLIC CHURCHYARD at the Commonwealth War Graves Commission</a>
		  </description>
		  <Point>
			<coordinates> -6.79935,52.78659</coordinates>
		  </Point>
		</Placemark><Placemark>
		  <name>TINNAHINCH (ST. MICHAEL'S) CEMETERY</name>
		  <description><a href="http://www.cwgc.org/find-a-cemetery/cemetery/73807/TINNAHINCH%20%28ST.%20MICHAEL%27S%29%20CEMETERY">TINNAHINCH (ST. MICHAEL'S) CEMETERY at the Commonwealth War Graves Commission</a>
		  </description>
		  <Point>
			<coordinates> -6.95412,52.53454</coordinates>
		  </Point>
		</Placemark><Placemark>
		  <name>TULLOW (THE ABBEY) CEMETERY</name>
		  <description><a href="http://www.cwgc.org/find-a-cemetery/cemetery/73808/TULLOW%20%28THE%20ABBEY%29%20CEMETERY">TULLOW (THE ABBEY) CEMETERY at the Commonwealth War Graves Commission</a>
		  </description>
		  <Point>
			<coordinates> -6.73853,52.80071</coordinates>
		  </Point>
		</Placemark><Placemark>
		  <name>ASHFIELD CHURCH OF IRELAND CHURCHYARD</name>
		  <description><a href="http://www.cwgc.org/find-a-cemetery/cemetery/73809/ASHFIELD%20CHURCH%20OF%20IRELAND%20CHURCHYARD">ASHFIELD CHURCH OF IRELAND CHURCHYARD at the Commonwealth War Graves Commission</a>
		  </description>
		  <Point>
			<coordinates> -7.12904,54.0747</coordinates>
		  </Point>
		</Placemark><Placemark>
		  <name>BALLYNARRY CATHOLIC CHURCHYARD</name>
		  <description><a href="http://www.cwgc.org/find-a-cemetery/cemetery/73812/BALLYNARRY%20CATHOLIC%20CHURCHYARD">BALLYNARRY CATHOLIC CHURCHYARD at the Commonwealth War Graves Commission</a>
		  </description>
		  <Point>
			<coordinates> -7.34436,53.84073</coordinates>
		  </Point>
		</Placemark><Placemark>
		  <name>BELTURBET CHURCH OF IRELAND CHURCHYARD</name>
		  <description><a href="http://www.cwgc.org/find-a-cemetery/cemetery/73813/BELTURBET%20CHURCH%20OF%20IRELAND%20CHURCHYARD">BELTURBET CHURCH OF IRELAND CHURCHYARD at the Commonwealth War Graves Commission</a>
		  </description>
		  <Point>
			<coordinates> -7.44614,54.09975</coordinates>
		  </Point>
		</Placemark><Placemark>
		  <name>CROSSERLOUGH CATHOLIC CHURCHYARD</name>
		  <description><a href="http://www.cwgc.org/find-a-cemetery/cemetery/73814/CROSSERLOUGH%20CATHOLIC%20CHURCHYARD">CROSSERLOUGH CATHOLIC CHURCHYARD at the Commonwealth War Graves Commission</a>
		  </description>
		  <Point>
			<coordinates> -7.28806,53.87703</coordinates>
		  </Point>
		</Placemark><Placemark>
		  <name>DERNAKESH CHURCH OF IRELAND CHURCHYARD</name>
		  <description><a href="http://www.cwgc.org/find-a-cemetery/cemetery/73815/DERNAKESH%20CHURCH%20OF%20IRELAND%20CHURCHYARD">DERNAKESH CHURCH OF IRELAND CHURCHYARD at the Commonwealth War Graves Commission</a>
		  </description>
		  <Point>
			<coordinates> -7.04387,54.02202</coordinates>
		  </Point>
		</Placemark><Placemark>
		  <name>DRUMALEE CATHOLIC CHURCHYARD</name>
		  <description><a href="http://www.cwgc.org/find-a-cemetery/cemetery/73816/DRUMALEE%20CATHOLIC%20CHURCHYARD">DRUMALEE CATHOLIC CHURCHYARD at the Commonwealth War Graves Commission</a>
		  </description>
		  <Point>
			<coordinates> -7.39272,54.10154</coordinates>
		  </Point>
		</Placemark><Placemark>
		  <name>DRUMCOR CATHOLIC CHURCHYARD</name>
		  <description><a href="http://www.cwgc.org/find-a-cemetery/cemetery/73817/DRUMCOR%20CATHOLIC%20CHURCHYARD">DRUMCOR CATHOLIC CHURCHYARD at the Commonwealth War Graves Commission</a>
		  </description>
		  <Point>
			<coordinates> -7.43902,53.98239</coordinates>
		  </Point>
		</Placemark><Placemark>
		  <name>KILLASHANDRA CEMETERY</name>
		  <description><a href="http://www.cwgc.org/find-a-cemetery/cemetery/73819/KILLASHANDRA%20CEMETERY">KILLASHANDRA CEMETERY at the Commonwealth War Graves Commission</a>
		  </description>
		  <Point>
			<coordinates> -7.53143,54.01665</coordinates>
		  </Point>
		</Placemark><Placemark>
		  <name>KILMORE CHURCH OF IRELAND CEMETERY</name>
		  <description><a href="http://www.cwgc.org/find-a-cemetery/cemetery/73820/KILMORE%20CHURCH%20OF%20IRELAND%20CEMETERY">KILMORE CHURCH OF IRELAND CEMETERY at the Commonwealth War Graves Commission</a>
		  </description>
		  <Point>
			<coordinates> -7.70755,54.1917</coordinates>
		  </Point>
		</Placemark><Placemark>
		  <name>POTTAHEE CATHOLIC CHURCHYARD</name>
		  <description><a href="http://www.cwgc.org/find-a-cemetery/cemetery/73821/POTTAHEE%20CATHOLIC%20CHURCHYARD">POTTAHEE CATHOLIC CHURCHYARD at the Commonwealth War Graves Commission</a>
		  </description>
		  <Point>
			<coordinates> -7.43695,53.92129</coordinates>
		  </Point>
		</Placemark><Placemark>
		  <name>STAGHALL CATHOLIC CHURCHYARD</name>
		  <description><a href="http://www.cwgc.org/find-a-cemetery/cemetery/73822/STAGHALL%20CATHOLIC%20CHURCHYARD">STAGHALL CATHOLIC CHURCHYARD at the Commonwealth War Graves Commission</a>
		  </description>
		  <Point>
			<coordinates> -7.46227,54.09758</coordinates>
		  </Point>
		</Placemark><Placemark>
		  <name>CLONMANY CATHOLIC CHURCHYARD</name>
		  <description><a href="http://www.cwgc.org/find-a-cemetery/cemetery/73827/CLONMANY%20CATHOLIC%20CHURCHYARD">CLONMANY CATHOLIC CHURCHYARD at the Commonwealth War Graves Commission</a>
		  </description>
		  <Point>
			<coordinates> -7.40935,55.26215</coordinates>
		  </Point>
		</Placemark><Placemark>
		  <name>CULDAFF CHURCH OF IRELAND CHURCHYARD</name>
		  <description><a href="http://www.cwgc.org/find-a-cemetery/cemetery/73830/CULDAFF%20CHURCH%20OF%20IRELAND%20CHURCHYARD">CULDAFF CHURCH OF IRELAND CHURCHYARD at the Commonwealth War Graves Commission</a>
		  </description>
		  <Point>
			<coordinates> -7.16712,55.28716</coordinates>
		  </Point>
		</Placemark><Placemark>
		  <name>DRUNG CATHOLIC CHURCHYARD</name>
		  <description><a href="http://www.cwgc.org/find-a-cemetery/cemetery/73832/DRUNG%20CATHOLIC%20CHURCHYARD">DRUNG CATHOLIC CHURCHYARD at the Commonwealth War Graves Commission</a>
		  </description>
		  <Point>
			<coordinates> -7.15739,55.15039</coordinates>
		  </Point>
		</Placemark><Placemark>
		  <name>FINTOWN CATHOLIC CHURCHYARD</name>
		  <description><a href="http://www.cwgc.org/find-a-cemetery/cemetery/73834/FINTOWN%20CATHOLIC%20CHURCHYARD">FINTOWN CATHOLIC CHURCHYARD at the Commonwealth War Graves Commission</a>
		  </description>
		  <Point>
			<coordinates> -8.11658,54.86933</coordinates>
		  </Point>
		</Placemark><Placemark>
		  <name>FROSSES CATHOLIC CHURCHYARD</name>
		  <description><a href="http://www.cwgc.org/find-a-cemetery/cemetery/73835/FROSSES%20CATHOLIC%20CHURCHYARD">FROSSES CATHOLIC CHURCHYARD at the Commonwealth War Graves Commission</a>
		  </description>
		  <Point>
			<coordinates> -8.24256,54.66806</coordinates>
		  </Point>
		</Placemark><Placemark>
		  <name>KILCLOONY CATHOLIC CHURCHYARD</name>
		  <description><a href="http://www.cwgc.org/find-a-cemetery/cemetery/73839/KILCLOONY%20CATHOLIC%20CHURCHYARD">KILCLOONY CATHOLIC CHURCHYARD at the Commonwealth War Graves Commission</a>
		  </description>
		  <Point>
			<coordinates> -8.43709,54.82208</coordinates>
		  </Point>
		</Placemark><Placemark>
		  <name>MUFF CHURCH OF IRELAND CHURCHYARD</name>
		  <description><a href="http://www.cwgc.org/find-a-cemetery/cemetery/73846/MUFF%20CHURCH%20OF%20IRELAND%20CHURCHYARD">MUFF CHURCH OF IRELAND CHURCHYARD at the Commonwealth War Graves Commission</a>
		  </description>
		  <Point>
			<coordinates> -7.27194,55.06767</coordinates>
		  </Point>
		</Placemark><Placemark>
		  <name>STRANORLAR (ST. ANNE) CHURCH OF IRELAND CHURCHYARD</name>
		  <description><a href="http://www.cwgc.org/find-a-cemetery/cemetery/73850/STRANORLAR%20%28ST.%20ANNE%29%20CHURCH%20OF%20IRELAND%20CHURCHYARD">STRANORLAR (ST. ANNE) CHURCH OF IRELAND CHURCHYARD at the Commonwealth War Graves Commission</a>
		  </description>
		  <Point>
			<coordinates> -7.76237,54.80569</coordinates>
		  </Point>
		</Placemark><Placemark>
		  <name>ATHY (ST. JOHN'S) OLD CEMETERY</name>
		  <description><a href="http://www.cwgc.org/find-a-cemetery/cemetery/73862/ATHY%20%28ST.%20JOHN%27S%29%20OLD%20CEMETERY">ATHY (ST. JOHN'S) OLD CEMETERY at the Commonwealth War Graves Commission</a>
		  </description>
		  <Point>
			<coordinates> -6.98678,52.99241</coordinates>
		  </Point>
		</Placemark><Placemark>
		  <name>ATHY (ST. MICHAEL'S) CEMETERY</name>
		  <description><a href="http://www.cwgc.org/find-a-cemetery/cemetery/73863/ATHY%20%28ST.%20MICHAEL%27S%29%20CEMETERY">ATHY (ST. MICHAEL'S) CEMETERY at the Commonwealth War Graves Commission</a>
		  </description>
		  <Point>
			<coordinates> -6.97542,52.99315</coordinates>
		  </Point>
		</Placemark><Placemark>
		  <name>BALLYMORE EUSTACE (ST. JOHN) CHURCHYARD</name>
		  <description><a href="http://www.cwgc.org/find-a-cemetery/cemetery/73864/BALLYMORE%20EUSTACE%20%28ST.%20JOHN%29%20CHURCHYARD">BALLYMORE EUSTACE (ST. JOHN) CHURCHYARD at the Commonwealth War Graves Commission</a>
		  </description>
		  <Point>
			<coordinates> -6.60753,53.13183</coordinates>
		  </Point>
		</Placemark><Placemark>
		  <name>CELBRIDGE (CHURCH LANE) CEMETERY</name>
		  <description><a href="http://www.cwgc.org/find-a-cemetery/cemetery/73865/CELBRIDGE%20%28CHURCH%20LANE%29%20CEMETERY">CELBRIDGE (CHURCH LANE) CEMETERY at the Commonwealth War Graves Commission</a>
		  </description>
		  <Point>
			<coordinates> -6.54634,53.33879</coordinates>
		  </Point>
		</Placemark><Placemark>
		  <name>CLANE (ST. MICHAEL) CHURCH OF IRELAND CHURCHYARD</name>
		  <description><a href="http://www.cwgc.org/find-a-cemetery/cemetery/73866/CLANE%20%28ST.%20MICHAEL%29%20CHURCH%20OF%20IRELAND%20CHURCHYARD">CLANE (ST. MICHAEL) CHURCH OF IRELAND CHURCHYARD at the Commonwealth War Graves Commission</a>
		  </description>
		  <Point>
			<coordinates> -6.69042,53.27545</coordinates>
		  </Point>
		</Placemark><Placemark>
		  <name>CROOKSTOWN CATHOLIC CHURCHYARD</name>
		  <description><a href="http://www.cwgc.org/find-a-cemetery/cemetery/73868/CROOKSTOWN%20CATHOLIC%20CHURCHYARD">CROOKSTOWN CATHOLIC CHURCHYARD at the Commonwealth War Graves Commission</a>
		  </description>
		  <Point>
			<coordinates> -6.80327,53.01993</coordinates>
		  </Point>
		</Placemark><Placemark>
		  <name>CURRAGH MILITARY CEMETERY</name>
		  <description><a href="http://www.cwgc.org/find-a-cemetery/cemetery/73869/CURRAGH%20MILITARY%20CEMETERY">CURRAGH MILITARY CEMETERY at the Commonwealth War Graves Commission</a>
		  </description>
		  <Point>
			<coordinates> -6.80667,53.15275</coordinates>
		  </Point>
		</Placemark><Placemark>
		  <name>KILBELAN (ST. CONLETH'S) CEMETERY</name>
		  <description><a href="http://www.cwgc.org/find-a-cemetery/cemetery/73871/KILBELAN%20%28ST.%20CONLETH%27S%29%20CEMETERY">KILBELAN (ST. CONLETH'S) CEMETERY at the Commonwealth War Graves Commission</a>
		  </description>
		  <Point>
			<coordinates> -6.78749,53.16977</coordinates>
		  </Point>
		</Placemark><Placemark>
		  <name>KILCOCK (WHITETOWN) CHURCH OF IRELAND CHURCHYARD</name>
		  <description><a href="http://www.cwgc.org/find-a-cemetery/cemetery/73873/KILCOCK%20%28WHITETOWN%29%20CHURCH%20OF%20IRELAND%20CHURCHYARD">KILCOCK (WHITETOWN) CHURCH OF IRELAND CHURCHYARD at the Commonwealth War Graves Commission</a>
		  </description>
		  <Point>
			<coordinates> -6.68405,53.40616</coordinates>
		  </Point>
		</Placemark><Placemark>
		  <name>KILDARE (GREY ABBEY) CEMETERY</name>
		  <description><a href="http://www.cwgc.org/find-a-cemetery/cemetery/73874/KILDARE%20%28GREY%20ABBEY%29%20CEMETERY">KILDARE (GREY ABBEY) CEMETERY at the Commonwealth War Graves Commission</a>
		  </description>
		  <Point>
			<coordinates> -6.91321,53.15311</coordinates>
		  </Point>
		</Placemark><Placemark>
		  <name>KILCULLEN (ABBEY) CEMETERY</name>
		  <description><a href="http://www.cwgc.org/find-a-cemetery/cemetery/73875/KILCULLEN%20%28ABBEY%29%20CEMETERY">KILCULLEN (ABBEY) CEMETERY at the Commonwealth War Graves Commission</a>
		  </description>
		  <Point>
			<coordinates> -6.7348,53.12657</coordinates>
		  </Point>
		</Placemark><Placemark>
		  <name>KILDARE (ST. BRIDGET) CATHEDRAL CEMETERY</name>
		  <description><a href="http://www.cwgc.org/find-a-cemetery/cemetery/73876/KILDARE%20%28ST.%20BRIDGET%29%20CATHEDRAL%20CEMETERY">KILDARE (ST. BRIDGET) CATHEDRAL CEMETERY at the Commonwealth War Graves Commission</a>
		  </description>
		  <Point>
			<coordinates> -6.91079,53.15762</coordinates>
		  </Point>
		</Placemark><Placemark>
		  <name>MONASTEREVIN (ST. JOHN) CHURCH OF IRELAND CHURCHYARD</name>
		  <description><a href="http://www.cwgc.org/find-a-cemetery/cemetery/73877/MONASTEREVIN%20%28ST.%20JOHN%29%20CHURCH%20OF%20IRELAND%20CHURCHYARD">MONASTEREVIN (ST. JOHN) CHURCH OF IRELAND CHURCHYARD at the Commonwealth War Graves Commission</a>
		  </description>
		  <Point>
			<coordinates> -7.06403,53.13906</coordinates>
		  </Point>
		</Placemark><Placemark>
		  <name>NAAS (MAUDLINGS, OR ST. MAGDALEN'S) PROTESTANT CEMETERY</name>
		  <description><a href="http://www.cwgc.org/find-a-cemetery/cemetery/73878/NAAS%20%28MAUDLINGS%2C%20OR%20ST.%20MAGDALEN%27S%29%20PROTESTANT%20CEMETERY">NAAS (MAUDLINGS, OR ST. MAGDALEN'S) PROTESTANT CEMETERY at the Commonwealth War Graves Commission</a>
		  </description>
		  <Point>
			<coordinates> -6.64723,53.22744</coordinates>
		  </Point>
		</Placemark><Placemark>
		  <name>NAAS (ST. CORBAN'S) CATHOLIC CEMETERY</name>
		  <description><a href="http://www.cwgc.org/find-a-cemetery/cemetery/73879/NAAS%20%28ST.%20CORBAN%27S%29%20CATHOLIC%20CEMETERY">NAAS (ST. CORBAN'S) CATHOLIC CEMETERY at the Commonwealth War Graves Commission</a>
		  </description>
		  <Point>
			<coordinates> -6.6512,53.22547</coordinates>
		  </Point>
		</Placemark><Placemark>
		  <name>NURNEY CATHOLIC CHURCHYARD</name>
		  <description><a href="http://www.cwgc.org/find-a-cemetery/cemetery/73880/NURNEY%20CATHOLIC%20CHURCHYARD">NURNEY CATHOLIC CHURCHYARD at the Commonwealth War Graves Commission</a>
		  </description>
		  <Point>
			<coordinates> -6.9477,53.09519</coordinates>
		  </Point>
		</Placemark><Placemark>
		  <name>RATHMORE CHURCH OF IRELAND CHURCHYARD</name>
		  <description><a href="http://www.cwgc.org/find-a-cemetery/cemetery/73881/RATHMORE%20CHURCH%20OF%20IRELAND%20CHURCHYARD">RATHMORE CHURCH OF IRELAND CHURCHYARD at the Commonwealth War Graves Commission</a>
		  </description>
		  <Point>
			<coordinates> -6.5644,53.21735</coordinates>
		  </Point>
		</Placemark><Placemark>
		  <name>CASTLECOMER (ST. MARY) CHURCH OF IRELAND CHURCHYARD</name>
		  <description><a href="http://www.cwgc.org/find-a-cemetery/cemetery/73884/CASTLECOMER%20%28ST.%20MARY%29%20CHURCH%20OF%20IRELAND%20CHURCHYARD">CASTLECOMER (ST. MARY) CHURCH OF IRELAND CHURCHYARD at the Commonwealth War Graves Commission</a>
		  </description>
		  <Point>
			<coordinates> -7.20127,52.80678</coordinates>
		  </Point>
		</Placemark><Placemark>
		  <name>COON CATHOLIC CHURCHYARD</name>
		  <description><a href="http://www.cwgc.org/find-a-cemetery/cemetery/73886/COON%20CATHOLIC%20CHURCHYARD">COON CATHOLIC CHURCHYARD at the Commonwealth War Graves Commission</a>
		  </description>
		  <Point>
			<coordinates> -7.11915,52.78669</coordinates>
		  </Point>
		</Placemark><Placemark>
		  <name>GLENMORE (ST. JAMES) CATHOLIC CHURCHYARD</name>
		  <description><a href="http://www.cwgc.org/find-a-cemetery/cemetery/73890/GLENMORE%20%28ST.%20JAMES%29%20CATHOLIC%20CHURCHYARD">GLENMORE (ST. JAMES) CATHOLIC CHURCHYARD at the Commonwealth War Graves Commission</a>
		  </description>
		  <Point>
			<coordinates> -7.02971,52.35332</coordinates>
		  </Point>
		</Placemark><Placemark>
		  <name>KILKENNY NEW CEMETERY</name>
		  <description><a href="http://www.cwgc.org/find-a-cemetery/cemetery/73891/KILKENNY%20NEW%20CEMETERY">KILKENNY NEW CEMETERY at the Commonwealth War Graves Commission</a>
		  </description>
		  <Point>
			<coordinates> -7.23506,52.65789</coordinates>
		  </Point>
		</Placemark><Placemark>
		  <name>KILKENNY (ST. CANICE) CHURCH OF IRELAND CATHEDRAL</name>
		  <description><a href="http://www.cwgc.org/find-a-cemetery/cemetery/73892/KILKENNY%20%28ST.%20CANICE%29%20CHURCH%20OF%20IRELAND%20CATHEDRAL">KILKENNY (ST. CANICE) CHURCH OF IRELAND CATHEDRAL at the Commonwealth War Graves Commission</a>
		  </description>
		  <Point>
			<coordinates> -7.25757,52.65625</coordinates>
		  </Point>
		</Placemark><Placemark>
		  <name>KILKENNY (ST. JOHN) CHURCH OF IRELAND CHURCHYARD</name>
		  <description><a href="http://www.cwgc.org/find-a-cemetery/cemetery/73893/KILKENNY%20%28ST.%20JOHN%29%20CHURCH%20OF%20IRELAND%20CHURCHYARD">KILKENNY (ST. JOHN) CHURCH OF IRELAND CHURCHYARD at the Commonwealth War Graves Commission</a>
		  </description>
		  <Point>
			<coordinates> -7.24813,52.65361</coordinates>
		  </Point>
		</Placemark><Placemark>
		  <name>KILKENNY (ST. JOHN) CATHOLIC CHURCHYARD</name>
		  <description><a href="http://www.cwgc.org/find-a-cemetery/cemetery/73894/KILKENNY%20%28ST.%20JOHN%29%20CATHOLIC%20CHURCHYARD">KILKENNY (ST. JOHN) CATHOLIC CHURCHYARD at the Commonwealth War Graves Commission</a>
		  </description>
		  <Point>
			<coordinates> -7.24578,52.6546</coordinates>
		  </Point>
		</Placemark><Placemark>
		  <name>KILKENNY (ST. MARY) CHURCH OF IRELAND CHURCHYARD</name>
		  <description><a href="http://www.cwgc.org/find-a-cemetery/cemetery/73895/KILKENNY%20%28ST.%20MARY%29%20CHURCH%20OF%20IRELAND%20CHURCHYARD">KILKENNY (ST. MARY) CHURCH OF IRELAND CHURCHYARD at the Commonwealth War Graves Commission</a>
		  </description>
		  <Point>
			<coordinates> -7.25222,52.65165</coordinates>
		  </Point>
		</Placemark><Placemark>
		  <name>REGINA CAELI CEMETERY, MOONCOIN</name>
		  <description><a href="http://www.cwgc.org/find-a-cemetery/cemetery/73899/REGINA%20CAELI%20CEMETERY%2C%20MOONCOIN">REGINA CAELI CEMETERY, MOONCOIN at the Commonwealth War Graves Commission</a>
		  </description>
		  <Point>
			<coordinates> -7.25886,52.29631</coordinates>
		  </Point>
		</Placemark><Placemark>
		  <name>OWNING CATHOLIC CHURCHYARD</name>
		  <description><a href="http://www.cwgc.org/find-a-cemetery/cemetery/73900/OWNING%20CATHOLIC%20CHURCHYARD">OWNING CATHOLIC CHURCHYARD at the Commonwealth War Graves Commission</a>
		  </description>
		  <Point>
			<coordinates> -7.3441,52.38771</coordinates>
		  </Point>
		</Placemark><Placemark>
		  <name>CARRICK-ON-SHANNON (ST. GEORGE) CHURCH OF IRELAND CHURCHYARD</name>
		  <description><a href="http://www.cwgc.org/find-a-cemetery/cemetery/73903/CARRICK-ON-SHANNON%20%28ST.%20GEORGE%29%20CHURCH%20OF%20IRELAND%20CHURCHYARD">CARRICK-ON-SHANNON (ST. GEORGE) CHURCH OF IRELAND CHURCHYARD at the Commonwealth War Graves Commission</a>
		  </description>
		  <Point>
			<coordinates> -8.0945,53.94674</coordinates>
		  </Point>
		</Placemark><Placemark>
		  <name>CARRIGALLEN CATHOLIC CHURCHYARD</name>
		  <description><a href="http://www.cwgc.org/find-a-cemetery/cemetery/73904/CARRIGALLEN%20CATHOLIC%20CHURCHYARD">CARRIGALLEN CATHOLIC CHURCHYARD at the Commonwealth War Graves Commission</a>
		  </description>
		  <Point>
			<coordinates> -7.6463,53.97142</coordinates>
		  </Point>
		</Placemark><Placemark>
		  <name>DRUMCONG CATHOLIC CHURCHYARD</name>
		  <description><a href="http://www.cwgc.org/find-a-cemetery/cemetery/73905/DRUMCONG%20CATHOLIC%20CHURCHYARD">DRUMCONG CATHOLIC CHURCHYARD at the Commonwealth War Graves Commission</a>
		  </description>
		  <Point>
			<coordinates> -7.97282,54.02737</coordinates>
		  </Point>
		</Placemark><Placemark>
		  <name>DRUMSHANBO CATHOLIC CHURCHYARD</name>
		  <description><a href="http://www.cwgc.org/find-a-cemetery/cemetery/73906/DRUMSHANBO%20CATHOLIC%20CHURCHYARD">DRUMSHANBO CATHOLIC CHURCHYARD at the Commonwealth War Graves Commission</a>
		  </description>
		  <Point>
			<coordinates> -8.03777,54.04903</coordinates>
		  </Point>
		</Placemark><Placemark>
		  <name>JAMESTOWN CEMETERY, COUNTY LEITRIM</name>
		  <description><a href="http://www.cwgc.org/find-a-cemetery/cemetery/73907/JAMESTOWN%20CEMETERY%2C%20COUNTY%20LEITRIM">JAMESTOWN CEMETERY, COUNTY LEITRIM at the Commonwealth War Graves Commission</a>
		  </description>
		  <Point>
			<coordinates> -8.02955,53.92785</coordinates>
		  </Point>
		</Placemark><Placemark>
		  <name>MOHILL CEMETERY</name>
		  <description><a href="http://www.cwgc.org/find-a-cemetery/cemetery/73908/MOHILL%20CEMETERY">MOHILL CEMETERY at the Commonwealth War Graves Commission</a>
		  </description>
		  <Point>
			<coordinates> -7.87118,53.92302</coordinates>
		  </Point>
		</Placemark><Placemark>
		  <name>ABBEYLEIX NEW CEMETERY</name>
		  <description><a href="http://www.cwgc.org/find-a-cemetery/cemetery/73909/ABBEYLEIX%20NEW%20CEMETERY">ABBEYLEIX NEW CEMETERY at the Commonwealth War Graves Commission</a>
		  </description>
		  <Point>
			<coordinates> -7.34489,52.9145</coordinates>
		  </Point>
		</Placemark><Placemark>
		  <name>ABBEYLEIX CATHOLIC CHURCHYARD</name>
		  <description><a href="http://www.cwgc.org/find-a-cemetery/cemetery/73910/ABBEYLEIX%20CATHOLIC%20CHURCHYARD">ABBEYLEIX CATHOLIC CHURCHYARD at the Commonwealth War Graves Commission</a>
		  </description>
		  <Point>
			<coordinates> -7.34642,52.91476</coordinates>
		  </Point>
		</Placemark><Placemark>
		  <name>DURROW CATHOLIC CHURCHYARD</name>
		  <description><a href="http://www.cwgc.org/find-a-cemetery/cemetery/73911/DURROW%20CATHOLIC%20CHURCHYARD">DURROW CATHOLIC CHURCHYARD at the Commonwealth War Graves Commission</a>
		  </description>
		  <Point>
			<coordinates> -7.39311,52.84308</coordinates>
		  </Point>
		</Placemark><Placemark>
		  <name>EMO CATHOLIC CHURCHYARD</name>
		  <description><a href="http://www.cwgc.org/find-a-cemetery/cemetery/73912/EMO%20CATHOLIC%20CHURCHYARD">EMO CATHOLIC CHURCHYARD at the Commonwealth War Graves Commission</a>
		  </description>
		  <Point>
			<coordinates> -7.2089,53.09822</coordinates>
		  </Point>
		</Placemark><Placemark>
		  <name>KILLENARD CATHOLIC CHURCHYARD</name>
		  <description><a href="http://www.cwgc.org/find-a-cemetery/cemetery/73913/KILLENARD%20CATHOLIC%20CHURCHYARD">KILLENARD CATHOLIC CHURCHYARD at the Commonwealth War Graves Commission</a>
		  </description>
		  <Point>
			<coordinates> -7.14748,53.13214</coordinates>
		  </Point>
		</Placemark><Placemark>
		  <name>KILLESHIN CHURCH OF IRELAND CHURCHYARD</name>
		  <description><a href="http://www.cwgc.org/find-a-cemetery/cemetery/73914/KILLESHIN%20CHURCH%20OF%20IRELAND%20CHURCHYARD">KILLESHIN CHURCH OF IRELAND CHURCHYARD at the Commonwealth War Graves Commission</a>
		  </description>
		  <Point>
			<coordinates> -6.99749,52.84816</coordinates>
		  </Point>
		</Placemark><Placemark>
		  <name>KNOCKAROE CATHOLIC CHURCHYARD</name>
		  <description><a href="http://www.cwgc.org/find-a-cemetery/cemetery/73915/KNOCKAROE%20CATHOLIC%20CHURCHYARD">KNOCKAROE CATHOLIC CHURCHYARD at the Commonwealth War Graves Commission</a>
		  </description>
		  <Point>
			<coordinates> -7.57185,52.93071</coordinates>
		  </Point>
		</Placemark><Placemark>
		  <name>PORTLAOIGHISE (ST. PETER AND PAUL) CEMETERY</name>
		  <description><a href="http://www.cwgc.org/find-a-cemetery/cemetery/73916/PORTLAOIGHISE%20%28ST.%20PETER%20AND%20PAUL%29%20CEMETERY">PORTLAOIGHISE (ST. PETER AND PAUL) CEMETERY at the Commonwealth War Graves Commission</a>
		  </description>
		  <Point>
			<coordinates> -7.27192,53.0329</coordinates>
		  </Point>
		</Placemark><Placemark>
		  <name>PORTARLINGTON (ST. MICHAELS) CEMETERY</name>
		  <description><a href="http://www.cwgc.org/find-a-cemetery/cemetery/73918/PORTARLINGTON%20%28ST.%20MICHAELS%29%20CEMETERY">PORTARLINGTON (ST. MICHAELS) CEMETERY at the Commonwealth War Graves Commission</a>
		  </description>
		  <Point>
			<coordinates> -7.19026,53.16178</coordinates>
		  </Point>
		</Placemark><Placemark>
		  <name>PORTARLINGTON (ST. PAUL) CHURCH OF IRELAND CHURCHYARD</name>
		  <description><a href="http://www.cwgc.org/find-a-cemetery/cemetery/73919/PORTARLINGTON%20%28ST.%20PAUL%29%20CHURCH%20OF%20IRELAND%20CHURCHYARD">PORTARLINGTON (ST. PAUL) CHURCH OF IRELAND CHURCHYARD at the Commonwealth War Graves Commission</a>
		  </description>
		  <Point>
			<coordinates> -7.20983,53.15702</coordinates>
		  </Point>
		</Placemark><Placemark>
		  <name>BALLYMACORMICK CHURCH OF IRELAND CHURCHYARD</name>
		  <description><a href="http://www.cwgc.org/find-a-cemetery/cemetery/73920/BALLYMACORMICK%20CHURCH%20OF%20IRELAND%20CHURCHYARD">BALLYMACORMICK CHURCH OF IRELAND CHURCHYARD at the Commonwealth War Graves Commission</a>
		  </description>
		  <Point>
			<coordinates> -7.82344,53.68897</coordinates>
		  </Point>
		</Placemark><Placemark>
		  <name>EDGEWORTHSTOWN CEMETERY</name>
		  <description><a href="http://www.cwgc.org/find-a-cemetery/cemetery/73921/EDGEWORTHSTOWN%20CEMETERY">EDGEWORTHSTOWN CEMETERY at the Commonwealth War Graves Commission</a>
		  </description>
		  <Point>
			<coordinates> -7.60056,53.69857</coordinates>
		  </Point>
		</Placemark><Placemark>
		  <name>LONGFORD (BALLYMACORMICK) CEMETERY</name>
		  <description><a href="http://www.cwgc.org/find-a-cemetery/cemetery/73923/LONGFORD%20%28BALLYMACORMICK%29%20CEMETERY">LONGFORD (BALLYMACORMICK) CEMETERY at the Commonwealth War Graves Commission</a>
		  </description>
		  <Point>
			<coordinates> -7.81816,53.70559</coordinates>
		  </Point>
		</Placemark><Placemark>
		  <name>NEWTOWN FORBES (ST. ANN) CHURCH OF IRELAND CHURCHYARD</name>
		  <description><a href="http://www.cwgc.org/find-a-cemetery/cemetery/73925/NEWTOWN%20FORBES%20%28ST.%20ANN%29%20CHURCH%20OF%20IRELAND%20CHURCHYARD">NEWTOWN FORBES (ST. ANN) CHURCH OF IRELAND CHURCHYARD at the Commonwealth War Graves Commission</a>
		  </description>
		  <Point>
			<coordinates> -7.83584,53.76523</coordinates>
		  </Point>
		</Placemark><Placemark>
		  <name>ARDEE (ST. MARY) CHURCH OF IRELAND CHURCHYARD</name>
		  <description><a href="http://www.cwgc.org/find-a-cemetery/cemetery/73926/ARDEE%20%28ST.%20MARY%29%20CHURCH%20OF%20IRELAND%20CHURCHYARD">ARDEE (ST. MARY) CHURCH OF IRELAND CHURCHYARD at the Commonwealth War Graves Commission</a>
		  </description>
		  <Point>
			<coordinates> -6.53992,53.85776</coordinates>
		  </Point>
		</Placemark><Placemark>
		  <name>CARLINGFORD (HOLY TRINITY) CHURCH OF IRELAND CHURCHYARD</name>
		  <description><a href="http://www.cwgc.org/find-a-cemetery/cemetery/73927/CARLINGFORD%20%28HOLY%20TRINITY%29%20CHURCH%20OF%20IRELAND%20CHURCHYARD">CARLINGFORD (HOLY TRINITY) CHURCH OF IRELAND CHURCHYARD at the Commonwealth War Graves Commission</a>
		  </description>
		  <Point>
			<coordinates> -6.18489,54.03952</coordinates>
		  </Point>
		</Placemark><Placemark>
		  <name>DROGHEDA (CALVARY) CATHOLIC CEMETERY</name>
		  <description><a href="http://www.cwgc.org/find-a-cemetery/cemetery/73928/DROGHEDA%20%28CALVARY%29%20CATHOLIC%20CEMETERY">DROGHEDA (CALVARY) CATHOLIC CEMETERY at the Commonwealth War Graves Commission</a>
		  </description>
		  <Point>
			<coordinates> -6.34172,53.70903</coordinates>
		  </Point>
		</Placemark><Placemark>
		  <name>DROGHEDA (ST. MARY) CHURCH OF IRELAND CHURCHYARD</name>
		  <description><a href="http://www.cwgc.org/find-a-cemetery/cemetery/73929/DROGHEDA%20%28ST.%20MARY%29%20CHURCH%20OF%20IRELAND%20CHURCHYARD">DROGHEDA (ST. MARY) CHURCH OF IRELAND CHURCHYARD at the Commonwealth War Graves Commission</a>
		  </description>
		  <Point>
			<coordinates> -6.34793,53.71088</coordinates>
		  </Point>
		</Placemark><Placemark>
		  <name>DROGHEDA (ST. PETER'S) CATHOLIC CEMETERY</name>
		  <description><a href="http://www.cwgc.org/find-a-cemetery/cemetery/73930/DROGHEDA%20%28ST.%20PETER%27S%29%20CATHOLIC%20CEMETERY">DROGHEDA (ST. PETER'S) CATHOLIC CEMETERY at the Commonwealth War Graves Commission</a>
		  </description>
		  <Point>
			<coordinates> -6.35594,53.72379</coordinates>
		  </Point>
		</Placemark><Placemark>
		  <name>DRUMCAR (ST. FINTAN) CHURCH OF IRELAND CHURCHYARD</name>
		  <description><a href="http://www.cwgc.org/find-a-cemetery/cemetery/73931/DRUMCAR%20%28ST.%20FINTAN%29%20CHURCH%20OF%20IRELAND%20CHURCHYARD">DRUMCAR (ST. FINTAN) CHURCH OF IRELAND CHURCHYARD at the Commonwealth War Graves Commission</a>
		  </description>
		  <Point>
			<coordinates> -6.37642,53.85863</coordinates>
		  </Point>
		</Placemark><Placemark>
		  <name>DUNDALK (CASTLETOWN) CATHOLIC CEMETERY</name>
		  <description><a href="http://www.cwgc.org/find-a-cemetery/cemetery/73932/DUNDALK%20%28CASTLETOWN%29%20CATHOLIC%20CEMETERY">DUNDALK (CASTLETOWN) CATHOLIC CEMETERY at the Commonwealth War Graves Commission</a>
		  </description>
		  <Point>
			<coordinates> -6.42408,54.01556</coordinates>
		  </Point>
		</Placemark><Placemark>
		  <name>DUNDALK (ST. PATRICK'S) CEMETERY</name>
		  <description><a href="http://www.cwgc.org/find-a-cemetery/cemetery/73933/DUNDALK%20%28ST.%20PATRICK%27S%29%20CEMETERY">DUNDALK (ST. PATRICK'S) CEMETERY at the Commonwealth War Graves Commission</a>
		  </description>
		  <Point>
			<coordinates> -6.39444,54.02104</coordinates>
		  </Point>
		</Placemark><Placemark>
		  <name>KILWIRRA OLD CATHOLIC CHURCHYARD</name>
		  <description><a href="http://www.cwgc.org/find-a-cemetery/cemetery/73934/KILWIRRA%20OLD%20CATHOLIC%20CHURCHYARD">KILWIRRA OLD CATHOLIC CHURCHYARD at the Commonwealth War Graves Commission</a>
		  </description>
		  <Point>
			<coordinates> -6.1546,53.98604</coordinates>
		  </Point>
		</Placemark><Placemark>
		  <name>AUGHAVAL (HOLY TRINITY) CHURCH OF IRELAND CHURCHYARD</name>
		  <description><a href="http://www.cwgc.org/find-a-cemetery/cemetery/73935/AUGHAVAL%20%28HOLY%20TRINITY%29%20CHURCH%20OF%20IRELAND%20CHURCHYARD">AUGHAVAL (HOLY TRINITY) CHURCH OF IRELAND CHURCHYARD at the Commonwealth War Graves Commission</a>
		  </description>
		  <Point>
			<coordinates> -9.52046,53.80277</coordinates>
		  </Point>
		</Placemark><Placemark>
		  <name>BALLA (HOLY TRINITY) CHURCH OF IRELAND CHURCHYARD</name>
		  <description><a href="http://www.cwgc.org/find-a-cemetery/cemetery/73936/BALLA%20%28HOLY%20TRINITY%29%20CHURCH%20OF%20IRELAND%20CHURCHYARD">BALLA (HOLY TRINITY) CHURCH OF IRELAND CHURCHYARD at the Commonwealth War Graves Commission</a>
		  </description>
		  <Point>
			<coordinates> -9.12974,53.80146</coordinates>
		  </Point>
		</Placemark><Placemark>
		  <name>BALLINA (NEW LEAGUE) CEMETERY</name>
		  <description><a href="http://www.cwgc.org/find-a-cemetery/cemetery/73938/BALLINA%20%28NEW%20LEAGUE%29%20CEMETERY">BALLINA (NEW LEAGUE) CEMETERY at the Commonwealth War Graves Commission</a>
		  </description>
		  <Point>
			<coordinates> -9.16494,54.12245</coordinates>
		  </Point>
		</Placemark><Placemark>
		  <name>BALLINROBE (ST. MARY) CHURCH OF IRELAND CHURCHYARD</name>
		  <description><a href="http://www.cwgc.org/find-a-cemetery/cemetery/73941/BALLINROBE%20%28ST.%20MARY%29%20CHURCH%20OF%20IRELAND%20CHURCHYARD">BALLINROBE (ST. MARY) CHURCH OF IRELAND CHURCHYARD at the Commonwealth War Graves Commission</a>
		  </description>
		  <Point>
			<coordinates> -9.22315,53.62195</coordinates>
		  </Point>
		</Placemark><Placemark>
		  <name>BALLYHAUNIS (ABBEY) CEMETERY</name>
		  <description><a href="http://www.cwgc.org/find-a-cemetery/cemetery/73942/BALLYHAUNIS%20%28ABBEY%29%20CEMETERY">BALLYHAUNIS (ABBEY) CEMETERY at the Commonwealth War Graves Commission</a>
		  </description>
		  <Point>
			<coordinates> -8.76232,53.75833</coordinates>
		  </Point>
		</Placemark><Placemark>
		  <name>BUSHFIELD CEMETERY</name>
		  <description><a href="http://www.cwgc.org/find-a-cemetery/cemetery/73943/BUSHFIELD%20CEMETERY">BUSHFIELD CEMETERY at the Commonwealth War Graves Commission</a>
		  </description>
		  <Point>
			<coordinates> -8.83487,53.93366</coordinates>
		  </Point>
		</Placemark><Placemark>
		  <name>CASTLEBAR CATHOLIC CEMETERY</name>
		  <description><a href="http://www.cwgc.org/find-a-cemetery/cemetery/73944/CASTLEBAR%20CATHOLIC%20CEMETERY">CASTLEBAR CATHOLIC CEMETERY at the Commonwealth War Graves Commission</a>
		  </description>
		  <Point>
			<coordinates> -9.3092,53.85258</coordinates>
		  </Point>
		</Placemark><Placemark>
		  <name>KILLALA (ST. PATRICK) CHURCH OF IRELAND CHURCHYARD</name>
		  <description><a href="http://www.cwgc.org/find-a-cemetery/cemetery/73947/KILLALA%20%28ST.%20PATRICK%29%20CHURCH%20OF%20IRELAND%20CHURCHYARD">KILLALA (ST. PATRICK) CHURCH OF IRELAND CHURCHYARD at the Commonwealth War Graves Commission</a>
		  </description>
		  <Point>
			<coordinates> -9.21985,54.21213</coordinates>
		  </Point>
		</Placemark><Placemark>
		  <name>KILMEENA CEMETERY</name>
		  <description><a href="http://www.cwgc.org/find-a-cemetery/cemetery/73949/KILMEENA%20CEMETERY">KILMEENA CEMETERY at the Commonwealth War Graves Commission</a>
		  </description>
		  <Point>
			<coordinates> -9.57249,53.84101</coordinates>
		  </Point>
		</Placemark><Placemark>
		  <name>STRADE (OLD ABBEY) CEMETERY</name>
		  <description><a href="http://www.cwgc.org/find-a-cemetery/cemetery/73951/STRADE%20%28OLD%20ABBEY%29%20CEMETERY">STRADE (OLD ABBEY) CEMETERY at the Commonwealth War Graves Commission</a>
		  </description>
		  <Point>
			<coordinates> -8.94071,53.94913</coordinates>
		  </Point>
		</Placemark><Placemark>
		  <name>ARDBRACCAN (ST. ULTAN) CHURCH OF IRELAND CHURCHYARD</name>
		  <description><a href="http://www.cwgc.org/find-a-cemetery/cemetery/73952/ARDBRACCAN%20%28ST.%20ULTAN%29%20CHURCH%20OF%20IRELAND%20CHURCHYARD">ARDBRACCAN (ST. ULTAN) CHURCH OF IRELAND CHURCHYARD at the Commonwealth War Graves Commission</a>
		  </description>
		  <Point>
			<coordinates> -6.7477,53.65798</coordinates>
		  </Point>
		</Placemark><Placemark>
		  <name>BECTIVE (ST. MARY) CHURCH OF IRELAND CHURCHYARD</name>
		  <description><a href="http://www.cwgc.org/find-a-cemetery/cemetery/73953/BECTIVE%20%28ST.%20MARY%29%20CHURCH%20OF%20IRELAND%20CHURCHYARD">BECTIVE (ST. MARY) CHURCH OF IRELAND CHURCHYARD at the Commonwealth War Graves Commission</a>
		  </description>
		  <Point>
			<coordinates> -6.70268,53.5952</coordinates>
		  </Point>
		</Placemark><Placemark>
		  <name>DRUMCONRATH NEW CATHOLIC CEMETERY</name>
		  <description><a href="http://www.cwgc.org/find-a-cemetery/cemetery/73954/DRUMCONRATH%20NEW%20CATHOLIC%20CEMETERY">DRUMCONRATH NEW CATHOLIC CEMETERY at the Commonwealth War Graves Commission</a>
		  </description>
		  <Point>
			<coordinates> -6.6505,53.85029</coordinates>
		  </Point>
		</Placemark><Placemark>
		  <name>JULIANSTOWN (ST. MARY) CHURCH OF IRELAND CHURCHYARD</name>
		  <description><a href="http://www.cwgc.org/find-a-cemetery/cemetery/73955/JULIANSTOWN%20%28ST.%20MARY%29%20CHURCH%20OF%20IRELAND%20CHURCHYARD">JULIANSTOWN (ST. MARY) CHURCH OF IRELAND CHURCHYARD at the Commonwealth War Graves Commission</a>
		  </description>
		  <Point>
			<coordinates> -6.27927,53.67436</coordinates>
		  </Point>
		</Placemark><Placemark>
		  <name>LOUGHCREW CHURCH OF IRELAND CHURCHYARD</name>
		  <description><a href="http://www.cwgc.org/find-a-cemetery/cemetery/73956/LOUGHCREW%20CHURCH%20OF%20IRELAND%20CHURCHYARD">LOUGHCREW CHURCH OF IRELAND CHURCHYARD at the Commonwealth War Graves Commission</a>
		  </description>
		  <Point>
			<coordinates> -7.1515,53.73826</coordinates>
		  </Point>
		</Placemark><Placemark>
		  <name>MOYGLARE CHURCH OF IRELAND CHURCHYARD</name>
		  <description><a href="http://www.cwgc.org/find-a-cemetery/cemetery/73957/MOYGLARE%20CHURCH%20OF%20IRELAND%20CHURCHYARD">MOYGLARE CHURCH OF IRELAND CHURCHYARD at the Commonwealth War Graves Commission</a>
		  </description>
		  <Point>
			<coordinates> -6.60536,53.40004</coordinates>
		  </Point>
		</Placemark><Placemark>
		  <name>NAVAN NEW CEMETERY</name>
		  <description><a href="http://www.cwgc.org/find-a-cemetery/cemetery/73958/NAVAN%20NEW%20CEMETERY">NAVAN NEW CEMETERY at the Commonwealth War Graves Commission</a>
		  </description>
		  <Point>
			<coordinates> -6.66235,53.65886</coordinates>
		  </Point>
		</Placemark><Placemark>
		  <name>NEWTOWN CEMETERY, TRIM</name>
		  <description><a href="http://www.cwgc.org/find-a-cemetery/cemetery/73959/NEWTOWN%20CEMETERY%2C%20TRIM">NEWTOWN CEMETERY, TRIM at the Commonwealth War Graves Commission</a>
		  </description>
		  <Point>
			<coordinates> -6.77082,53.5558</coordinates>
		  </Point>
		</Placemark><Placemark>
		  <name>OLDCASTLE CEMETERY</name>
		  <description><a href="http://www.cwgc.org/find-a-cemetery/cemetery/73960/OLDCASTLE%20CEMETERY">OLDCASTLE CEMETERY at the Commonwealth War Graves Commission</a>
		  </description>
		  <Point>
			<coordinates> -7.15189,53.76857</coordinates>
		  </Point>
		</Placemark><Placemark>
		  <name>SLANE (ST. PATRICK) CHURCH OF IRELAND CHURCHYARD</name>
		  <description><a href="http://www.cwgc.org/find-a-cemetery/cemetery/73961/SLANE%20%28ST.%20PATRICK%29%20CHURCH%20OF%20IRELAND%20CHURCHYARD">SLANE (ST. PATRICK) CHURCH OF IRELAND CHURCHYARD at the Commonwealth War Graves Commission</a>
		  </description>
		  <Point>
			<coordinates> -6.54599,53.70904</coordinates>
		  </Point>
		</Placemark><Placemark>
		  <name>ANNAYALLA (ST. MICHAEL) CATHOLIC CHURCHYARD</name>
		  <description><a href="http://www.cwgc.org/find-a-cemetery/cemetery/73962/ANNAYALLA%20%28ST.%20MICHAEL%29%20CATHOLIC%20CHURCHYARD">ANNAYALLA (ST. MICHAEL) CATHOLIC CHURCHYARD at the Commonwealth War Graves Commission</a>
		  </description>
		  <Point>
			<coordinates> -6.79065,54.16078</coordinates>
		  </Point>
		</Placemark><Placemark>
		  <name>BALLINTRA CATHOLIC CHURCHYARD</name>
		  <description><a href="http://www.cwgc.org/find-a-cemetery/cemetery/73963/BALLINTRA%20CATHOLIC%20CHURCHYARD">BALLINTRA CATHOLIC CHURCHYARD at the Commonwealth War Graves Commission</a>
		  </description>
		  <Point>
			<coordinates> -6.859,54.12165</coordinates>
		  </Point>
		</Placemark><Placemark>
		  <name>BALLYBAY FIRST PRESBYTERIAN CHURCHYARD</name>
		  <description><a href="http://www.cwgc.org/find-a-cemetery/cemetery/73964/BALLYBAY%20FIRST%20PRESBYTERIAN%20CHURCHYARD">BALLYBAY FIRST PRESBYTERIAN CHURCHYARD at the Commonwealth War Graves Commission</a>
		  </description>
		  <Point>
			<coordinates> -6.93421,54.13466</coordinates>
		  </Point>
		</Placemark><Placemark>
		  <name>CARRICKMACROSS CHURCH OF IRELAND NEW CEMETERY</name>
		  <description><a href="http://www.cwgc.org/find-a-cemetery/cemetery/73965/CARRICKMACROSS%20CHURCH%20OF%20IRELAND%20NEW%20CEMETERY">CARRICKMACROSS CHURCH OF IRELAND NEW CEMETERY at the Commonwealth War Graves Commission</a>
		  </description>
		  <Point>
			<coordinates> -6.70459,53.97073</coordinates>
		  </Point>
		</Placemark><Placemark>
		  <name>CLONES NEW CATHOLIC CEMETERY</name>
		  <description><a href="http://www.cwgc.org/find-a-cemetery/cemetery/73966/CLONES%20NEW%20CATHOLIC%20CEMETERY">CLONES NEW CATHOLIC CEMETERY at the Commonwealth War Graves Commission</a>
		  </description>
		  <Point>
			<coordinates> -7.22852,54.18794</coordinates>
		  </Point>
		</Placemark><Placemark>
		  <name>CURRIN CHURCH OF IRELAND CHURCHYARD</name>
		  <description><a href="http://www.cwgc.org/find-a-cemetery/cemetery/73967/CURRIN%20CHURCH%20OF%20IRELAND%20CHURCHYARD">CURRIN CHURCH OF IRELAND CHURCHYARD at the Commonwealth War Graves Commission</a>
		  </description>
		  <Point>
			<coordinates> -7.24956,54.12063</coordinates>
		  </Point>
		</Placemark><Placemark>
		  <name>DERRYVALLY PRESBYTERIAN CHURCHYARD</name>
		  <description><a href="http://www.cwgc.org/find-a-cemetery/cemetery/73968/DERRYVALLY%20PRESBYTERIAN%20CHURCHYARD">DERRYVALLY PRESBYTERIAN CHURCHYARD at the Commonwealth War Graves Commission</a>
		  </description>
		  <Point>
			<coordinates> -6.93488,54.13407</coordinates>
		  </Point>
		</Placemark><Placemark>
		  <name>GLASLOUGH CHURCH OF IRELAND NEW CEMETERY</name>
		  <description><a href="http://www.cwgc.org/find-a-cemetery/cemetery/73969/GLASLOUGH%20CHURCH%20OF%20IRELAND%20NEW%20CEMETERY">GLASLOUGH CHURCH OF IRELAND NEW CEMETERY at the Commonwealth War Graves Commission</a>
		  </description>
		  <Point>
			<coordinates> -6.88657,54.32161</coordinates>
		  </Point>
		</Placemark><Placemark>
		  <name>GLENNAN PRESBYTERIAN CHURCHYARD</name>
		  <description><a href="http://www.cwgc.org/find-a-cemetery/cemetery/73970/GLENNAN%20PRESBYTERIAN%20CHURCHYARD">GLENNAN PRESBYTERIAN CHURCHYARD at the Commonwealth War Graves Commission</a>
		  </description>
		  <Point>
			<coordinates> -6.91705,54.32426</coordinates>
		  </Point>
		</Placemark><Placemark>
		  <name>MONAGHAN (LATLORCAN) CATHOLIC CEMETERY</name>
		  <description><a href="http://www.cwgc.org/find-a-cemetery/cemetery/73971/MONAGHAN%20%28LATLORCAN%29%20CATHOLIC%20CEMETERY">MONAGHAN (LATLORCAN) CATHOLIC CEMETERY at the Commonwealth War Graves Commission</a>
		  </description>
		  <Point>
			<coordinates> -6.95483,54.24208</coordinates>
		  </Point>
		</Placemark><Placemark>
		  <name>TYHOLLAND (OR TEHALLAN) CATHOLIC CHURCHYARD</name>
		  <description><a href="http://www.cwgc.org/find-a-cemetery/cemetery/73972/TYHOLLAND%20%28OR%20TEHALLAN%29%20CATHOLIC%20CHURCHYARD">TYHOLLAND (OR TEHALLAN) CATHOLIC CHURCHYARD at the Commonwealth War Graves Commission</a>
		  </description>
		  <Point>
			<coordinates> -6.89168,54.26702</coordinates>
		  </Point>
		</Placemark><Placemark>
		  <name>BIRR (CLONOGHILL) CEMETERY</name>
		  <description><a href="http://www.cwgc.org/find-a-cemetery/cemetery/73975/BIRR%20%28CLONOGHILL%29%20CEMETERY">BIRR (CLONOGHILL) CEMETERY at the Commonwealth War Graves Commission</a>
		  </description>
		  <Point>
			<coordinates> -7.88577,53.08574</coordinates>
		  </Point>
		</Placemark><Placemark>
		  <name>BIRR MILITARY CEMETERY</name>
		  <description><a href="http://www.cwgc.org/find-a-cemetery/cemetery/73976/BIRR%20MILITARY%20CEMETERY">BIRR MILITARY CEMETERY at the Commonwealth War Graves Commission</a>
		  </description>
		  <Point>
			<coordinates> -7.90016,53.07785</coordinates>
		  </Point>
		</Placemark><Placemark>
		  <name>DURROW (ST. COLUMBCILLE) CATHOLIC CHURCHYARD</name>
		  <description><a href="http://www.cwgc.org/find-a-cemetery/cemetery/73978/DURROW%20%28ST.%20COLUMBCILLE%29%20CATHOLIC%20CHURCHYARD">DURROW (ST. COLUMBCILLE) CATHOLIC CHURCHYARD at the Commonwealth War Graves Commission</a>
		  </description>
		  <Point>
			<coordinates> -7.39309,52.84307</coordinates>
		  </Point>
		</Placemark><Placemark>
		  <name>EGLISH (HOLY TRINITY) CHURCH OF IRELAND CHURCHYARD</name>
		  <description><a href="http://www.cwgc.org/find-a-cemetery/cemetery/73979/EGLISH%20%28HOLY%20TRINITY%29%20CHURCH%20OF%20IRELAND%20CHURCHYARD">EGLISH (HOLY TRINITY) CHURCH OF IRELAND CHURCHYARD at the Commonwealth War Graves Commission</a>
		  </description>
		  <Point>
			<coordinates> -7.63552,52.85449</coordinates>
		  </Point>
		</Placemark><Placemark>
		  <name>MUCKLAGH CATHOLIC CHURCHYARD</name>
		  <description><a href="http://www.cwgc.org/find-a-cemetery/cemetery/73982/MUCKLAGH%20CATHOLIC%20CHURCHYARD">MUCKLAGH CATHOLIC CHURCHYARD at the Commonwealth War Graves Commission</a>
		  </description>
		  <Point>
			<coordinates> -7.53819,53.25455</coordinates>
		  </Point>
		</Placemark><Placemark>
		  <name>ARDCARN (ST. BEAIDH) CHURCH OF IRELAND CHURCHYARD</name>
		  <description><a href="http://www.cwgc.org/find-a-cemetery/cemetery/73983/ARDCARN%20%28ST.%20BEAIDH%29%20CHURCH%20OF%20IRELAND%20CHURCHYARD">ARDCARN (ST. BEAIDH) CHURCH OF IRELAND CHURCHYARD at the Commonwealth War Graves Commission</a>
		  </description>
		  <Point>
			<coordinates> -8.20488,53.96859</coordinates>
		  </Point>
		</Placemark><Placemark>
		  <name>BOYLE (ASYLINN) CEMETERY</name>
		  <description><a href="http://www.cwgc.org/find-a-cemetery/cemetery/73984/BOYLE%20%28ASYLINN%29%20CEMETERY">BOYLE (ASYLINN) CEMETERY at the Commonwealth War Graves Commission</a>
		  </description>
		  <Point>
			<coordinates> -8.32004,53.96923</coordinates>
		  </Point>
		</Placemark><Placemark>
		  <name>BOYLE CHURCH OF IRELAND CHURCHYARD</name>
		  <description><a href="http://www.cwgc.org/find-a-cemetery/cemetery/73985/BOYLE%20CHURCH%20OF%20IRELAND%20CHURCHYARD">BOYLE CHURCH OF IRELAND CHURCHYARD at the Commonwealth War Graves Commission</a>
		  </description>
		  <Point>
			<coordinates> -8.30314,53.97624</coordinates>
		  </Point>
		</Placemark><Placemark>
		  <name>CAM CEMETERY</name>
		  <description><a href="http://www.cwgc.org/find-a-cemetery/cemetery/73986/CAM%20CEMETERY">CAM CEMETERY at the Commonwealth War Graves Commission</a>
		  </description>
		  <Point>
			<coordinates> -8.12879,53.45745</coordinates>
		  </Point>
		</Placemark><Placemark>
		  <name>BALLYGLASS CEMETERY</name>
		  <description><a href="http://www.cwgc.org/find-a-cemetery/cemetery/73991/BALLYGLASS%20CEMETERY">BALLYGLASS CEMETERY at the Commonwealth War Graves Commission</a>
		  </description>
		  <Point>
			<coordinates> -7.3526,53.53768</coordinates>
		  </Point>
		</Placemark><Placemark>
		  <name>MEEDIAN CATHOLIC CHURCHYARD</name>
		  <description><a href="http://www.cwgc.org/find-a-cemetery/cemetery/73993/MEEDIAN%20CATHOLIC%20CHURCHYARD">MEEDIAN CATHOLIC CHURCHYARD at the Commonwealth War Graves Commission</a>
		  </description>
		  <Point>
			<coordinates> -7.36501,53.41397</coordinates>
		  </Point>
		</Placemark><Placemark>
		  <name>RATHCONNELL CHURCH OF IRELAND CHURCHYARD</name>
		  <description><a href="http://www.cwgc.org/find-a-cemetery/cemetery/73996/RATHCONNELL%20CHURCH%20OF%20IRELAND%20CHURCHYARD">RATHCONNELL CHURCH OF IRELAND CHURCHYARD at the Commonwealth War Graves Commission</a>
		  </description>
		  <Point>
			<coordinates> -7.29395,53.54245</coordinates>
		  </Point>
		</Placemark><Placemark>
		  <name>BANNOW CEMETERY</name>
		  <description><a href="http://www.cwgc.org/find-a-cemetery/cemetery/73998/BANNOW%20CEMETERY">BANNOW CEMETERY at the Commonwealth War Graves Commission</a>
		  </description>
		  <Point>
			<coordinates> -6.79398,52.21043</coordinates>
		  </Point>
		</Placemark><Placemark>
		  <name>COURTNACUDDY CATHOLIC CHURCHYARD</name>
		  <description><a href="http://www.cwgc.org/find-a-cemetery/cemetery/73999/COURTNACUDDY%20CATHOLIC%20CHURCHYARD">COURTNACUDDY CATHOLIC CHURCHYARD at the Commonwealth War Graves Commission</a>
		  </description>
		  <Point>
			<coordinates> -6.69495,52.48205</coordinates>
		  </Point>
		</Placemark><Placemark>
		  <name>ENNISCORTHY NEW CATHOLIC CEMETERY</name>
		  <description><a href="http://www.cwgc.org/find-a-cemetery/cemetery/74000/ENNISCORTHY%20NEW%20CATHOLIC%20CEMETERY">ENNISCORTHY NEW CATHOLIC CEMETERY at the Commonwealth War Graves Commission</a>
		  </description>
		  <Point>
			<coordinates> -6.56846,52.51081</coordinates>
		  </Point>
		</Placemark><Placemark>
		  <name>GOREY (CHRIST CHURCH) CHURCH OF IRELAND CHURCHYARD</name>
		  <description><a href="http://www.cwgc.org/find-a-cemetery/cemetery/74001/GOREY%20%28CHRIST%20CHURCH%29%20CHURCH%20OF%20IRELAND%20CHURCHYARD">GOREY (CHRIST CHURCH) CHURCH OF IRELAND CHURCHYARD at the Commonwealth War Graves Commission</a>
		  </description>
		  <Point>
			<coordinates> -6.29753,52.67463</coordinates>
		  </Point>
		</Placemark><Placemark>
		  <name>KILMOKEA CEMETERY</name>
		  <description><a href="http://www.cwgc.org/find-a-cemetery/cemetery/74002/KILMOKEA%20CEMETERY">KILMOKEA CEMETERY at the Commonwealth War Graves Commission</a>
		  </description>
		  <Point>
			<coordinates> -6.99307,52.29655</coordinates>
		  </Point>
		</Placemark><Placemark>
		  <name>KILRANE CATHOLIC CHURCHYARD</name>
		  <description><a href="http://www.cwgc.org/find-a-cemetery/cemetery/74003/KILRANE%20CATHOLIC%20CHURCHYARD">KILRANE CATHOLIC CHURCHYARD at the Commonwealth War Graves Commission</a>
		  </description>
		  <Point>
			<coordinates> -6.35712,52.24224</coordinates>
		  </Point>
		</Placemark><Placemark>
		  <name>KILSCORAN CHURCH OF IRELAND CHURCHYARD</name>
		  <description><a href="http://www.cwgc.org/find-a-cemetery/cemetery/74004/KILSCORAN%20CHURCH%20OF%20IRELAND%20CHURCHYARD">KILSCORAN CHURCH OF IRELAND CHURCHYARD at the Commonwealth War Graves Commission</a>
		  </description>
		  <Point>
			<coordinates> -6.37847,52.24292</coordinates>
		  </Point>
		</Placemark><Placemark>
		  <name>TOBERANIERIN PROTESTANT CEMETERY</name>
		  <description><a href="http://www.cwgc.org/find-a-cemetery/cemetery/74007/TOBERANIERIN%20PROTESTANT%20CEMETERY">TOBERANIERIN PROTESTANT CEMETERY at the Commonwealth War Graves Commission</a>
		  </description>
		  <Point>
			<coordinates> -6.34599,52.62907</coordinates>
		  </Point>
		</Placemark><Placemark>
		  <name>WEXFORD (ST. IBAR'S) CEMETERY, CROSSTOWN</name>
		  <description><a href="http://www.cwgc.org/find-a-cemetery/cemetery/74008/WEXFORD%20%28ST.%20IBAR%27S%29%20CEMETERY%2C%20CROSSTOWN">WEXFORD (ST. IBAR'S) CEMETERY, CROSSTOWN at the Commonwealth War Graves Commission</a>
		  </description>
		  <Point>
			<coordinates> -6.46365,52.35227</coordinates>
		  </Point>
		</Placemark><Placemark>
		  <name>ARKLOW CEMETERY</name>
		  <description><a href="http://www.cwgc.org/find-a-cemetery/cemetery/74009/ARKLOW%20CEMETERY">ARKLOW CEMETERY at the Commonwealth War Graves Commission</a>
		  </description>
		  <Point>
			<coordinates> -6.17423,52.79195</coordinates>
		  </Point>
		</Placemark><Placemark>
		  <name>BLESSINGTON (ST. MARY) CHURCH OF IRELAND CHURCHYARD</name>
		  <description><a href="http://www.cwgc.org/find-a-cemetery/cemetery/74010/BLESSINGTON%20%28ST.%20MARY%29%20CHURCH%20OF%20IRELAND%20CHURCHYARD">BLESSINGTON (ST. MARY) CHURCH OF IRELAND CHURCHYARD at the Commonwealth War Graves Commission</a>
		  </description>
		  <Point>
			<coordinates> -6.53231,53.1709</coordinates>
		  </Point>
		</Placemark><Placemark>
		  <name>CURTLESTOWN CATHOLIC CHURCHYARD</name>
		  <description><a href="http://www.cwgc.org/find-a-cemetery/cemetery/74011/CURTLESTOWN%20CATHOLIC%20CHURCHYARD">CURTLESTOWN CATHOLIC CHURCHYARD at the Commonwealth War Graves Commission</a>
		  </description>
		  <Point>
			<coordinates> -6.21606,53.18685</coordinates>
		  </Point>
		</Placemark><Placemark>
		  <name>DELGANY (CHRIST CHURCH) CHURCH OF IRELAND CHURCHYARD</name>
		  <description><a href="http://www.cwgc.org/find-a-cemetery/cemetery/74012/DELGANY%20%28CHRIST%20CHURCH%29%20CHURCH%20OF%20IRELAND%20CHURCHYARD">DELGANY (CHRIST CHURCH) CHURCH OF IRELAND CHURCHYARD at the Commonwealth War Graves Commission</a>
		  </description>
		  <Point>
			<coordinates> -6.08897,53.13258</coordinates>
		  </Point>
		</Placemark><Placemark>
		  <name>DUNLAVIN (ST. NICHOLAS) CHURCHYARD</name>
		  <description><a href="http://www.cwgc.org/find-a-cemetery/cemetery/74013/DUNLAVIN%20%28ST.%20NICHOLAS%29%20CHURCHYARD">DUNLAVIN (ST. NICHOLAS) CHURCHYARD at the Commonwealth War Graves Commission</a>
		  </description>
		  <Point>
			<coordinates> -6.70265,53.05782</coordinates>
		  </Point>
		</Placemark><Placemark>
		  <name>GLENEALY CHURCH OF IRELAND CHURCHYARD</name>
		  <description><a href="http://www.cwgc.org/find-a-cemetery/cemetery/74014/GLENEALY%20CHURCH%20OF%20IRELAND%20CHURCHYARD">GLENEALY CHURCH OF IRELAND CHURCHYARD at the Commonwealth War Graves Commission</a>
		  </description>
		  <Point>
			<coordinates> -6.14484,52.96785</coordinates>
		  </Point>
		</Placemark><Placemark>
		  <name>GREYSTONES (REDFORD) CEMETERY</name>
		  <description><a href="http://www.cwgc.org/find-a-cemetery/cemetery/74015/GREYSTONES%20%28REDFORD%29%20CEMETERY">GREYSTONES (REDFORD) CEMETERY at the Commonwealth War Graves Commission</a>
		  </description>
		  <Point>
			<coordinates> -6.08209,53.15409</coordinates>
		  </Point>
		</Placemark><Placemark>
		  <name>KILCOMMON CEMETERY</name>
		  <description><a href="http://www.cwgc.org/find-a-cemetery/cemetery/74017/KILCOMMON%20CEMETERY">KILCOMMON CEMETERY at the Commonwealth War Graves Commission</a>
		  </description>
		  <Point>
			<coordinates> -6.44486,52.80136</coordinates>
		  </Point>
		</Placemark><Placemark>
		  <name>KILCOMMON CHURCH OF IRELAND CHURCHYARD</name>
		  <description><a href="http://www.cwgc.org/find-a-cemetery/cemetery/74018/KILCOMMON%20CHURCH%20OF%20IRELAND%20CHURCHYARD">KILCOMMON CHURCH OF IRELAND CHURCHYARD at the Commonwealth War Graves Commission</a>
		  </description>
		  <Point>
			<coordinates> -6.4583,52.79327</coordinates>
		  </Point>
		</Placemark><Placemark>
		  <name>KILLISKEY CHURCH OF IRELAND CHURCHYARD</name>
		  <description><a href="http://www.cwgc.org/find-a-cemetery/cemetery/74019/KILLISKEY%20CHURCH%20OF%20IRELAND%20CHURCHYARD">KILLISKEY CHURCH OF IRELAND CHURCHYARD at the Commonwealth War Graves Commission</a>
		  </description>
		  <Point>
			<coordinates> -6.1252,53.01692</coordinates>
		  </Point>
		</Placemark><Placemark>
		  <name>POWERSCOURT (ST. PATRICK) CHURCH OF IRELAND CHURCHYARD</name>
		  <description><a href="http://www.cwgc.org/find-a-cemetery/cemetery/74020/POWERSCOURT%20%28ST.%20PATRICK%29%20CHURCH%20OF%20IRELAND%20CHURCHYARD">POWERSCOURT (ST. PATRICK) CHURCH OF IRELAND CHURCHYARD at the Commonwealth War Graves Commission</a>
		  </description>
		  <Point>
			<coordinates> -6.16941,53.18967</coordinates>
		  </Point>
		</Placemark><Placemark>
		  <name>RATHDRUM (ST. SAVIOUR) CHURCH OF IRELAND CHURCHYARD</name>
		  <description><a href="http://www.cwgc.org/find-a-cemetery/cemetery/74021/RATHDRUM%20%28ST.%20SAVIOUR%29%20CHURCH%20OF%20IRELAND%20CHURCHYARD">RATHDRUM (ST. SAVIOUR) CHURCH OF IRELAND CHURCHYARD at the Commonwealth War Graves Commission</a>
		  </description>
		  <Point>
			<coordinates> -6.23164,52.93044</coordinates>
		  </Point>
		</Placemark><Placemark>
		  <name>RATHNEW CEMETERY</name>
		  <description><a href="http://www.cwgc.org/find-a-cemetery/cemetery/74022/RATHNEW%20CEMETERY">RATHNEW CEMETERY at the Commonwealth War Graves Commission</a>
		  </description>
		  <Point>
			<coordinates> -6.07505,52.99262</coordinates>
		  </Point>
		</Placemark><Placemark>
		  <name>TOMACORK CEMETERY</name>
		  <description><a href="http://www.cwgc.org/find-a-cemetery/cemetery/74023/TOMACORK%20CEMETERY">TOMACORK CEMETERY at the Commonwealth War Graves Commission</a>
		  </description>
		  <Point>
			<coordinates> -6.51497,52.72751</coordinates>
		  </Point>
		</Placemark><Placemark>
		  <name>CHAPELIZOD (ST. LAWRENCE) CHURCH OF IRELAND CHURCHYARD</name>
		  <description><a href="http://www.cwgc.org/find-a-cemetery/cemetery/91200/CHAPELIZOD%20%28ST.%20LAWRENCE%29%20CHURCH%20OF%20IRELAND%20CHURCHYARD">CHAPELIZOD (ST. LAWRENCE) CHURCH OF IRELAND CHURCHYARD at the Commonwealth War Graves Commission</a>
		  </description>
		  <Point>
			<coordinates> -6.34491,53.34993</coordinates>
		  </Point>
		</Placemark><Placemark>
		  <name>CLONDALKIN (ST. JOHN) CHURCH OF IRELAND CHURCHYARD</name>
		  <description><a href="http://www.cwgc.org/find-a-cemetery/cemetery/91201/CLONDALKIN%20%28ST.%20JOHN%29%20CHURCH%20OF%20IRELAND%20CHURCHYARD">CLONDALKIN (ST. JOHN) CHURCH OF IRELAND CHURCHYARD at the Commonwealth War Graves Commission</a>
		  </description>
		  <Point>
			<coordinates> -6.39525,53.32229</coordinates>
		  </Point>
		</Placemark><Placemark>
		  <name>ST. JOHN THE BAPTIST CEMETERY, CLONTARF</name>
		  <description><a href="http://www.cwgc.org/find-a-cemetery/cemetery/91202/ST.%20JOHN%20THE%20BAPTIST%20CEMETERY%2C%20CLONTARF">ST. JOHN THE BAPTIST CEMETERY, CLONTARF at the Commonwealth War Graves Commission</a>
		  </description>
		  <Point>
			<coordinates> -6.20532,53.3649</coordinates>
		  </Point>
		</Placemark><Placemark>
		  <name>DEAN'S GRANGE CEMETERY</name>
		  <description><a href="http://www.cwgc.org/find-a-cemetery/cemetery/91203/DEAN%27S%20GRANGE%20CEMETERY">DEAN'S GRANGE CEMETERY at the Commonwealth War Graves Commission</a>
		  </description>
		  <Point>
			<coordinates> -6.16647,53.28374</coordinates>
		  </Point>
		</Placemark><Placemark>
		  <name>DRUMCONDRA (ST. JOHN THE BAPTIST) CHURCHYARD</name>
		  <description><a href="http://www.cwgc.org/find-a-cemetery/cemetery/91204/DRUMCONDRA%20%28ST.%20JOHN%20THE%20BAPTIST%29%20CHURCHYARD">DRUMCONDRA (ST. JOHN THE BAPTIST) CHURCHYARD at the Commonwealth War Graves Commission</a>
		  </description>
		  <Point>
			<coordinates> -6.25046,53.37067</coordinates>
		  </Point>
		</Placemark><Placemark>
		  <name>GLASNEVIN (OR PROSPECT) CEMETERY</name>
		  <description><a href="http://www.cwgc.org/find-a-cemetery/cemetery/91205/GLASNEVIN%20%28OR%20PROSPECT%29%20CEMETERY">GLASNEVIN (OR PROSPECT) CEMETERY at the Commonwealth War Graves Commission</a>
		  </description>
		  <Point>
			<coordinates> -6.27763,53.36978</coordinates>
		  </Point>
		</Placemark><Placemark>
		  <name>GLASNEVIN (ST. MOBHIS) CHURCH OF IRELAND CHURCHYARD</name>
		  <description><a href="http://www.cwgc.org/find-a-cemetery/cemetery/91206/GLASNEVIN%20%28ST.%20MOBHIS%29%20CHURCH%20OF%20IRELAND%20CHURCHYARD">GLASNEVIN (ST. MOBHIS) CHURCH OF IRELAND CHURCHYARD at the Commonwealth War Graves Commission</a>
		  </description>
		  <Point>
			<coordinates> -6.26821,53.37666</coordinates>
		  </Point>
		</Placemark><Placemark>
		  <name>GRANGEGORMAN MILITARY CEMETERY</name>
		  <description><a href="http://www.cwgc.org/find-a-cemetery/cemetery/91207/GRANGEGORMAN%20MILITARY%20CEMETERY">GRANGEGORMAN MILITARY CEMETERY at the Commonwealth War Graves Commission</a>
		  </description>
		  <Point>
			<coordinates> -6.30605,53.3594</coordinates>
		  </Point>
		</Placemark><Placemark>
		  <name>HIBERNIAN MILITARY SCHOOL CHURCH OF IRELAND CHURCHYARD</name>
		  <description><a href="http://www.cwgc.org/find-a-cemetery/cemetery/91208/HIBERNIAN%20MILITARY%20SCHOOL%20CHURCH%20OF%20IRELAND%20CHURCHYARD">HIBERNIAN MILITARY SCHOOL CHURCH OF IRELAND CHURCHYARD at the Commonwealth War Graves Commission</a>
		  </description>
		  <Point>
			<coordinates> -6.33611,53.35173</coordinates>
		  </Point>
		</Placemark><Placemark>
		  <name>KILBARRACK CEMETERY</name>
		  <description><a href="http://www.cwgc.org/find-a-cemetery/cemetery/91209/KILBARRACK%20CEMETERY">KILBARRACK CEMETERY at the Commonwealth War Graves Commission</a>
		  </description>
		  <Point>
			<coordinates> -6.1334,53.38707</coordinates>
		  </Point>
		</Placemark><Placemark>
		  <name>KILGOBBIN BURIAL GROUND</name>
		  <description><a href="http://www.cwgc.org/find-a-cemetery/cemetery/91210/KILGOBBIN%20BURIAL%20GROUND">KILGOBBIN BURIAL GROUND at the Commonwealth War Graves Commission</a>
		  </description>
		  <Point>
			<coordinates> -6.21714,53.25649</coordinates>
		  </Point>
		</Placemark><Placemark>
		  <name>LITTLE BRAY (ST. PETER'S) CATHOLIC CEMETERY</name>
		  <description><a href="http://www.cwgc.org/find-a-cemetery/cemetery/91211/LITTLE%20BRAY%20%28ST.%20PETER%27S%29%20CATHOLIC%20CEMETERY">LITTLE BRAY (ST. PETER'S) CATHOLIC CEMETERY at the Commonwealth War Graves Commission</a>
		  </description>
		  <Point>
			<coordinates> -6.11691,53.20913</coordinates>
		  </Point>
		</Placemark><Placemark>
		  <name>LUCAN NEW CEMETERY</name>
		  <description><a href="http://www.cwgc.org/find-a-cemetery/cemetery/91212/LUCAN%20NEW%20CEMETERY">LUCAN NEW CEMETERY at the Commonwealth War Graves Commission</a>
		  </description>
		  <Point>
			<coordinates> -6.44336,53.35337</coordinates>
		  </Point>
		</Placemark><Placemark>
		  <name>MALAHIDE (ST. ANDREW) CHURCH OF IRELAND CHURCHYARD</name>
		  <description><a href="http://www.cwgc.org/find-a-cemetery/cemetery/91213/MALAHIDE%20%28ST.%20ANDREW%29%20CHURCH%20OF%20IRELAND%20CHURCHYARD">MALAHIDE (ST. ANDREW) CHURCH OF IRELAND CHURCHYARD at the Commonwealth War Graves Commission</a>
		  </description>
		  <Point>
			<coordinates> -6.1532,53.44828</coordinates>
		  </Point>
		</Placemark><Placemark>
		  <name>MOUNT JEROME CEMETERY</name>
		  <description><a href="http://www.cwgc.org/find-a-cemetery/cemetery/91214/MOUNT%20JEROME%20CEMETERY">MOUNT JEROME CEMETERY at the Commonwealth War Graves Commission</a>
		  </description>
		  <Point>
			<coordinates> -6.28133,53.32417</coordinates>
		  </Point>
		</Placemark><Placemark>
		  <name>ROYAL HOSPITAL CEMETERY, KILMAINHAM</name>
		  <description><a href="http://www.cwgc.org/find-a-cemetery/cemetery/91215/ROYAL%20HOSPITAL%20CEMETERY%2C%20KILMAINHAM">ROYAL HOSPITAL CEMETERY, KILMAINHAM at the Commonwealth War Graves Commission</a>
		  </description>
		  <Point>
			<coordinates> -6.3072,53.34217</coordinates>
		  </Point>
		</Placemark><Placemark>
		  <name>TALLAGHT (ST. MAELRUAN) CHURCH OF IRELAND CHURCHYARD</name>
		  <description><a href="http://www.cwgc.org/find-a-cemetery/cemetery/91217/TALLAGHT%20%28ST.%20MAELRUAN%29%20CHURCH%20OF%20IRELAND%20CHURCHYARD">TALLAGHT (ST. MAELRUAN) CHURCH OF IRELAND CHURCHYARD at the Commonwealth War Graves Commission</a>
		  </description>
		  <Point>
			<coordinates> -6.36428,53.28921</coordinates>
		  </Point>
		</Placemark><Placemark>
		  <name>CLONMEL FRIENDS' BURIAL GROUND</name>
		  <description><a href="http://www.cwgc.org/find-a-cemetery/cemetery/123456/CLONMEL%20FRIENDS%27%20BURIAL%20GROUND">CLONMEL FRIENDS' BURIAL GROUND at the Commonwealth War Graves Commission</a>
		  </description>
		  <Point>
			<coordinates> -7.70742,52.35346</coordinates>
		  </Point>
		</Placemark><Placemark>
		  <name>EASTERN HEALTH BOARD OFFICES GROUNDS OF KILMAINHAM</name>
		  <description><a href="http://www.cwgc.org/find-a-cemetery/cemetery/2000155/EASTERN%20HEALTH%20BOARD%20OFFICES%20GROUNDS%20OF%20KILMAINHAM">EASTERN HEALTH BOARD OFFICES GROUNDS OF KILMAINHAM at the Commonwealth War Graves Commission</a>
		  </description>
		  <Point>
			<coordinates> -6.29353,53.34481</coordinates>
		  </Point>
		</Placemark><Placemark>
		  <name>DUBLIN FRIENDS' BURIAL GROUND</name>
		  <description><a href="http://www.cwgc.org/find-a-cemetery/cemetery/2000156/DUBLIN%20FRIENDS%27%20BURIAL%20GROUND">DUBLIN FRIENDS' BURIAL GROUND at the Commonwealth War Graves Commission</a>
		  </description>
		  <Point>
			<coordinates> -6.17033,53.29523</coordinates>
		  </Point>
		</Placemark><Placemark>
		  <name>KILLEEK OLD GRAVEYARD</name>
		  <description><a href="http://www.cwgc.org/find-a-cemetery/cemetery/2000157/KILLEEK%20OLD%20GRAVEYARD">KILLEEK OLD GRAVEYARD at the Commonwealth War Graves Commission</a>
		  </description>
		  <Point>
			<coordinates> -6.27875,53.45324</coordinates>
		  </Point>
		</Placemark><Placemark>
		  <name>KILL OF THE GRANGE OLD GRAVEYARD</name>
		  <description><a href="http://www.cwgc.org/find-a-cemetery/cemetery/2000158/KILL%20OF%20THE%20GRANGE%20OLD%20GRAVEYARD">KILL OF THE GRANGE OLD GRAVEYARD at the Commonwealth War Graves Commission</a>
		  </description>
		  <Point>
			<coordinates> -6.1614,53.28144</coordinates>
		  </Point>
		</Placemark><Placemark>
		  <name>BALROTHERY (ST. PETER) CHURCH OF IRELAND CHURCHYARD</name>
		  <description><a href="http://www.cwgc.org/find-a-cemetery/cemetery/2000199/BALROTHERY%20%28ST.%20PETER%29%20CHURCH%20OF%20IRELAND%20CHURCHYARD">BALROTHERY (ST. PETER) CHURCH OF IRELAND CHURCHYARD at the Commonwealth War Graves Commission</a>
		  </description>
		  <Point>
			<coordinates> -6.18918,53.58665</coordinates>
		  </Point>
		</Placemark><Placemark>
		  <name>BODENSTOWN OLD GRAVEYARD</name>
		  <description><a href="http://www.cwgc.org/find-a-cemetery/cemetery/2000586/BODENSTOWN%20OLD%20GRAVEYARD">BODENSTOWN OLD GRAVEYARD at the Commonwealth War Graves Commission</a>
		  </description>
		  <Point>
			<coordinates> -6.66513,53.26638</coordinates>
		  </Point>
		</Placemark><Placemark>
		  <name>DUNFIERTH GRAVEYARD</name>
		  <description><a href="http://www.cwgc.org/find-a-cemetery/cemetery/2000593/DUNFIERTH%20GRAVEYARD">DUNFIERTH GRAVEYARD at the Commonwealth War Graves Commission</a>
		  </description>
		  <Point>
			<coordinates> -6.83447,53.38965</coordinates>
		  </Point>
		</Placemark><Placemark>
		  <name>GERALDINE OLD GRAVEYARD</name>
		  <description><a href="http://www.cwgc.org/find-a-cemetery/cemetery/2000594/GERALDINE%20OLD%20GRAVEYARD">GERALDINE OLD GRAVEYARD at the Commonwealth War Graves Commission</a>
		  </description>
		  <Point>
			<coordinates> -7.02496,53.03455</coordinates>
		  </Point>
		</Placemark><Placemark>
		  <name>GRANGE WILLIAM GRAVEYARD</name>
		  <description><a href="http://www.cwgc.org/find-a-cemetery/cemetery/2000595/GRANGE%20WILLIAM%20GRAVEYARD">GRANGE WILLIAM GRAVEYARD at the Commonwealth War Graves Commission</a>
		  </description>
		  <Point>
			<coordinates> -6.55572,53.37714</coordinates>
		  </Point>
		</Placemark><Placemark>
		  <name>MONASTEREVIN OLD CATHOLIC GRAVEYARD</name>
		  <description><a href="http://www.cwgc.org/find-a-cemetery/cemetery/2000596/MONASTEREVIN%20OLD%20CATHOLIC%20GRAVEYARD">MONASTEREVIN OLD CATHOLIC GRAVEYARD at the Commonwealth War Graves Commission</a>
		  </description>
		  <Point>
			<coordinates> -7.0668,53.14716</coordinates>
		  </Point>
		</Placemark><Placemark>
		  <name>MAYNOOTH (LADY'S CHAPEL) GRAVEYARD</name>
		  <description><a href="http://www.cwgc.org/find-a-cemetery/cemetery/2000597/MAYNOOTH%20%28LADY%27S%20CHAPEL%29%20GRAVEYARD">MAYNOOTH (LADY'S CHAPEL) GRAVEYARD at the Commonwealth War Graves Commission</a>
		  </description>
		  <Point>
			<coordinates> -6.63911,53.3551</coordinates>
		  </Point>
		</Placemark><Placemark>
		  <name>NICHOLASTOWN BURIAL GROUND</name>
		  <description><a href="http://www.cwgc.org/find-a-cemetery/cemetery/2000598/NICHOLASTOWN%20BURIAL%20GROUND">NICHOLASTOWN BURIAL GROUND at the Commonwealth War Graves Commission</a>
		  </description>
		  <Point>
			<coordinates> -6.916,52.97266</coordinates>
		  </Point>
		</Placemark><Placemark>
		  <name>KILKENNY (ST. MAUL'S) GRAVEYARD</name>
		  <description><a href="http://www.cwgc.org/find-a-cemetery/cemetery/2000603/KILKENNY%20%28ST.%20MAUL%27S%29%20GRAVEYARD">KILKENNY (ST. MAUL'S) GRAVEYARD at the Commonwealth War Graves Commission</a>
		  </description>
		  <Point>
			<coordinates> -7.25199,52.65753</coordinates>
		  </Point>
		</Placemark><Placemark>
		  <name>URLINGFORD OLD GRAVEYARD</name>
		  <description><a href="http://www.cwgc.org/find-a-cemetery/cemetery/2000608/URLINGFORD%20OLD%20GRAVEYARD">URLINGFORD OLD GRAVEYARD at the Commonwealth War Graves Commission</a>
		  </description>
		  <Point>
			<coordinates> -7.58595,52.72472</coordinates>
		  </Point>
		</Placemark><Placemark>
		  <name>ROSSINVER OLD GRAVEYARD</name>
		  <description><a href="http://www.cwgc.org/find-a-cemetery/cemetery/2000609/ROSSINVER%20OLD%20GRAVEYARD">ROSSINVER OLD GRAVEYARD at the Commonwealth War Graves Commission</a>
		  </description>
		  <Point>
			<coordinates> -8.11801,54.39602</coordinates>
		  </Point>
		</Placemark><Placemark>
		  <name>SLEATY OLD BURIAL GROUND</name>
		  <description><a href="http://www.cwgc.org/find-a-cemetery/cemetery/2000611/SLEATY%20OLD%20BURIAL%20GROUND">SLEATY OLD BURIAL GROUND at the Commonwealth War Graves Commission</a>
		  </description>
		  <Point>
			<coordinates> -6.94263,52.85795</coordinates>
		  </Point>
		</Placemark><Placemark>
		  <name>ABBEYSHRULE GRAVEYARD</name>
		  <description><a href="http://www.cwgc.org/find-a-cemetery/cemetery/2000612/ABBEYSHRULE%20GRAVEYARD">ABBEYSHRULE GRAVEYARD at the Commonwealth War Graves Commission</a>
		  </description>
		  <Point>
			<coordinates> -7.65693,53.57964</coordinates>
		  </Point>
		</Placemark><Placemark>
		  <name>KILCOMMOCK OLD GRAVEYARD</name>
		  <description><a href="http://www.cwgc.org/find-a-cemetery/cemetery/2000614/KILCOMMOCK%20OLD%20GRAVEYARD">KILCOMMOCK OLD GRAVEYARD at the Commonwealth War Graves Commission</a>
		  </description>
		  <Point>
			<coordinates> -7.81271,53.60196</coordinates>
		  </Point>
		</Placemark><Placemark>
		  <name>NEWTOWN FORBES OLD GRAVEYARD</name>
		  <description><a href="http://www.cwgc.org/find-a-cemetery/cemetery/2000615/NEWTOWN%20FORBES%20OLD%20GRAVEYARD">NEWTOWN FORBES OLD GRAVEYARD at the Commonwealth War Graves Commission</a>
		  </description>
		  <Point>
			<coordinates> -7.82578,53.77049</coordinates>
		  </Point>
		</Placemark><Placemark>
		  <name>CLOGHER OLD GRAVEYARD</name>
		  <description><a href="http://www.cwgc.org/find-a-cemetery/cemetery/2000616/CLOGHER%20OLD%20GRAVEYARD">CLOGHER OLD GRAVEYARD at the Commonwealth War Graves Commission</a>
		  </description>
		  <Point>
			<coordinates> -6.23742,53.79301</coordinates>
		  </Point>
		</Placemark><Placemark>
		  <name>DROMIN OLD GRAVEYARD</name>
		  <description><a href="http://www.cwgc.org/find-a-cemetery/cemetery/2000617/DROMIN%20OLD%20GRAVEYARD">DROMIN OLD GRAVEYARD at the Commonwealth War Graves Commission</a>
		  </description>
		  <Point>
			<coordinates> -6.43578,53.84418</coordinates>
		  </Point>
		</Placemark><Placemark>
		  <name>KILSARAN OLD GRAVEYARD</name>
		  <description><a href="http://www.cwgc.org/find-a-cemetery/cemetery/2000618/KILSARAN%20OLD%20GRAVEYARD">KILSARAN OLD GRAVEYARD at the Commonwealth War Graves Commission</a>
		  </description>
		  <Point>
			<coordinates> -6.38853,53.88487</coordinates>
		  </Point>
		</Placemark><Placemark>
		  <name>LOUTH OLD GRAVEYARD</name>
		  <description><a href="http://www.cwgc.org/find-a-cemetery/cemetery/2000620/LOUTH%20OLD%20GRAVEYARD">LOUTH OLD GRAVEYARD at the Commonwealth War Graves Commission</a>
		  </description>
		  <Point>
			<coordinates> -6.54419,53.95293</coordinates>
		  </Point>
		</Placemark><Placemark>
		  <name>SHANLIS OLD GRAVEYARD</name>
		  <description><a href="http://www.cwgc.org/find-a-cemetery/cemetery/2000621/SHANLIS%20OLD%20GRAVEYARD">SHANLIS OLD GRAVEYARD at the Commonwealth War Graves Commission</a>
		  </description>
		  <Point>
			<coordinates> -6.57279,53.83899</coordinates>
		  </Point>
		</Placemark><Placemark>
		  <name>STABANNON CEMETERY</name>
		  <description><a href="http://www.cwgc.org/find-a-cemetery/cemetery/2000622/STABANNON%20CEMETERY">STABANNON CEMETERY at the Commonwealth War Graves Commission</a>
		  </description>
		  <Point>
			<coordinates> -6.44914,53.86635</coordinates>
		  </Point>
		</Placemark><Placemark>
		  <name>ISLANDEADY GRAVEYARD</name>
		  <description><a href="http://www.cwgc.org/find-a-cemetery/cemetery/2000627/ISLANDEADY%20GRAVEYARD">ISLANDEADY GRAVEYARD at the Commonwealth War Graves Commission</a>
		  </description>
		  <Point>
			<coordinates> -9.4,53.81667</coordinates>
		  </Point>
		</Placemark><Placemark>
		  <name>ARDCATH GRAVEYARD</name>
		  <description><a href="http://www.cwgc.org/find-a-cemetery/cemetery/2000630/ARDCATH%20GRAVEYARD">ARDCATH GRAVEYARD at the Commonwealth War Graves Commission</a>
		  </description>
		  <Point>
			<coordinates> -6.39298,53.60747</coordinates>
		  </Point>
		</Placemark><Placemark>
		  <name>ATHLUMNEY OLD GRAVEYARD</name>
		  <description><a href="http://www.cwgc.org/find-a-cemetery/cemetery/2000631/ATHLUMNEY%20OLD%20GRAVEYARD">ATHLUMNEY OLD GRAVEYARD at the Commonwealth War Graves Commission</a>
		  </description>
		  <Point>
			<coordinates> -6.67634,53.65048</coordinates>
		  </Point>
		</Placemark><Placemark>
		  <name>BALFEIGHAN CEMETERY</name>
		  <description><a href="http://www.cwgc.org/find-a-cemetery/cemetery/2000632/BALFEIGHAN%20CEMETERY">BALFEIGHAN CEMETERY at the Commonwealth War Graves Commission</a>
		  </description>
		  <Point>
			<coordinates> -6.67714,53.41291</coordinates>
		  </Point>
		</Placemark><Placemark>
		  <name>DANESTOWN GRAVEYARD</name>
		  <description><a href="http://www.cwgc.org/find-a-cemetery/cemetery/2000633/DANESTOWN%20GRAVEYARD">DANESTOWN GRAVEYARD at the Commonwealth War Graves Commission</a>
		  </description>
		  <Point>
			<coordinates> -6.524,53.62352</coordinates>
		  </Point>
		</Placemark><Placemark>
		  <name>DONAGHMORE OLD GRAVEYARD</name>
		  <description><a href="http://www.cwgc.org/find-a-cemetery/cemetery/2000634/DONAGHMORE%20OLD%20GRAVEYARD">DONAGHMORE OLD GRAVEYARD at the Commonwealth War Graves Commission</a>
		  </description>
		  <Point>
			<coordinates> -6.66211,53.67074</coordinates>
		  </Point>
		</Placemark><Placemark>
		  <name>GRANGEGEETH OLD GRAVEYARD</name>
		  <description><a href="http://www.cwgc.org/find-a-cemetery/cemetery/2000635/GRANGEGEETH%20OLD%20GRAVEYARD">GRANGEGEETH OLD GRAVEYARD at the Commonwealth War Graves Commission</a>
		  </description>
		  <Point>
			<coordinates> -6.55562,53.74888</coordinates>
		  </Point>
		</Placemark><Placemark>
		  <name>HILL OF SLANE CEMETERY</name>
		  <description><a href="http://www.cwgc.org/find-a-cemetery/cemetery/2000636/HILL%20OF%20SLANE%20CEMETERY">HILL OF SLANE CEMETERY at the Commonwealth War Graves Commission</a>
		  </description>
		  <Point>
			<coordinates> -6.54261,53.71722</coordinates>
		  </Point>
		</Placemark><Placemark>
		  <name>KELLS (ST. JOHN'S) OLD BURIAL GROUND</name>
		  <description><a href="http://www.cwgc.org/find-a-cemetery/cemetery/2000637/KELLS%20%28ST.%20JOHN%27S%29%20OLD%20BURIAL%20GROUND">KELLS (ST. JOHN'S) OLD BURIAL GROUND at the Commonwealth War Graves Commission</a>
		  </description>
		  <Point>
			<coordinates> -6.87223,53.7267</coordinates>
		  </Point>
		</Placemark><Placemark>
		  <name>OLD KILCARNE CEMETERY</name>
		  <description><a href="http://www.cwgc.org/find-a-cemetery/cemetery/2000638/OLD%20KILCARNE%20CEMETERY">OLD KILCARNE CEMETERY at the Commonwealth War Graves Commission</a>
		  </description>
		  <Point>
			<coordinates> -6.64176,53.62964</coordinates>
		  </Point>
		</Placemark><Placemark>
		  <name>KILMAINHAMWOOD OLD GRAVEYARD</name>
		  <description><a href="http://www.cwgc.org/find-a-cemetery/cemetery/2000640/KILMAINHAMWOOD%20OLD%20GRAVEYARD">KILMAINHAMWOOD OLD GRAVEYARD at the Commonwealth War Graves Commission</a>
		  </description>
		  <Point>
			<coordinates> -6.81048,53.85159</coordinates>
		  </Point>
		</Placemark><Placemark>
		  <name>KNOCKCOMMON CEMETERY</name>
		  <description><a href="http://www.cwgc.org/find-a-cemetery/cemetery/2000641/KNOCKCOMMON%20CEMETERY">KNOCKCOMMON CEMETERY at the Commonwealth War Graves Commission</a>
		  </description>
		  <Point>
			<coordinates> -6.50543,53.66695</coordinates>
		  </Point>
		</Placemark><Placemark>
		  <name>MOORECHURCH GRAVEYARD</name>
		  <description><a href="http://www.cwgc.org/find-a-cemetery/cemetery/2000643/MOORECHURCH%20GRAVEYARD">MOORECHURCH GRAVEYARD at the Commonwealth War Graves Commission</a>
		  </description>
		  <Point>
			<coordinates> -6.27892,53.66074</coordinates>
		  </Point>
		</Placemark><Placemark>
		  <name>MOYMET OLD GRAVEYARD</name>
		  <description><a href="http://www.cwgc.org/find-a-cemetery/cemetery/2000646/MOYMET%20OLD%20GRAVEYARD">MOYMET OLD GRAVEYARD at the Commonwealth War Graves Commission</a>
		  </description>
		  <Point>
			<coordinates> -6.82635,53.58756</coordinates>
		  </Point>
		</Placemark><Placemark>
		  <name>TELTOWN OLD GRAVEYARD</name>
		  <description><a href="http://www.cwgc.org/find-a-cemetery/cemetery/2000650/TELTOWN%20OLD%20GRAVEYARD">TELTOWN OLD GRAVEYARD at the Commonwealth War Graves Commission</a>
		  </description>
		  <Point>
			<coordinates> -6.78153,53.69984</coordinates>
		  </Point>
		</Placemark><Placemark>
		  <name>CLONES (ST. TIGHERNACH) CHURCH OF IRELAND CHURCHYARD</name>
		  <description><a href="http://www.cwgc.org/find-a-cemetery/cemetery/2000654/CLONES%20%28ST.%20TIGHERNACH%29%20CHURCH%20OF%20IRELAND%20CHURCHYARD">CLONES (ST. TIGHERNACH) CHURCH OF IRELAND CHURCHYARD at the Commonwealth War Graves Commission</a>
		  </description>
		  <Point>
			<coordinates> -7.23296,54.17946</coordinates>
		  </Point>
		</Placemark><Placemark>
		  <name>BALLINTEMPLE OLD GRAVEYARD</name>
		  <description><a href="http://www.cwgc.org/find-a-cemetery/cemetery/2000656/BALLINTEMPLE%20OLD%20GRAVEYARD">BALLINTEMPLE OLD GRAVEYARD at the Commonwealth War Graves Commission</a>
		  </description>
		  <Point>
			<coordinates> -7.99686,52.91595</coordinates>
		  </Point>
		</Placemark><Placemark>
		  <name>BANAGHER OLD GRAVEYARD</name>
		  <description><a href="http://www.cwgc.org/find-a-cemetery/cemetery/2000657/BANAGHER%20OLD%20GRAVEYARD">BANAGHER OLD GRAVEYARD at the Commonwealth War Graves Commission</a>
		  </description>
		  <Point>
			<coordinates> -7.98866,53.18909</coordinates>
		  </Point>
		</Placemark><Placemark>
		  <name>CLARA MONASTERY OLD GRAVEYARD</name>
		  <description><a href="http://www.cwgc.org/find-a-cemetery/cemetery/2000662/CLARA%20MONASTERY%20OLD%20GRAVEYARD">CLARA MONASTERY OLD GRAVEYARD at the Commonwealth War Graves Commission</a>
		  </description>
		  <Point>
			<coordinates> -7.58357,53.34508</coordinates>
		  </Point>
		</Placemark><Placemark>
		  <name>AUGHRIM OLD GRAVEYARD</name>
		  <description><a href="http://www.cwgc.org/find-a-cemetery/cemetery/2000668/AUGHRIM%20OLD%20GRAVEYARD">AUGHRIM OLD GRAVEYARD at the Commonwealth War Graves Commission</a>
		  </description>
		  <Point>
			<coordinates> -8.11144,53.8661</coordinates>
		  </Point>
		</Placemark><Placemark>
		  <name>BALLAGHADERREEN GRAVEYARD</name>
		  <description><a href="http://www.cwgc.org/find-a-cemetery/cemetery/2000669/BALLAGHADERREEN%20GRAVEYARD">BALLAGHADERREEN GRAVEYARD at the Commonwealth War Graves Commission</a>
		  </description>
		  <Point>
			<coordinates> -8.56265,53.90768</coordinates>
		  </Point>
		</Placemark><Placemark>
		  <name>CLOONFINLOUGH OLD GRAVEYARD</name>
		  <description><a href="http://www.cwgc.org/find-a-cemetery/cemetery/2000671/CLOONFINLOUGH%20OLD%20GRAVEYARD">CLOONFINLOUGH OLD GRAVEYARD at the Commonwealth War Graves Commission</a>
		  </description>
		  <Point>
			<coordinates> -8.15036,53.75439</coordinates>
		  </Point>
		</Placemark><Placemark>
		  <name>ENNIS (DRUMCLIFF) CEMETERY</name>
		  <description><a href="http://www.cwgc.org/find-a-cemetery/cemetery/2069206/ENNIS%20%28DRUMCLIFF%29%20CEMETERY">ENNIS (DRUMCLIFF) CEMETERY at the Commonwealth War Graves Commission</a>
		  </description>
		  <Point>
			<coordinates> -8.99491,52.86798</coordinates>
		  </Point>
		</Placemark><Placemark>
		  <name>BANDON (ST. PATRICK) CATHOLIC CHURCHYARD</name>
		  <description><a href="http://www.cwgc.org/find-a-cemetery/cemetery/2069213/BANDON%20%28ST.%20PATRICK%29%20CATHOLIC%20CHURCHYARD">BANDON (ST. PATRICK) CATHOLIC CHURCHYARD at the Commonwealth War Graves Commission</a>
		  </description>
		  <Point>
			<coordinates> -8.73728,51.74279</coordinates>
		  </Point>
		</Placemark><Placemark>
		  <name>BANTRY ABBEY CEMETERY</name>
		  <description><a href="http://www.cwgc.org/find-a-cemetery/cemetery/2069214/BANTRY%20ABBEY%20CEMETERY">BANTRY ABBEY CEMETERY at the Commonwealth War Graves Commission</a>
		  </description>
		  <Point>
			<coordinates> -9.47237,51.67684</coordinates>
		  </Point>
		</Placemark><Placemark>
		  <name>CASTLETOWN BEREHAVEN (ST. FINIAN'S) CEMETERY</name>
		  <description><a href="http://www.cwgc.org/find-a-cemetery/cemetery/2069216/CASTLETOWN%20BEREHAVEN%20%28ST.%20FINIAN%27S%29%20CEMETERY">CASTLETOWN BEREHAVEN (ST. FINIAN'S) CEMETERY at the Commonwealth War Graves Commission</a>
		  </description>
		  <Point>
			<coordinates> -9.91699,51.64467</coordinates>
		  </Point>
		</Placemark><Placemark>
		  <name>CORK (ST. FINBARR'S) CEMETERY</name>
		  <description><a href="http://www.cwgc.org/find-a-cemetery/cemetery/2069220/CORK%20%28ST.%20FINBARR%27S%29%20CEMETERY">CORK (ST. FINBARR'S) CEMETERY at the Commonwealth War Graves Commission</a>
		  </description>
		  <Point>
			<coordinates> -8.50193,51.88487</coordinates>
		  </Point>
		</Placemark><Placemark>
		  <name>CORK (ST. JOSEPH'S) CEMETERY</name>
		  <description><a href="http://www.cwgc.org/find-a-cemetery/cemetery/2069221/CORK%20%28ST.%20JOSEPH%27S%29%20CEMETERY">CORK (ST. JOSEPH'S) CEMETERY at the Commonwealth War Graves Commission</a>
		  </description>
		  <Point>
			<coordinates> -8.47129,51.88381</coordinates>
		  </Point>
		</Placemark><Placemark>
		  <name>DOUGLAS (ST. LUKE) CHURCH OF IRELAND CHURCHYARD</name>
		  <description><a href="http://www.cwgc.org/find-a-cemetery/cemetery/2069227/DOUGLAS%20%28ST.%20LUKE%29%20CHURCH%20OF%20IRELAND%20CHURCHYARD">DOUGLAS (ST. LUKE) CHURCH OF IRELAND CHURCHYARD at the Commonwealth War Graves Commission</a>
		  </description>
		  <Point>
			<coordinates> -8.43708,51.87516</coordinates>
		  </Point>
		</Placemark><Placemark>
		  <name>KILCRUMPER CEMETERY</name>
		  <description><a href="http://www.cwgc.org/find-a-cemetery/cemetery/2069231/KILCRUMPER%20CEMETERY">KILCRUMPER CEMETERY at the Commonwealth War Graves Commission</a>
		  </description>
		  <Point>
			<coordinates> -8.27802,52.15872</coordinates>
		  </Point>
		</Placemark><Placemark>
		  <name>KILCULLY CEMETERY</name>
		  <description><a href="http://www.cwgc.org/find-a-cemetery/cemetery/2069232/KILCULLY%20CEMETERY">KILCULLY CEMETERY at the Commonwealth War Graves Commission</a>
		  </description>
		  <Point>
			<coordinates> -8.47492,51.93822</coordinates>
		  </Point>
		</Placemark><Placemark>
		  <name>TIMOLEAGUE CHURCH OF IRELAND CHURCHYARD</name>
		  <description><a href="http://www.cwgc.org/find-a-cemetery/cemetery/2069241/TIMOLEAGUE%20CHURCH%20OF%20IRELAND%20CHURCHYARD">TIMOLEAGUE CHURCH OF IRELAND CHURCHYARD at the Commonwealth War Graves Commission</a>
		  </description>
		  <Point>
			<coordinates> -8.7675,51.64667</coordinates>
		  </Point>
		</Placemark><Placemark>
		  <name>LIMERICK (ST. LAWRENCE'S) CATHOLIC CEMETERY</name>
		  <description><a href="http://www.cwgc.org/find-a-cemetery/cemetery/2069330/LIMERICK%20%28ST.%20LAWRENCE%27S%29%20CATHOLIC%20CEMETERY">LIMERICK (ST. LAWRENCE'S) CATHOLIC CEMETERY at the Commonwealth War Graves Commission</a>
		  </description>
		  <Point>
			<coordinates> -8.59626,52.64473</coordinates>
		  </Point>
		</Placemark><Placemark>
		  <name>LIMERICK (ST. MARY) CATHEDRAL CHURCHYARD</name>
		  <description><a href="http://www.cwgc.org/find-a-cemetery/cemetery/2069331/LIMERICK%20%28ST.%20MARY%29%20CATHEDRAL%20CHURCHYARD">LIMERICK (ST. MARY) CATHEDRAL CHURCHYARD at the Commonwealth War Graves Commission</a>
		  </description>
		  <Point>
			<coordinates> -8.62442,52.66788</coordinates>
		  </Point>
		</Placemark><Placemark>
		  <name>CASHEL (ST. JOHN THE BAPTIST) CATHOLIC CHURCHYARD</name>
		  <description><a href="http://www.cwgc.org/find-a-cemetery/cemetery/2069377/CASHEL%20%28ST.%20JOHN%20THE%20BAPTIST%29%20CATHOLIC%20CHURCHYARD">CASHEL (ST. JOHN THE BAPTIST) CATHOLIC CHURCHYARD at the Commonwealth War Graves Commission</a>
		  </description>
		  <Point>
			<coordinates> -7.88518,52.51635</coordinates>
		  </Point>
		</Placemark><Placemark>
		  <name>CLONMEL (ST. PATRICK'S) CEMETERY</name>
		  <description><a href="http://www.cwgc.org/find-a-cemetery/cemetery/2069378/CLONMEL%20%28ST.%20PATRICK%27S%29%20CEMETERY">CLONMEL (ST. PATRICK'S) CEMETERY at the Commonwealth War Graves Commission</a>
		  </description>
		  <Point>
			<coordinates> -7.6756,52.36</coordinates>
		  </Point>
		</Placemark><Placemark>
		  <name>TIPPERARY (ST. MICHAEL'S) NEW CEMETERY</name>
		  <description><a href="http://www.cwgc.org/find-a-cemetery/cemetery/2069382/TIPPERARY%20%28ST.%20MICHAEL%27S%29%20NEW%20CEMETERY">TIPPERARY (ST. MICHAEL'S) NEW CEMETERY at the Commonwealth War Graves Commission</a>
		  </description>
		  <Point>
			<coordinates> -8.14384,52.47664</coordinates>
		  </Point>
		</Placemark><Placemark>
		  <name>BALLYNACALLY (KILCHREEST) CEMETERY</name>
		  <description><a href="http://www.cwgc.org/find-a-cemetery/cemetery/2076700/BALLYNACALLY%20%28KILCHREEST%29%20CEMETERY">BALLYNACALLY (KILCHREEST) CEMETERY at the Commonwealth War Graves Commission</a>
		  </description>
		  <Point>
			<coordinates> -9.07865,52.7189</coordinates>
		  </Point>
		</Placemark><Placemark>
		  <name>BRIDGETOWN CATHOLIC CHURCHYARD</name>
		  <description><a href="http://www.cwgc.org/find-a-cemetery/cemetery/2076701/BRIDGETOWN%20CATHOLIC%20CHURCHYARD">BRIDGETOWN CATHOLIC CHURCHYARD at the Commonwealth War Graves Commission</a>
		  </description>
		  <Point>
			<coordinates> -8.52641,52.76192</coordinates>
		  </Point>
		</Placemark><Placemark>
		  <name>DOONBEG CATHOLIC CHURCHYARD</name>
		  <description><a href="http://www.cwgc.org/find-a-cemetery/cemetery/2076703/DOONBEG%20CATHOLIC%20CHURCHYARD">DOONBEG CATHOLIC CHURCHYARD at the Commonwealth War Graves Commission</a>
		  </description>
		  <Point>
			<coordinates> -9.52772,52.7306</coordinates>
		  </Point>
		</Placemark><Placemark>
		  <name>ENNIS (CLARE ABBEY) CEMETERY</name>
		  <description><a href="http://www.cwgc.org/find-a-cemetery/cemetery/2076705/ENNIS%20%28CLARE%20ABBEY%29%20CEMETERY">ENNIS (CLARE ABBEY) CEMETERY at the Commonwealth War Graves Commission</a>
		  </description>
		  <Point>
			<coordinates> -8.98162,52.84589</coordinates>
		  </Point>
		</Placemark><Placemark>
		  <name>ENNISTYMON CEMETERY</name>
		  <description><a href="http://www.cwgc.org/find-a-cemetery/cemetery/2076706/ENNISTYMON%20CEMETERY">ENNISTYMON CEMETERY at the Commonwealth War Graves Commission</a>
		  </description>
		  <Point>
			<coordinates> -9.29193,52.93931</coordinates>
		  </Point>
		</Placemark><Placemark>
		  <name>KILRUSH CHURCH OF IRELAND CHURCHYARD</name>
		  <description><a href="http://www.cwgc.org/find-a-cemetery/cemetery/2076708/KILRUSH%20CHURCH%20OF%20IRELAND%20CHURCHYARD">KILRUSH CHURCH OF IRELAND CHURCHYARD at the Commonwealth War Graves Commission</a>
		  </description>
		  <Point>
			<coordinates> -9.47846,52.63763</coordinates>
		  </Point>
		</Placemark><Placemark>
		  <name>KILRUSH (SHANAKYLE) CEMETERY</name>
		  <description><a href="http://www.cwgc.org/find-a-cemetery/cemetery/2076709/KILRUSH%20%28SHANAKYLE%29%20CEMETERY">KILRUSH (SHANAKYLE) CEMETERY at the Commonwealth War Graves Commission</a>
		  </description>
		  <Point>
			<coordinates> -9.50478,52.63512</coordinates>
		  </Point>
		</Placemark><Placemark>
		  <name>QUERRIN (TEMPLE MADE) CEMETERY</name>
		  <description><a href="http://www.cwgc.org/find-a-cemetery/cemetery/2076711/QUERRIN%20%28TEMPLE%20MADE%29%20CEMETERY">QUERRIN (TEMPLE MADE) CEMETERY at the Commonwealth War Graves Commission</a>
		  </description>
		  <Point>
			<coordinates> -9.60597,52.6219</coordinates>
		  </Point>
		</Placemark><Placemark>
		  <name>BALLINCOLLIG MILITARY CEMETERY</name>
		  <description><a href="http://www.cwgc.org/find-a-cemetery/cemetery/2076713/BALLINCOLLIG%20MILITARY%20CEMETERY">BALLINCOLLIG MILITARY CEMETERY at the Commonwealth War Graves Commission</a>
		  </description>
		  <Point>
			<coordinates> -8.58552,51.89125</coordinates>
		  </Point>
		</Placemark><Placemark>
		  <name>BARNAHELY CEMETERY</name>
		  <description><a href="http://www.cwgc.org/find-a-cemetery/cemetery/2076719/BARNAHELY%20CEMETERY">BARNAHELY CEMETERY at the Commonwealth War Graves Commission</a>
		  </description>
		  <Point>
			<coordinates> -8.32877,51.828</coordinates>
		  </Point>
		</Placemark><Placemark>
		  <name>BLACKROCK (ST. MICHAEL) CHURCH OF IRELAND CHURCHYARD</name>
		  <description><a href="http://www.cwgc.org/find-a-cemetery/cemetery/2076720/BLACKROCK%20%28ST.%20MICHAEL%29%20CHURCH%20OF%20IRELAND%20CHURCHYARD">BLACKROCK (ST. MICHAEL) CHURCH OF IRELAND CHURCHYARD at the Commonwealth War Graves Commission</a>
		  </description>
		  <Point>
			<coordinates> -8.42029,51.89529</coordinates>
		  </Point>
		</Placemark><Placemark>
		  <name>BLARNEY CHURCH OF IRELAND CHURCHYARD</name>
		  <description><a href="http://www.cwgc.org/find-a-cemetery/cemetery/2076721/BLARNEY%20CHURCH%20OF%20IRELAND%20CHURCHYARD">BLARNEY CHURCH OF IRELAND CHURCHYARD at the Commonwealth War Graves Commission</a>
		  </description>
		  <Point>
			<coordinates> -8.5683,51.93299</coordinates>
		  </Point>
		</Placemark><Placemark>
		  <name>BUTTEVANT (ST. MARY'S) CATHOLIC CEMETERY</name>
		  <description><a href="http://www.cwgc.org/find-a-cemetery/cemetery/2076722/BUTTEVANT%20%28ST.%20MARY%27S%29%20CATHOLIC%20CEMETERY">BUTTEVANT (ST. MARY'S) CATHOLIC CEMETERY at the Commonwealth War Graves Commission</a>
		  </description>
		  <Point>
			<coordinates> -8.67005,52.23171</coordinates>
		  </Point>
		</Placemark><Placemark>
		  <name>CHARLEVILLE (HOLY CROSS) CEMETERY</name>
		  <description><a href="http://www.cwgc.org/find-a-cemetery/cemetery/2076728/CHARLEVILLE%20%28HOLY%20CROSS%29%20CEMETERY">CHARLEVILLE (HOLY CROSS) CEMETERY at the Commonwealth War Graves Commission</a>
		  </description>
		  <Point>
			<coordinates> -8.67817,52.35029</coordinates>
		  </Point>
		</Placemark><Placemark>
		  <name>CLOYNE (ST. COLEMAN) CATHEDRAL CHURCHYARD</name>
		  <description><a href="http://www.cwgc.org/find-a-cemetery/cemetery/2076729/CLOYNE%20%28ST.%20COLEMAN%29%20CATHEDRAL%20CHURCHYARD">CLOYNE (ST. COLEMAN) CATHEDRAL CHURCHYARD at the Commonwealth War Graves Commission</a>
		  </description>
		  <Point>
			<coordinates> -8.12315,51.86268</coordinates>
		  </Point>
		</Placemark><Placemark>
		  <name>COBH OLD CHURCH CEMETERY</name>
		  <description><a href="http://www.cwgc.org/find-a-cemetery/cemetery/2076730/COBH%20OLD%20CHURCH%20CEMETERY">COBH OLD CHURCH CEMETERY at the Commonwealth War Graves Commission</a>
		  </description>
		  <Point>
			<coordinates> -8.29744,51.86284</coordinates>
		  </Point>
		</Placemark><Placemark>
		  <name>CURRYKIPPANE JEWISH CEMETERY</name>
		  <description><a href="http://www.cwgc.org/find-a-cemetery/cemetery/2076738/CURRYKIPPANE%20JEWISH%20CEMETERY">CURRYKIPPANE JEWISH CEMETERY at the Commonwealth War Graves Commission</a>
		  </description>
		  <Point>
			<coordinates> -8.54717,51.90474</coordinates>
		  </Point>
		</Placemark><Placemark>
		  <name>FANLOBBUS (ST. MARY) CHURCH OF IRELAND CHURCHYARD</name>
		  <description><a href="http://www.cwgc.org/find-a-cemetery/cemetery/2076744/FANLOBBUS%20%28ST.%20MARY%29%20CHURCH%20OF%20IRELAND%20CHURCHYARD">FANLOBBUS (ST. MARY) CHURCH OF IRELAND CHURCHYARD at the Commonwealth War Graves Commission</a>
		  </description>
		  <Point>
			<coordinates> -9.11112,51.7226</coordinates>
		  </Point>
		</Placemark><Placemark>
		  <name>KILGARIFFE CHURCH OF IRELAND CHURCHYARD</name>
		  <description><a href="http://www.cwgc.org/find-a-cemetery/cemetery/2076753/KILGARIFFE%20CHURCH%20OF%20IRELAND%20CHURCHYARD">KILGARIFFE CHURCH OF IRELAND CHURCHYARD at the Commonwealth War Graves Commission</a>
		  </description>
		  <Point>
			<coordinates> -8.89111,51.62404</coordinates>
		  </Point>
		</Placemark><Placemark>
		  <name>KINSALE (ST. MULTOSE) CHURCH OF IRELAND CHURCHYARD</name>
		  <description><a href="http://www.cwgc.org/find-a-cemetery/cemetery/2076760/KINSALE%20%28ST.%20MULTOSE%29%20CHURCH%20OF%20IRELAND%20CHURCHYARD">KINSALE (ST. MULTOSE) CHURCH OF IRELAND CHURCHYARD at the Commonwealth War Graves Commission</a>
		  </description>
		  <Point>
			<coordinates> -8.52565,51.7061</coordinates>
		  </Point>
		</Placemark><Placemark>
		  <name>MALLOW (ST. JOSEPH'S) CATHOLIC CEMETERY</name>
		  <description><a href="http://www.cwgc.org/find-a-cemetery/cemetery/2076764/MALLOW%20%28ST.%20JOSEPH%27S%29%20CATHOLIC%20CEMETERY">MALLOW (ST. JOSEPH'S) CATHOLIC CEMETERY at the Commonwealth War Graves Commission</a>
		  </description>
		  <Point>
			<coordinates> -8.62562,52.14381</coordinates>
		  </Point>
		</Placemark><Placemark>
		  <name>MITCHELSTOWN CATHOLIC CHURCHYARD</name>
		  <description><a href="http://www.cwgc.org/find-a-cemetery/cemetery/2076767/MITCHELSTOWN%20CATHOLIC%20CHURCHYARD">MITCHELSTOWN CATHOLIC CHURCHYARD at the Commonwealth War Graves Commission</a>
		  </description>
		  <Point>
			<coordinates> -8.26741,52.26601</coordinates>
		  </Point>
		</Placemark><Placemark>
		  <name>RATHCOONEY CEMETERY</name>
		  <description><a href="http://www.cwgc.org/find-a-cemetery/cemetery/2076768/RATHCOONEY%20CEMETERY">RATHCOONEY CEMETERY at the Commonwealth War Graves Commission</a>
		  </description>
		  <Point>
			<coordinates> -8.42301,51.93032</coordinates>
		  </Point>
		</Placemark><Placemark>
		  <name>ROSSMACKOWEN CATHOLIC CHURCHYARD</name>
		  <description><a href="http://www.cwgc.org/find-a-cemetery/cemetery/2076770/ROSSMACKOWEN%20CATHOLIC%20CHURCHYARD">ROSSMACKOWEN CATHOLIC CHURCHYARD at the Commonwealth War Graves Commission</a>
		  </description>
		  <Point>
			<coordinates> -9.8186,51.66362</coordinates>
		  </Point>
		</Placemark><Placemark>
		  <name>TEMPLEBREEDY CEMETERY</name>
		  <description><a href="http://www.cwgc.org/find-a-cemetery/cemetery/2076771/TEMPLEBREEDY%20CEMETERY">TEMPLEBREEDY CEMETERY at the Commonwealth War Graves Commission</a>
		  </description>
		  <Point>
			<coordinates> -8.28632,51.79823</coordinates>
		  </Point>
		</Placemark><Placemark>
		  <name>WHITECHURCH CEMETERY</name>
		  <description><a href="http://www.cwgc.org/find-a-cemetery/cemetery/2076775/WHITECHURCH%20CEMETERY">WHITECHURCH CEMETERY at the Commonwealth War Graves Commission</a>
		  </description>
		  <Point>
			<coordinates> -8.50856,51.98371</coordinates>
		  </Point>
		</Placemark><Placemark>
		  <name>YOUGHAL (NORTH ABBEY) CEMETERY</name>
		  <description><a href="http://www.cwgc.org/find-a-cemetery/cemetery/2076776/YOUGHAL%20%28NORTH%20ABBEY%29%20CEMETERY">YOUGHAL (NORTH ABBEY) CEMETERY at the Commonwealth War Graves Commission</a>
		  </description>
		  <Point>
			<coordinates> -7.85412,51.95808</coordinates>
		  </Point>
		</Placemark><Placemark>
		  <name>YOUGHAL (ST. MARY'S) COLLEGIATE CHURCHYARD</name>
		  <description><a href="http://www.cwgc.org/find-a-cemetery/cemetery/2076777/YOUGHAL%20%28ST.%20MARY%27S%29%20COLLEGIATE%20CHURCHYARD">YOUGHAL (ST. MARY'S) COLLEGIATE CHURCHYARD at the Commonwealth War Graves Commission</a>
		  </description>
		  <Point>
			<coordinates> -7.85246,51.95533</coordinates>
		  </Point>
		</Placemark><Placemark>
		  <name>LIMERICK (KING'S ISLAND) MILITARY CEMETERY</name>
		  <description><a href="http://www.cwgc.org/find-a-cemetery/cemetery/2076798/LIMERICK%20%28KING%27S%20ISLAND%29%20MILITARY%20CEMETERY">LIMERICK (KING'S ISLAND) MILITARY CEMETERY at the Commonwealth War Graves Commission</a>
		  </description>
		  <Point>
			<coordinates> -8.62568,52.67278</coordinates>
		  </Point>
		</Placemark><Placemark>
		  <name>NEWCASTLE WEST (CHURCH TOWN) CEMETERY</name>
		  <description><a href="http://www.cwgc.org/find-a-cemetery/cemetery/2076801/NEWCASTLE%20WEST%20%28CHURCH%20TOWN%29%20CEMETERY">NEWCASTLE WEST (CHURCH TOWN) CEMETERY at the Commonwealth War Graves Commission</a>
		  </description>
		  <Point>
			<coordinates> -9.06601,52.45641</coordinates>
		  </Point>
		</Placemark><Placemark>
		  <name>RATHKEALE (ST. MARY) CATHOLIC CHURCHYARD</name>
		  <description><a href="http://www.cwgc.org/find-a-cemetery/cemetery/2076802/RATHKEALE%20%28ST.%20MARY%29%20CATHOLIC%20CHURCHYARD">RATHKEALE (ST. MARY) CATHOLIC CHURCHYARD at the Commonwealth War Graves Commission</a>
		  </description>
		  <Point>
			<coordinates> -8.93987,52.52556</coordinates>
		  </Point>
		</Placemark><Placemark>
		  <name>AGLISH (OR AGLISHCLOHANE) CHURCH OF IRELAND CHURCHYARD</name>
		  <description><a href="http://www.cwgc.org/find-a-cemetery/cemetery/2076803/AGLISH%20%28OR%20AGLISHCLOHANE%29%20CHURCH%20OF%20IRELAND%20CHURCHYARD">AGLISH (OR AGLISHCLOHANE) CHURCH OF IRELAND CHURCHYARD at the Commonwealth War Graves Commission</a>
		  </description>
		  <Point>
			<coordinates> -8.09249,53.03853</coordinates>
		  </Point>
		</Placemark><Placemark>
		  <name>BORRISOKANE NEW CEMETERY</name>
		  <description><a href="http://www.cwgc.org/find-a-cemetery/cemetery/2076804/BORRISOKANE%20NEW%20CEMETERY">BORRISOKANE NEW CEMETERY at the Commonwealth War Graves Commission</a>
		  </description>
		  <Point>
			<coordinates> -8.13224,52.99003</coordinates>
		  </Point>
		</Placemark><Placemark>
		  <name>CARRICK-ON-SUIR NEW CEMETERY</name>
		  <description><a href="http://www.cwgc.org/find-a-cemetery/cemetery/2076805/CARRICK-ON-SUIR%20NEW%20CEMETERY">CARRICK-ON-SUIR NEW CEMETERY at the Commonwealth War Graves Commission</a>
		  </description>
		  <Point>
			<coordinates> -7.41229,52.34036</coordinates>
		  </Point>
		</Placemark><Placemark>
		  <name>HOLYCROSS CHURCH OF IRELAND CHURCHYARD</name>
		  <description><a href="http://www.cwgc.org/find-a-cemetery/cemetery/2076808/HOLYCROSS%20CHURCH%20OF%20IRELAND%20CHURCHYARD">HOLYCROSS CHURCH OF IRELAND CHURCHYARD at the Commonwealth War Graves Commission</a>
		  </description>
		  <Point>
			<coordinates> -7.87218,52.64223</coordinates>
		  </Point>
		</Placemark><Placemark>
		  <name>INISHLOUNAGHT CHURCH OF IRELAND CHURCHYARD</name>
		  <description><a href="http://www.cwgc.org/find-a-cemetery/cemetery/2076809/INISHLOUNAGHT%20CHURCH%20OF%20IRELAND%20CHURCHYARD">INISHLOUNAGHT CHURCH OF IRELAND CHURCHYARD at the Commonwealth War Graves Commission</a>
		  </description>
		  <Point>
			<coordinates> -7.7448,52.34499</coordinates>
		  </Point>
		</Placemark><Placemark>
		  <name>LISBUNNY CEMETERY</name>
		  <description><a href="http://www.cwgc.org/find-a-cemetery/cemetery/2076810/LISBUNNY%20CEMETERY">LISBUNNY CEMETERY at the Commonwealth War Graves Commission</a>
		  </description>
		  <Point>
			<coordinates> -8.1647,52.86385</coordinates>
		  </Point>
		</Placemark><Placemark>
		  <name>MODREENY CHURCH OF IRELAND CHURCHYARD</name>
		  <description><a href="http://www.cwgc.org/find-a-cemetery/cemetery/2076811/MODREENY%20CHURCH%20OF%20IRELAND%20CHURCHYARD">MODREENY CHURCH OF IRELAND CHURCHYARD at the Commonwealth War Graves Commission</a>
		  </description>
		  <Point>
			<coordinates> -8.06724,52.95659</coordinates>
		  </Point>
		</Placemark><Placemark>
		  <name>MOGLASS CATHOLIC CHURCHYARD</name>
		  <description><a href="http://www.cwgc.org/find-a-cemetery/cemetery/2076812/MOGLASS%20CATHOLIC%20CHURCHYARD">MOGLASS CATHOLIC CHURCHYARD at the Commonwealth War Graves Commission</a>
		  </description>
		  <Point>
			<coordinates> -7.71717,52.52418</coordinates>
		  </Point>
		</Placemark>