<?xml version="1.0" encoding="UTF-8"?>
	<kml xmlns="http://www.opengis.net/kml/2.2">
	  <Document><name>Cemeteries of the Commonwealth War Graves Commission for Namibia</name>
  <description>Cemeteries in Namibia from the Commonwealth War Graves Commission database (http://www.cwgc.org/) turned into a map by the World War One Centenary Project at The University of Oxford (http://ww1centenary.oucs.ox.ac.uk/). Licensed as Attribution-NonCommercial-ShareAlike 2.0 UK: England and Wales </description><Placemark>
		  <name>GIBEON STATION CEMETERY</name>
		  <description><a href="http://www.cwgc.org/find-a-cemetery/cemetery/12302/GIBEON%20STATION%20CEMETERY">GIBEON STATION CEMETERY at the Commonwealth War Graves Commission</a>
		  </description>
		  <Point>
			<coordinates> 17.83502,-25.16492</coordinates>
		  </Point>
		</Placemark><Placemark>
		  <name>KARIBIB CEMETERY</name>
		  <description><a href="http://www.cwgc.org/find-a-cemetery/cemetery/12306/KARIBIB%20CEMETERY">KARIBIB CEMETERY at the Commonwealth War Graves Commission</a>
		  </description>
		  <Point>
			<coordinates> 15.83988,-21.93534</coordinates>
		  </Point>
		</Placemark><Placemark>
		  <name>KEETMANSHOOP MUNICIPAL CEMETERY</name>
		  <description><a href="http://www.cwgc.org/find-a-cemetery/cemetery/12307/KEETMANSHOOP%20MUNICIPAL%20CEMETERY">KEETMANSHOOP MUNICIPAL CEMETERY at the Commonwealth War Graves Commission</a>
		  </description>
		  <Point>
			<coordinates> 18.14195,-26.57956</coordinates>
		  </Point>
		</Placemark><Placemark>
		  <name>LUDERITZ MUNICIPAL CEMETERY</name>
		  <description><a href="http://www.cwgc.org/find-a-cemetery/cemetery/12308/LUDERITZ%20MUNICIPAL%20CEMETERY">LUDERITZ MUNICIPAL CEMETERY at the Commonwealth War Graves Commission</a>
		  </description>
		  <Point>
			<coordinates> 15.16376,-26.65628</coordinates>
		  </Point>
		</Placemark><Placemark>
		  <name>OKAHANDJA CEMETERY</name>
		  <description><a href="http://www.cwgc.org/find-a-cemetery/cemetery/12310/OKAHANDJA%20CEMETERY">OKAHANDJA CEMETERY at the Commonwealth War Graves Commission</a>
		  </description>
		  <Point>
			<coordinates> 16.9194,-21.97806</coordinates>
		  </Point>
		</Placemark><Placemark>
		  <name>OMARURU MUNICIPAL CEMETERY</name>
		  <description><a href="http://www.cwgc.org/find-a-cemetery/cemetery/12311/OMARURU%20MUNICIPAL%20CEMETERY">OMARURU MUNICIPAL CEMETERY at the Commonwealth War Graves Commission</a>
		  </description>
		  <Point>
			<coordinates> 15.95143,-21.41493</coordinates>
		  </Point>
		</Placemark><Placemark>
		  <name>OTJIWARONGO CEMETERY</name>
		  <description><a href="http://www.cwgc.org/find-a-cemetery/cemetery/12314/OTJIWARONGO%20CEMETERY">OTJIWARONGO CEMETERY at the Commonwealth War Graves Commission</a>
		  </description>
		  <Point>
			<coordinates> 16.64264,-20.45812</coordinates>
		  </Point>
		</Placemark><Placemark>
		  <name>OUTJO CEMETERY</name>
		  <description><a href="http://www.cwgc.org/find-a-cemetery/cemetery/12315/OUTJO%20CEMETERY">OUTJO CEMETERY at the Commonwealth War Graves Commission</a>
		  </description>
		  <Point>
			<coordinates> 16.15593,-20.11178</coordinates>
		  </Point>
		</Placemark><Placemark>
		  <name>SWAKOPMUND MUNICIPAL CEMETERY</name>
		  <description><a href="http://www.cwgc.org/find-a-cemetery/cemetery/12316/SWAKOPMUND%20MUNICIPAL%20CEMETERY">SWAKOPMUND MUNICIPAL CEMETERY at the Commonwealth War Graves Commission</a>
		  </description>
		  <Point>
			<coordinates> 14.53278,-22.68271</coordinates>
		  </Point>
		</Placemark><Placemark>
		  <name>TSUMEB CEMETERY</name>
		  <description><a href="http://www.cwgc.org/find-a-cemetery/cemetery/12318/TSUMEB%20CEMETERY">TSUMEB CEMETERY at the Commonwealth War Graves Commission</a>
		  </description>
		  <Point>
			<coordinates> 17.71971,-19.24686</coordinates>
		  </Point>
		</Placemark><Placemark>
		  <name>USAKOS CEMETERY</name>
		  <description><a href="http://www.cwgc.org/find-a-cemetery/cemetery/12319/USAKOS%20CEMETERY">USAKOS CEMETERY at the Commonwealth War Graves Commission</a>
		  </description>
		  <Point>
			<coordinates> 15.59928,-21.99422</coordinates>
		  </Point>
		</Placemark><Placemark>
		  <name>WINDHOEK JEWISH CEMETERY</name>
		  <description><a href="http://www.cwgc.org/find-a-cemetery/cemetery/12321/WINDHOEK%20JEWISH%20CEMETERY">WINDHOEK JEWISH CEMETERY at the Commonwealth War Graves Commission</a>
		  </description>
		  <Point>
			<coordinates> 17.07013,-22.5815</coordinates>
		  </Point>
		</Placemark><Placemark>
		  <name>WINDHOEK OLD MUNICIPAL CEMETERY</name>
		  <description><a href="http://www.cwgc.org/find-a-cemetery/cemetery/12322/WINDHOEK%20OLD%20MUNICIPAL%20CEMETERY">WINDHOEK OLD MUNICIPAL CEMETERY at the Commonwealth War Graves Commission</a>
		  </description>
		  <Point>
			<coordinates> 17.09132,-22.57737</coordinates>
		  </Point>
		</Placemark><Placemark>
		  <name>LUDERITZ JEWISH CEMETERY</name>
		  <description><a href="http://www.cwgc.org/find-a-cemetery/cemetery/4001901/LUDERITZ%20JEWISH%20CEMETERY">LUDERITZ JEWISH CEMETERY at the Commonwealth War Graves Commission</a>
		  </description>
		  <Point>
			<coordinates> 15.1633,-26.65704</coordinates>
		  </Point>
		</Placemark><Placemark>
		  <name>KEETMANSHOOP JEWISH CEMETERY</name>
		  <description><a href="http://www.cwgc.org/find-a-cemetery/cemetery/4003785/KEETMANSHOOP%20JEWISH%20CEMETERY">KEETMANSHOOP JEWISH CEMETERY at the Commonwealth War Graves Commission</a>
		  </description>
		  <Point>
			<coordinates> 18.14115,-26.57967</coordinates>
		  </Point>
		</Placemark></Document>
				</kml>