<?xml version="1.0" encoding="UTF-8"?>
<kml xmlns="http://earth.google.com/kml/2.2">
<Document>
	<name>Geotagged Tweets from the #Arras95 project - http://ww1centenary.oucs.ox.ac.uk</name>
	<open>1</open>	
	<Folder><Placemark>
			<name>@Arras95 Breaking news: every artillery piece at the disposal of the Allied forces is firing around Arras http://t.co/xGTGrMhh</name>
			<description>@Arras95 Breaking news: every artillery piece at the disposal of the Allied forces is firing around Arras http://t.co/xGTGrMhh</description>			
			<TimeStamp>
				<when>1914-04-09T04:30:01Z</when>
			</TimeStamp>
			<Point><coordinates>2.7772,50.294,0</coordinates>
			</Point>
		</Placemark><Placemark>
			<name>@Arras95 Breaking news: every artillery piece at the disposal of the Allied forces is firing around Arras http://t.co/xGTGrMhh</name>
			<description>@Arras95 Breaking news: every artillery piece at the disposal of the Allied forces is firing around Arras http://t.co/xGTGrMhh</description>			
			<TimeStamp>
				<when>1914-04-09T04:30:01Z</when>
			</TimeStamp>
			<Point><coordinates>2.725568,50.267971,0</coordinates>
			</Point>
		</Placemark><Placemark>
			<name>@Arras95 Reports that heavy snow and the unexpected attack has led to many German troops caught unawares and taken prisoner.</name>
			<description>@Arras95 Reports that heavy snow and the unexpected attack has led to many German troops caught unawares and taken prisoner.</description>			
			<TimeStamp>
				<when>1914-04-09T05:46:01Z</when>
			</TimeStamp>
			<Point><coordinates>2.7772,50.294,0</coordinates>
			</Point>
		</Placemark><Placemark>
			<name>@Arras95 Reports that heavy snow and the unexpected attack has led to many German troops caught unawares and taken prisoner.</name>
			<description>@Arras95 Reports that heavy snow and the unexpected attack has led to many German troops caught unawares and taken prisoner.</description>			
			<TimeStamp>
				<when>1914-04-09T05:46:01Z</when>
			</TimeStamp>
			<Point><coordinates>2.725568,50.267971,0</coordinates>
			</Point>
		</Placemark><Placemark>
			<name>@Arras95 Already 1st CA Division captured part of the Red Line. 2nd CA division taken Les Tilleuls. http://t.co/QnA7Nvrl</name>
			<description>@Arras95 Already 1st CA Division captured part of the Red Line. 2nd CA division taken Les Tilleuls. http://t.co/QnA7Nvrl</description>			
			<TimeStamp>
				<when>1914-04-09T06:00:01Z</when>
			</TimeStamp>
			<Point><coordinates>2.773208,50.330902,0</coordinates>
			</Point>
		</Placemark><Placemark>
			<name>@Arras95 Already 1st CA Division captured part of the Red Line. 2nd CA division taken Les Tilleuls. http://t.co/QnA7Nvrl</name>
			<description>@Arras95 Already 1st CA Division captured part of the Red Line. 2nd CA division taken Les Tilleuls. http://t.co/QnA7Nvrl</description>			
			<TimeStamp>
				<when>1914-04-09T06:00:01Z</when>
			</TimeStamp>
			<Point><coordinates>2.7971,50.3527,0</coordinates>
			</Point>
		</Placemark><Placemark>
			<name>@Arras95 Some of 1st Bavarian Corps who have gone without food for 3 days and are now being shelled, gassed and attacked by CA forces.</name>
			<description>@Arras95 Some of 1st Bavarian Corps who have gone without food for 3 days and are now being shelled, gassed and attacked by CA forces.</description>			
			<TimeStamp>
				<when>1914-04-09T08:28:01Z</when>
			</TimeStamp>
			<Point><coordinates>2.721663,50.333519,0</coordinates>
			</Point>
		</Placemark><Placemark>
			<name>@Arras95 Some of 1st Bavarian Corps who have gone without food for 3 days and are now being shelled, gassed and attacked by CA forces.</name>
			<description>@Arras95 Some of 1st Bavarian Corps who have gone without food for 3 days and are now being shelled, gassed and attacked by CA forces.</description>			
			<TimeStamp>
				<when>1914-04-09T08:28:01Z</when>
			</TimeStamp>
			<Point><coordinates>2.7798,50.371,0</coordinates>
			</Point>
		</Placemark><Placemark>
			<name>@Arras95 CA have secured the ridge line but fighting is fierce. http://t.co/iW58CAR5</name>
			<description>@Arras95 CA have secured the ridge line but fighting is fierce. http://t.co/iW58CAR5</description>			
			<TimeStamp>
				<when>1914-04-09T12:10:01Z</when>
			</TimeStamp>
			<Point><coordinates>2.7798,50.371,0</coordinates>
			</Point>
		</Placemark><Placemark>
			<name>@Arras95 CA have secured the ridge line but fighting is fierce. http://t.co/iW58CAR5</name>
			<description>@Arras95 CA have secured the ridge line but fighting is fierce. http://t.co/iW58CAR5</description>			
			<TimeStamp>
				<when>1914-04-09T12:10:01Z</when>
			</TimeStamp>
			<Point><coordinates>2.721663,50.333519,0</coordinates>
			</Point>
		</Placemark><Placemark>
			<name>@Arras95 10 GB Divisions have attacked east of Arras with tanks, high explosives and gas shells. http://t.co/ddmLrlED</name>
			<description>@Arras95 10 GB Divisions have attacked east of Arras with tanks, high explosives and gas shells. http://t.co/ddmLrlED</description>			
			<TimeStamp>
				<when>1914-04-09T12:34:00Z</when>
			</TimeStamp>
			<Point><coordinates>2.7798,50.371,0</coordinates>
			</Point>
		</Placemark><Placemark>
			<name>@Arras95 10 GB Divisions have attacked east of Arras with tanks, high explosives and gas shells. http://t.co/ddmLrlED</name>
			<description>@Arras95 10 GB Divisions have attacked east of Arras with tanks, high explosives and gas shells. http://t.co/ddmLrlED</description>			
			<TimeStamp>
				<when>1914-04-09T12:34:00Z</when>
			</TimeStamp>
			<Point><coordinates>2.721663,50.333519,0</coordinates>
			</Point>
		</Placemark><Placemark>
			<name>@Arras95 Unexpected development: 24,000 men have emerged for battle from underground caves untouched by enemy artillery.</name>
			<description>@Arras95 Unexpected development: 24,000 men have emerged for battle from underground caves untouched by enemy artillery.</description>			
			<TimeStamp>
				<when>1914-04-09T14:20:01Z</when>
			</TimeStamp>
			<Point><coordinates>2.725568,50.267971,0</coordinates>
			</Point>
		</Placemark><Placemark>
			<name>@Arras95 Unexpected development: 24,000 men have emerged for battle from underground caves untouched by enemy artillery.</name>
			<description>@Arras95 Unexpected development: 24,000 men have emerged for battle from underground caves untouched by enemy artillery.</description>			
			<TimeStamp>
				<when>1914-04-09T14:20:01Z</when>
			</TimeStamp>
			<Point><coordinates>2.7825,50.2807,0</coordinates>
			</Point>
		</Placemark><Placemark>
			<name>@Arras95 It appears that the 24,000 used tunnel system under Arras created by Maori and S. Pacific Islanders, with GB miners. http://t.co/WslZt9x8</name>
			<description>@Arras95 It appears that the 24,000 used tunnel system under Arras created by Maori and S. Pacific Islanders, with GB miners. http://t.co/WslZt9x8</description>			
			<TimeStamp>
				<when>1914-04-09T14:30:01Z</when>
			</TimeStamp>
			<Point><coordinates>2.725568,50.267971,0</coordinates>
			</Point>
		</Placemark><Placemark>
			<name>@Arras95 It appears that the 24,000 used tunnel system under Arras created by Maori and S. Pacific Islanders, with GB miners. http://t.co/WslZt9x8</name>
			<description>@Arras95 It appears that the 24,000 used tunnel system under Arras created by Maori and S. Pacific Islanders, with GB miners. http://t.co/WslZt9x8</description>			
			<TimeStamp>
				<when>1914-04-09T14:30:01Z</when>
			</TimeStamp>
			<Point><coordinates>2.7825,50.2807,0</coordinates>
			</Point>
		</Placemark><Placemark>
			<name>@Arras95 11 and 12 Brigades of the 4th Division have taken Feuchy village http://t.co/xd34IHbN</name>
			<description>@Arras95 11 and 12 Brigades of the 4th Division have taken Feuchy village http://t.co/xd34IHbN</description>			
			<TimeStamp>
				<when>1914-04-09T15:01:01Z</when>
			</TimeStamp>
			<Point><coordinates>2.8454,50.2944,0</coordinates>
			</Point>
		</Placemark><Placemark>
			<name>@Arras95 11 and 12 Brigades of the 4th Division have taken Feuchy village http://t.co/xd34IHbN</name>
			<description>@Arras95 11 and 12 Brigades of the 4th Division have taken Feuchy village http://t.co/xd34IHbN</description>			
			<TimeStamp>
				<when>1914-04-09T15:01:01Z</when>
			</TimeStamp>
			<Point><coordinates>2.825806,50.270683,0</coordinates>
			</Point>
		</Placemark><Placemark>
			<name>@Arras95 A GB assault south of the Arras-Cambrai Road has seen the 3rd Division take Devil's Wood and nearby villages.</name>
			<description>@Arras95 A GB assault south of the Arras-Cambrai Road has seen the 3rd Division take Devil's Wood and nearby villages.</description>			
			<TimeStamp>
				<when>1914-04-09T15:06:00Z</when>
			</TimeStamp>
			<Point><coordinates>2.799072,50.259976,0</coordinates>
			</Point>
		</Placemark><Placemark>
			<name>@Arras95 A GB assault south of the Arras-Cambrai Road has seen the 3rd Division take Devil's Wood and nearby villages.</name>
			<description>@Arras95 A GB assault south of the Arras-Cambrai Road has seen the 3rd Division take Devil's Wood and nearby villages.</description>			
			<TimeStamp>
				<when>1914-04-09T15:06:00Z</when>
			</TimeStamp>
			<Point><coordinates>2.8195,50.2743,0</coordinates>
			</Point>
		</Placemark><Placemark>
			<name>@Arras95 Just learnt that GB XVII Corps have advanced 3.5 miles – lengthiest advance since trench warfare began in 1914. http://t.co/FSlJbuFu</name>
			<description>@Arras95 Just learnt that GB XVII Corps have advanced 3.5 miles – lengthiest advance since trench warfare began in 1914. http://t.co/FSlJbuFu</description>			
			<TimeStamp>
				<when>1914-04-09T16:25:01Z</when>
			</TimeStamp>
			<Point><coordinates>2.853127,50.250698,0</coordinates>
			</Point>
		</Placemark><Placemark>
			<name>@Arras95 Just learnt that GB XVII Corps have advanced 3.5 miles – lengthiest advance since trench warfare began in 1914. http://t.co/FSlJbuFu</name>
			<description>@Arras95 Just learnt that GB XVII Corps have advanced 3.5 miles – lengthiest advance since trench warfare began in 1914. http://t.co/FSlJbuFu</description>			
			<TimeStamp>
				<when>1914-04-09T16:25:01Z</when>
			</TimeStamp>
			<Point><coordinates>2.8936,50.2698,0</coordinates>
			</Point>
		</Placemark><Placemark>
			<name>@Arras95 Just heard that the influential poet and writer, Edward Thomas has been killed by shell blast today.</name>
			<description>@Arras95 Just heard that the influential poet and writer, Edward Thomas has been killed by shell blast today.</description>			
			<TimeStamp>
				<when>1914-04-09T16:33:56Z</when>
			</TimeStamp>
			<Point><coordinates>2.730217,50.259689,0</coordinates>
			</Point>
		</Placemark><Placemark>
			<name>@Arras95 Exclusive: Following the loss of poet Edward Thomas today we look at his journey to Arras: http://t.co/zAjEKsJK</name>
			<description>@Arras95 Exclusive: Following the loss of poet Edward Thomas today we look at his journey to Arras: http://t.co/zAjEKsJK</description>			
			<TimeStamp>
				<when>1914-04-09T17:12:00Z</when>
			</TimeStamp>
			<Point><coordinates>2.7534,50.2664,0</coordinates>
			</Point>
		</Placemark><Placemark>
			<name>@Arras95 Exclusive: Following the loss of poet Edward Thomas today we look at his journey to Arras: http://t.co/zAjEKsJK</name>
			<description>@Arras95 Exclusive: Following the loss of poet Edward Thomas today we look at his journey to Arras: http://t.co/zAjEKsJK</description>			
			<TimeStamp>
				<when>1914-04-09T17:12:00Z</when>
			</TimeStamp>
			<Point><coordinates>2.741458,50.236585,0</coordinates>
			</Point>
		</Placemark><Placemark>
			<name>@Arras95 A 4-mile gap was opened in the German lines for several hours today, but was not exploited as cavalry arrived too late.</name>
			<description>@Arras95 A 4-mile gap was opened in the German lines for several hours today, but was not exploited as cavalry arrived too late.</description>			
			<TimeStamp>
				<when>1914-04-09T17:51:00Z</when>
			</TimeStamp>
			<Point><coordinates>2.853127,50.250698,0</coordinates>
			</Point>
		</Placemark><Placemark>
			<name>@Arras95 A 4-mile gap was opened in the German lines for several hours today, but was not exploited as cavalry arrived too late.</name>
			<description>@Arras95 A 4-mile gap was opened in the German lines for several hours today, but was not exploited as cavalry arrived too late.</description>			
			<TimeStamp>
				<when>1914-04-09T17:51:00Z</when>
			</TimeStamp>
			<Point><coordinates>2.8936,50.2698,0</coordinates>
			</Point>
		</Placemark><Placemark>
			<name>@Arras95 3rd Army progress south of River Scarpe has been delayed by fierce resistance around the village of Monchy-les-Preux.</name>
			<description>@Arras95 3rd Army progress south of River Scarpe has been delayed by fierce resistance around the village of Monchy-les-Preux.</description>			
			<TimeStamp>
				<when>1914-04-09T18:40:00Z</when>
			</TimeStamp>
			<Point><coordinates>2.853127,50.250698,0</coordinates>
			</Point>
		</Placemark><Placemark>
			<name>@Arras95 3rd Army progress south of River Scarpe has been delayed by fierce resistance around the village of Monchy-les-Preux.</name>
			<description>@Arras95 3rd Army progress south of River Scarpe has been delayed by fierce resistance around the village of Monchy-les-Preux.</description>			
			<TimeStamp>
				<when>1914-04-09T18:40:00Z</when>
			</TimeStamp>
			<Point><coordinates>2.8936,50.2698,0</coordinates>
			</Point>
		</Placemark><Placemark>
			<name>@Arras95 Hearing reports that over 2.5m shells have been used in long and intense artillery barrage today.</name>
			<description>@Arras95 Hearing reports that over 2.5m shells have been used in long and intense artillery barrage today.</description>			
			<TimeStamp>
				<when>1914-04-09T19:08:00Z</when>
			</TimeStamp>
			<Point><coordinates>2.7772,50.294,0</coordinates>
			</Point>
		</Placemark><Placemark>
			<name>@Arras95 Hearing reports that over 2.5m shells have been used in long and intense artillery barrage today.</name>
			<description>@Arras95 Hearing reports that over 2.5m shells have been used in long and intense artillery barrage today.</description>			
			<TimeStamp>
				<when>1914-04-09T19:08:00Z</when>
			</TimeStamp>
			<Point><coordinates>2.725568,50.267971,0</coordinates>
			</Point>
		</Placemark><Placemark>
			<name>@Arras95 Additional German reinforcements beginning to arrive, 111th Infantry Division occupying the third line near Acheville and Arleux.</name>
			<description>@Arras95 Additional German reinforcements beginning to arrive, 111th Infantry Division occupying the third line near Acheville and Arleux.</description>			
			<TimeStamp>
				<when>1914-04-09T22:00:05Z</when>
			</TimeStamp>
			<Point><coordinates>3.1041,50.2835,0</coordinates>
			</Point>
		</Placemark><Placemark>
			<name>@Arras95 Additional German reinforcements beginning to arrive, 111th Infantry Division occupying the third line near Acheville and Arleux.</name>
			<description>@Arras95 Additional German reinforcements beginning to arrive, 111th Infantry Division occupying the third line near Acheville and Arleux.</description>			
			<TimeStamp>
				<when>1914-04-09T22:00:05Z</when>
			</TimeStamp>
			<Point><coordinates>3.061510,50.265957,0</coordinates>
			</Point>
		</Placemark><Placemark>
			<name>@Arras95 German forces holding the top of Vimy Ridge. Reinforcements arriving in heavy snow. See today's advance: http://t.co/a3Fp7WOj</name>
			<description>@Arras95 German forces holding the top of Vimy Ridge. Reinforcements arriving in heavy snow. See today's advance: http://t.co/a3Fp7WOj</description>			
			<TimeStamp>
				<when>1914-04-09T22:15:01Z</when>
			</TimeStamp>
			<Point><coordinates>2.771750,50.362407,0</coordinates>
			</Point>
		</Placemark><Placemark>
			<name>@Arras95 German forces holding the top of Vimy Ridge. Reinforcements arriving in heavy snow. See today's advance: http://t.co/a3Fp7WOj</name>
			<description>@Arras95 German forces holding the top of Vimy Ridge. Reinforcements arriving in heavy snow. See today's advance: http://t.co/a3Fp7WOj</description>			
			<TimeStamp>
				<when>1914-04-09T22:15:01Z</when>
			</TimeStamp>
			<Point><coordinates>2.8107,50.3728,0</coordinates>
			</Point>
		</Placemark><Placemark>
			<name>@Arras95 Breaking: neutral Brazil has broken diplomatic relations with Germany after freighter torpedoed off French coast. Will they declare War?</name>
			<description>@Arras95 Breaking: neutral Brazil has broken diplomatic relations with Germany after freighter torpedoed off French coast. Will they declare War?</description>			
			<TimeStamp>
				<when>1914-04-09T22:23:00Z</when>
			</TimeStamp>
			<Point><coordinates>-1.951647,48.455825,0</coordinates>
			</Point>
		</Placemark><Placemark>
			<name>@Arras95 Breaking: neutral Brazil has broken diplomatic relations with Germany after freighter torpedoed off French coast. Will they declare War?</name>
			<description>@Arras95 Breaking: neutral Brazil has broken diplomatic relations with Germany after freighter torpedoed off French coast. Will they declare War?</description>			
			<TimeStamp>
				<when>1914-04-09T22:23:00Z</when>
			</TimeStamp>
			<Point><coordinates>-1.2422,49.6728,0</coordinates>
			</Point>
		</Placemark><Placemark>
			<name>@ametalmarcus I'm dreaming something about #arras95 and #timestamps http://t.co/MYimIdpL</name>
			<description>@ametalmarcus I'm dreaming something about #arras95 and #timestamps http://t.co/MYimIdpL</description>			
			<TimeStamp>
				<when>1914-04-10T04:26:33Z</when>
			</TimeStamp>
			<Point><coordinates>11.5858,48.1358,0</coordinates>
			</Point>
		</Placemark><Placemark>
			<name>@Arras95 Breaking: the Blue Line, including Hill 135 and the town of Thélus, had been captured.</name>
			<description>@Arras95 Breaking: the Blue Line, including Hill 135 and the town of Thélus, had been captured.</description>			
			<TimeStamp>
				<when>1914-04-10T09:05:00Z</when>
			</TimeStamp>
			<Point><coordinates>2.773208,50.330902,0</coordinates>
			</Point>
		</Placemark><Placemark>
			<name>@Arras95 Breaking: the Blue Line, including Hill 135 and the town of Thélus, had been captured.</name>
			<description>@Arras95 Breaking: the Blue Line, including Hill 135 and the town of Thélus, had been captured.</description>			
			<TimeStamp>
				<when>1914-04-10T09:05:00Z</when>
			</TimeStamp>
			<Point><coordinates>2.7999,50.3544,0</coordinates>
			</Point>
		</Placemark><Placemark>
			<name>@Arras95 GB advance delayed at heavily fortified Neuville-Vitasse, Germans still in control of large sections of the trenches. http://t.co/EMeiyKIh</name>
			<description>@Arras95 GB advance delayed at heavily fortified Neuville-Vitasse, Germans still in control of large sections of the trenches. http://t.co/EMeiyKIh</description>			
			<TimeStamp>
				<when>1914-04-10T10:05:01Z</when>
			</TimeStamp>
			<Point><coordinates>2.797088,50.229609,0</coordinates>
			</Point>
		</Placemark><Placemark>
			<name>@Arras95 GB advance delayed at heavily fortified Neuville-Vitasse, Germans still in control of large sections of the trenches. http://t.co/EMeiyKIh</name>
			<description>@Arras95 GB advance delayed at heavily fortified Neuville-Vitasse, Germans still in control of large sections of the trenches. http://t.co/EMeiyKIh</description>			
			<TimeStamp>
				<when>1914-04-10T10:05:01Z</when>
			</TimeStamp>
			<Point><coordinates>2.82,50.2482,0</coordinates>
			</Point>
		</Placemark><Placemark>
			<name>@Arras95 Stats in from London. Prisoners exceed 11,000. 100 guns, 60 trench mortars and 163 machine guns captured. http://t.co/qMGxCC3u</name>
			<description>@Arras95 Stats in from London. Prisoners exceed 11,000. 100 guns, 60 trench mortars and 163 machine guns captured. http://t.co/qMGxCC3u</description>			
			<TimeStamp>
				<when>1914-04-10T10:30:01Z</when>
			</TimeStamp>
			<Point><coordinates>-0.1339,51.4986,0</coordinates>
			</Point>
		</Placemark><Placemark>
			<name>@Arras95 Stats in from London. Prisoners exceed 11,000. 100 guns, 60 trench mortars and 163 machine guns captured. http://t.co/qMGxCC3u</name>
			<description>@Arras95 Stats in from London. Prisoners exceed 11,000. 100 guns, 60 trench mortars and 163 machine guns captured. http://t.co/qMGxCC3u</description>			
			<TimeStamp>
				<when>1914-04-10T10:30:01Z</when>
			</TimeStamp>
			<Point><coordinates>-0.216070,51.483718,0</coordinates>
			</Point>
		</Placemark><Placemark>
			<name>@Arras95 Just heard that British hospital ship 'Salta' sunk by mine in Channel. Many feared drowned http://t.co/VJt8vVjx</name>
			<description>@Arras95 Just heard that British hospital ship 'Salta' sunk by mine in Channel. Many feared drowned http://t.co/VJt8vVjx</description>			
			<TimeStamp>
				<when>1914-04-10T10:53:01Z</when>
			</TimeStamp>
			<Point><coordinates>0.0911,49.4828,0</coordinates>
			</Point>
		</Placemark><Placemark>
			<name>@Arras95 Just heard that British hospital ship 'Salta' sunk by mine in Channel. Many feared drowned http://t.co/VJt8vVjx</name>
			<description>@Arras95 Just heard that British hospital ship 'Salta' sunk by mine in Channel. Many feared drowned http://t.co/VJt8vVjx</description>			
			<TimeStamp>
				<when>1914-04-10T10:53:01Z</when>
			</TimeStamp>
			<Point><coordinates>0.067361,49.452240,0</coordinates>
			</Point>
		</Placemark><Placemark>
			<name>@Arras95 Original plan for GB 5th Army attack at Bullecourt has been delayed until the 11th. http://t.co/l5vlKBAe</name>
			<description>@Arras95 Original plan for GB 5th Army attack at Bullecourt has been delayed until the 11th. http://t.co/l5vlKBAe</description>			
			<TimeStamp>
				<when>1914-04-10T11:43:01Z</when>
			</TimeStamp>
			<Point><coordinates>2.9288,50.1935,0</coordinates>
			</Point>
		</Placemark><Placemark>
			<name>@Arras95 Original plan for GB 5th Army attack at Bullecourt has been delayed until the 11th. http://t.co/l5vlKBAe</name>
			<description>@Arras95 Original plan for GB 5th Army attack at Bullecourt has been delayed until the 11th. http://t.co/l5vlKBAe</description>			
			<TimeStamp>
				<when>1914-04-10T11:43:01Z</when>
			</TimeStamp>
			<Point><coordinates>2.904095,50.177685,0</coordinates>
			</Point>
		</Placemark><Placemark>
			<name>@Arras95 Update: 2 West Yorks battalions did not receive cancellation order and have suffered great losses assaulting the Hindenburg Line.</name>
			<description>@Arras95 Update: 2 West Yorks battalions did not receive cancellation order and have suffered great losses assaulting the Hindenburg Line.</description>			
			<TimeStamp>
				<when>1914-04-10T12:44:01Z</when>
			</TimeStamp>
			<Point><coordinates>2.904095,50.177685,0</coordinates>
			</Point>
		</Placemark><Placemark>
			<name>@Arras95 Update: 2 West Yorks battalions did not receive cancellation order and have suffered great losses assaulting the Hindenburg Line.</name>
			<description>@Arras95 Update: 2 West Yorks battalions did not receive cancellation order and have suffered great losses assaulting the Hindenburg Line.</description>			
			<TimeStamp>
				<when>1914-04-10T12:44:01Z</when>
			</TimeStamp>
			<Point><coordinates>2.9288,50.1935,0</coordinates>
			</Point>
		</Placemark><Placemark>
			<name>@Arras95 Breaking: German troops have pulled back on the Ridge. Vimy Ridge has been caputured. http://t.co/TCnDPHcE</name>
			<description>@Arras95 Breaking: German troops have pulled back on the Ridge. Vimy Ridge has been caputured. http://t.co/TCnDPHcE</description>			
			<TimeStamp>
				<when>1914-04-10T13:30:01Z</when>
			</TimeStamp>
			<Point><coordinates>2.8096,50.3721,0</coordinates>
			</Point>
		</Placemark><Placemark>
			<name>@Arras95 Breaking: German troops have pulled back on the Ridge. Vimy Ridge has been caputured. http://t.co/TCnDPHcE</name>
			<description>@Arras95 Breaking: German troops have pulled back on the Ridge. Vimy Ridge has been caputured. http://t.co/TCnDPHcE</description>			
			<TimeStamp>
				<when>1914-04-10T13:30:01Z</when>
			</TimeStamp>
			<Point><coordinates>2.771750,50.362407,0</coordinates>
			</Point>
		</Placemark><Placemark>
			<name>@Arras95 Breaking: 1st Army successfully attacking north of Vimy Ridge. http://t.co/NUveE60q</name>
			<description>@Arras95 Breaking: 1st Army successfully attacking north of Vimy Ridge. http://t.co/NUveE60q</description>			
			<TimeStamp>
				<when>1914-04-11T07:45:00Z</when>
			</TimeStamp>
			<Point><coordinates>2.721663,50.333519,0</coordinates>
			</Point>
		</Placemark><Placemark>
			<name>@Arras95 Breaking: 1st Army successfully attacking north of Vimy Ridge. http://t.co/NUveE60q</name>
			<description>@Arras95 Breaking: 1st Army successfully attacking north of Vimy Ridge. http://t.co/NUveE60q</description>			
			<TimeStamp>
				<when>1914-04-11T07:45:00Z</when>
			</TimeStamp>
			<Point><coordinates>2.7669,50.3785,0</coordinates>
			</Point>
		</Placemark><Placemark>
			<name>@Arras95 The previously planned attack of 5th Army going ahead at Bullecourt with elite Australian troops.</name>
			<description>@Arras95 The previously planned attack of 5th Army going ahead at Bullecourt with elite Australian troops.</description>			
			<TimeStamp>
				<when>1914-04-11T08:55:01Z</when>
			</TimeStamp>
			<Point><coordinates>2.9286,50.1936,0</coordinates>
			</Point>
		</Placemark><Placemark>
			<name>@Arras95 The previously planned attack of 5th Army going ahead at Bullecourt with elite Australian troops.</name>
			<description>@Arras95 The previously planned attack of 5th Army going ahead at Bullecourt with elite Australian troops.</description>			
			<TimeStamp>
				<when>1914-04-11T08:55:01Z</when>
			</TimeStamp>
			<Point><coordinates>2.904095,50.177685,0</coordinates>
			</Point>
		</Placemark><Placemark>
			<name>@8thEastLancs 111 Brigade and other units of  of 37th Division capture Monchy-le-Preux, supported by elements of 15th (Scottish) Division.   #arras95</name>
			<description>@8thEastLancs 111 Brigade and other units of  of 37th Division capture Monchy-le-Preux, supported by elements of 15th (Scottish) Division.   #arras95</description>			
			<TimeStamp>
				<when>1914-04-11T09:00:01Z</when>
			</TimeStamp>
			<Point><coordinates>2.896,50.2701,0</coordinates>
			</Point>
		</Placemark><Placemark>
			<name>@Arras95 Report from @2ndCMR that German movement is very pronounced upon the Vimy plain this morning.</name>
			<description>@Arras95 Report from @2ndCMR that German movement is very pronounced upon the Vimy plain this morning.</description>			
			<TimeStamp>
				<when>1914-04-11T09:11:54Z</when>
			</TimeStamp>
			<Point><coordinates>2.8091,50.3725,0</coordinates>
			</Point>
		</Placemark><Placemark>
			<name>@Arras95 Report from @2ndCMR that German movement is very pronounced upon the Vimy plain this morning.</name>
			<description>@Arras95 Report from @2ndCMR that German movement is very pronounced upon the Vimy plain this morning.</description>			
			<TimeStamp>
				<when>1914-04-11T09:11:54Z</when>
			</TimeStamp>
			<Point><coordinates>2.771750,50.362407,0</coordinates>
			</Point>
		</Placemark><Placemark>
			<name>@Arras95 We're hearing that village of Monchy-le-Preux has been secured by British forces.</name>
			<description>@Arras95 We're hearing that village of Monchy-le-Preux has been secured by British forces.</description>			
			<TimeStamp>
				<when>1914-04-11T10:10:01Z</when>
			</TimeStamp>
			<Point><coordinates>2.9007,50.2655,0</coordinates>
			</Point>
		</Placemark><Placemark>
			<name>@Arras95 We're hearing that village of Monchy-le-Preux has been secured by British forces.</name>
			<description>@Arras95 We're hearing that village of Monchy-le-Preux has been secured by British forces.</description>			
			<TimeStamp>
				<when>1914-04-11T10:10:01Z</when>
			</TimeStamp>
			<Point><coordinates>2.853127,50.250698,0</coordinates>
			</Point>
		</Placemark><Placemark>
			<name>@Arras95 Earlier reports about Monchy-le-Preux prove illusory: 3 GB cavalry regiments have been shattered attacking it.</name>
			<description>@Arras95 Earlier reports about Monchy-le-Preux prove illusory: 3 GB cavalry regiments have been shattered attacking it.</description>			
			<TimeStamp>
				<when>1914-04-11T12:40:00Z</when>
			</TimeStamp>
			<Point><coordinates>2.9007,50.2655,0</coordinates>
			</Point>
		</Placemark><Placemark>
			<name>@Arras95 Earlier reports about Monchy-le-Preux prove illusory: 3 GB cavalry regiments have been shattered attacking it.</name>
			<description>@Arras95 Earlier reports about Monchy-le-Preux prove illusory: 3 GB cavalry regiments have been shattered attacking it.</description>			
			<TimeStamp>
				<when>1914-04-11T12:40:00Z</when>
			</TimeStamp>
			<Point><coordinates>2.853127,50.250698,0</coordinates>
			</Point>
		</Placemark><Placemark>
			<name>@Arras95 Dismounted cavalry troops have helped to capture Monchy-le-Preux alongside infantry. http://t.co/lByg2DB6</name>
			<description>@Arras95 Dismounted cavalry troops have helped to capture Monchy-le-Preux alongside infantry. http://t.co/lByg2DB6</description>			
			<TimeStamp>
				<when>1914-04-11T13:16:01Z</when>
			</TimeStamp>
			<Point><coordinates>2.9007,50.2655,0</coordinates>
			</Point>
		</Placemark><Placemark>
			<name>@Arras95 Dismounted cavalry troops have helped to capture Monchy-le-Preux alongside infantry. http://t.co/lByg2DB6</name>
			<description>@Arras95 Dismounted cavalry troops have helped to capture Monchy-le-Preux alongside infantry. http://t.co/lByg2DB6</description>			
			<TimeStamp>
				<when>1914-04-11T13:16:01Z</when>
			</TimeStamp>
			<Point><coordinates>2.853127,50.250698,0</coordinates>
			</Point>
		</Placemark><Placemark>
			<name>@Arras95 Seaforth Highlanders and Royal Irish Fusiliers meeting heavy machine-gun fire at chem works and village of Roeux. http://t.co/2anWmvpd</name>
			<description>@Arras95 Seaforth Highlanders and Royal Irish Fusiliers meeting heavy machine-gun fire at chem works and village of Roeux. http://t.co/2anWmvpd</description>			
			<TimeStamp>
				<when>1914-04-11T14:20:00Z</when>
			</TimeStamp>
			<Point><coordinates>2.8942,50.3038,0</coordinates>
			</Point>
		</Placemark><Placemark>
			<name>@Arras95 Seaforth Highlanders and Royal Irish Fusiliers meeting heavy machine-gun fire at chem works and village of Roeux. http://t.co/2anWmvpd</name>
			<description>@Arras95 Seaforth Highlanders and Royal Irish Fusiliers meeting heavy machine-gun fire at chem works and village of Roeux. http://t.co/2anWmvpd</description>			
			<TimeStamp>
				<when>1914-04-11T14:20:00Z</when>
			</TimeStamp>
			<Point><coordinates>2.881573,50.287810,0</coordinates>
			</Point>
		</Placemark><Placemark>
			<name>@Arras95 17-yr-old Otto Noak talks of excitement in face of fear while defending Roeux chem works. http://t.co/q9YfOjAv</name>
			<description>@Arras95 17-yr-old Otto Noak talks of excitement in face of fear while defending Roeux chem works. http://t.co/q9YfOjAv</description>			
			<TimeStamp>
				<when>1914-04-11T15:05:00Z</when>
			</TimeStamp>
			<Point><coordinates>2.881573,50.287810,0</coordinates>
			</Point>
		</Placemark><Placemark>
			<name>@Arras95 17-yr-old Otto Noak talks of excitement in face of fear while defending Roeux chem works. http://t.co/q9YfOjAv</name>
			<description>@Arras95 17-yr-old Otto Noak talks of excitement in face of fear while defending Roeux chem works. http://t.co/q9YfOjAv</description>			
			<TimeStamp>
				<when>1914-04-11T15:05:00Z</when>
			</TimeStamp>
			<Point><coordinates>2.8946,50.3029,0</coordinates>
			</Point>
		</Placemark><Placemark>
			<name>@Arras95 Reports coming through that Bullecourt attack has been disaster with 3500 Allied casualties vs 138 German deaths. http://t.co/b1GyWHLh</name>
			<description>@Arras95 Reports coming through that Bullecourt attack has been disaster with 3500 Allied casualties vs 138 German deaths. http://t.co/b1GyWHLh</description>			
			<TimeStamp>
				<when>1914-04-11T17:45:00Z</when>
			</TimeStamp>
			<Point><coordinates>2.904095,50.177685,0</coordinates>
			</Point>
		</Placemark><Placemark>
			<name>@Arras95 Reports coming through that Bullecourt attack has been disaster with 3500 Allied casualties vs 138 German deaths. http://t.co/b1GyWHLh</name>
			<description>@Arras95 Reports coming through that Bullecourt attack has been disaster with 3500 Allied casualties vs 138 German deaths. http://t.co/b1GyWHLh</description>			
			<TimeStamp>
				<when>1914-04-11T17:45:00Z</when>
			</TimeStamp>
			<Point><coordinates>2.9286,50.1936,0</coordinates>
			</Point>
		</Placemark><Placemark>
			<name>@Arras95 At Bullecourt Allies forced to retreat to own line, over 2,000 taken prisoner with largest number of Australians captured in the war.</name>
			<description>@Arras95 At Bullecourt Allies forced to retreat to own line, over 2,000 taken prisoner with largest number of Australians captured in the war.</description>			
			<TimeStamp>
				<when>1914-04-11T17:48:00Z</when>
			</TimeStamp>
			<Point><coordinates>2.9291,50.1931,0</coordinates>
			</Point>
		</Placemark><Placemark>
			<name>@Arras95 At Bullecourt Allies forced to retreat to own line, over 2,000 taken prisoner with largest number of Australians captured in the war.</name>
			<description>@Arras95 At Bullecourt Allies forced to retreat to own line, over 2,000 taken prisoner with largest number of Australians captured in the war.</description>			
			<TimeStamp>
				<when>1914-04-11T17:48:00Z</when>
			</TimeStamp>
			<Point><coordinates>2.904095,50.177685,0</coordinates>
			</Point>
		</Placemark><Placemark>
			<name>@Arras95 At the Pimple the 4th Guards Infantry Division are relieving 16th Bavarian Infantry Division units who have suffered heavy casualties.</name>
			<description>@Arras95 At the Pimple the 4th Guards Infantry Division are relieving 16th Bavarian Infantry Division units who have suffered heavy casualties.</description>			
			<TimeStamp>
				<when>1914-04-11T21:15:44Z</when>
			</TimeStamp>
			<Point><coordinates>2.721663,50.333519,0</coordinates>
			</Point>
		</Placemark><Placemark>
			<name>@Arras95 At the Pimple the 4th Guards Infantry Division are relieving 16th Bavarian Infantry Division units who have suffered heavy casualties.</name>
			<description>@Arras95 At the Pimple the 4th Guards Infantry Division are relieving 16th Bavarian Infantry Division units who have suffered heavy casualties.</description>			
			<TimeStamp>
				<when>1914-04-11T21:15:44Z</when>
			</TimeStamp>
			<Point><coordinates>2.7622,50.3779,0</coordinates>
			</Point>
		</Placemark><Placemark>
			<name>@Arras95 Breaking: Gas section of Royal Engineers have fired 40+ drums of gas directly into the town of Givenchy-en-Gohelle. using Livens Projectors.</name>
			<description>@Arras95 Breaking: Gas section of Royal Engineers have fired 40+ drums of gas directly into the town of Givenchy-en-Gohelle. using Livens Projectors.</description>			
			<TimeStamp>
				<when>1914-04-12T02:45:01Z</when>
			</TimeStamp>
			<Point><coordinates>2.7725,50.3914,0</coordinates>
			</Point>
		</Placemark><Placemark>
			<name>@Arras95 Breaking: Gas section of Royal Engineers have fired 40+ drums of gas directly into the town of Givenchy-en-Gohelle. using Livens Projectors.</name>
			<description>@Arras95 Breaking: Gas section of Royal Engineers have fired 40+ drums of gas directly into the town of Givenchy-en-Gohelle. using Livens Projectors.</description>			
			<TimeStamp>
				<when>1914-04-12T02:45:01Z</when>
			</TimeStamp>
			<Point><coordinates>2.757974,50.376473,0</coordinates>
			</Point>
		</Placemark><Placemark>
			<name>@Arras95 Defending German troops are driving back Canadian assaults at the Pimple.</name>
			<description>@Arras95 Defending German troops are driving back Canadian assaults at the Pimple.</description>			
			<TimeStamp>
				<when>1914-04-12T03:00:06Z</when>
			</TimeStamp>
			<Point><coordinates>2.721663,50.333519,0</coordinates>
			</Point>
		</Placemark><Placemark>
			<name>@Arras95 Defending German troops are driving back Canadian assaults at the Pimple.</name>
			<description>@Arras95 Defending German troops are driving back Canadian assaults at the Pimple.</description>			
			<TimeStamp>
				<when>1914-04-12T03:00:06Z</when>
			</TimeStamp>
			<Point><coordinates>2.7622,50.3779,0</coordinates>
			</Point>
		</Placemark><Placemark>
			<name>@Arras95 The 10th CA Brigade attacking again supported by a significant amount of artillery and the 24th British Division of I Corps.</name>
			<description>@Arras95 The 10th CA Brigade attacking again supported by a significant amount of artillery and the 24th British Division of I Corps.</description>			
			<TimeStamp>
				<when>1914-04-12T04:00:01Z</when>
			</TimeStamp>
			<Point><coordinates>2.7622,50.3779,0</coordinates>
			</Point>
		</Placemark><Placemark>
			<name>@Arras95 The 10th CA Brigade attacking again supported by a significant amount of artillery and the 24th British Division of I Corps.</name>
			<description>@Arras95 The 10th CA Brigade attacking again supported by a significant amount of artillery and the 24th British Division of I Corps.</description>			
			<TimeStamp>
				<when>1914-04-12T04:00:01Z</when>
			</TimeStamp>
			<Point><coordinates>2.721663,50.333519,0</coordinates>
			</Point>
		</Placemark><Placemark>
			<name>@Arras95 Breaking: hospital at Carniers nearly overwhelmed with the wounded. http://t.co/kOT8D0s1</name>
			<description>@Arras95 Breaking: hospital at Carniers nearly overwhelmed with the wounded. http://t.co/kOT8D0s1</description>			
			<TimeStamp>
				<when>1914-04-12T07:30:00Z</when>
			</TimeStamp>
			<Point><coordinates>1.6154,50.5702,0</coordinates>
			</Point>
		</Placemark><Placemark>
			<name>@Arras95 Breaking: hospital at Carniers nearly overwhelmed with the wounded. http://t.co/kOT8D0s1</name>
			<description>@Arras95 Breaking: hospital at Carniers nearly overwhelmed with the wounded. http://t.co/kOT8D0s1</description>			
			<TimeStamp>
				<when>1914-04-12T07:30:00Z</when>
			</TimeStamp>
			<Point><coordinates>1.5765213,50.5390132,0</coordinates>
			</Point>
		</Placemark><Placemark>
			<name>@Arras95 Siegfried Sassoon sent w/ 2nd Royal Welch Fusiliers to St Martin-sur-Cojeul, a mile from the Hindenburg Line. http://t.co/2XLcClVS</name>
			<description>@Arras95 Siegfried Sassoon sent w/ 2nd Royal Welch Fusiliers to St Martin-sur-Cojeul, a mile from the Hindenburg Line. http://t.co/2XLcClVS</description>			
			<TimeStamp>
				<when>1914-04-12T07:46:00Z</when>
			</TimeStamp>
			<Point><coordinates>2.832929,50.214234,0</coordinates>
			</Point>
		</Placemark><Placemark>
			<name>@Arras95 Siegfried Sassoon sent w/ 2nd Royal Welch Fusiliers to St Martin-sur-Cojeul, a mile from the Hindenburg Line. http://t.co/2XLcClVS</name>
			<description>@Arras95 Siegfried Sassoon sent w/ 2nd Royal Welch Fusiliers to St Martin-sur-Cojeul, a mile from the Hindenburg Line. http://t.co/2XLcClVS</description>			
			<TimeStamp>
				<when>1914-04-12T07:46:00Z</when>
			</TimeStamp>
			<Point><coordinates>2.8559,50.2296,0</coordinates>
			</Point>
		</Placemark><Placemark>
			<name>@Arras95 Carniers Hospital grossly understaffed: 1 Staff Nurse, 1 VAD nurse and 2 orderlies for every 52 beds.</name>
			<description>@Arras95 Carniers Hospital grossly understaffed: 1 Staff Nurse, 1 VAD nurse and 2 orderlies for every 52 beds.</description>			
			<TimeStamp>
				<when>1914-04-12T09:05:01Z</when>
			</TimeStamp>
			<Point><coordinates>1.576380,50.539013,0</coordinates>
			</Point>
		</Placemark><Placemark>
			<name>@Arras95 Carniers Hospital grossly understaffed: 1 Staff Nurse, 1 VAD nurse and 2 orderlies for every 52 beds.</name>
			<description>@Arras95 Carniers Hospital grossly understaffed: 1 Staff Nurse, 1 VAD nurse and 2 orderlies for every 52 beds.</description>			
			<TimeStamp>
				<when>1914-04-12T09:05:01Z</when>
			</TimeStamp>
			<Point><coordinates>1.6154,50.5702,0</coordinates>
			</Point>
		</Placemark><Placemark>
			<name>@Arras95 In heavy snow the Canadian Corps  are breaking into the German positions at the Pimple.</name>
			<description>@Arras95 In heavy snow the Canadian Corps  are breaking into the German positions at the Pimple.</description>			
			<TimeStamp>
				<when>1914-04-12T10:00:05Z</when>
			</TimeStamp>
			<Point><coordinates>2.7622,50.3779,0</coordinates>
			</Point>
		</Placemark><Placemark>
			<name>@Arras95 In heavy snow the Canadian Corps  are breaking into the German positions at the Pimple.</name>
			<description>@Arras95 In heavy snow the Canadian Corps  are breaking into the German positions at the Pimple.</description>			
			<TimeStamp>
				<when>1914-04-12T10:00:05Z</when>
			</TimeStamp>
			<Point><coordinates>2.721663,50.333519,0</coordinates>
			</Point>
		</Placemark><Placemark>
			<name>@Arras95 Thanks @DrillHalls. Camiers Hospital nearly overwhelmed with the wounded and drastically understaffed. #arras95</name>
			<description>@Arras95 Thanks @DrillHalls. Camiers Hospital nearly overwhelmed with the wounded and drastically understaffed. #arras95</description>			
			<TimeStamp>
				<when>1914-04-12T10:21:02Z</when>
			</TimeStamp>
			<Point><coordinates>1.576380,50.539013,0</coordinates>
			</Point>
		</Placemark><Placemark>
			<name>@Arras95 Thanks @DrillHalls. Camiers Hospital nearly overwhelmed with the wounded and drastically understaffed. #arras95</name>
			<description>@Arras95 Thanks @DrillHalls. Camiers Hospital nearly overwhelmed with the wounded and drastically understaffed. #arras95</description>			
			<TimeStamp>
				<when>1914-04-12T10:21:02Z</when>
			</TimeStamp>
			<Point><coordinates>1.6151,50.5684,0</coordinates>
			</Point>
		</Placemark><Placemark>
			<name>@Arras95 Hospital at Camiers nearly overwhelmed with the wounded. http://t.co/kOT8D0s1</name>
			<description>@Arras95 Hospital at Camiers nearly overwhelmed with the wounded. http://t.co/kOT8D0s1</description>			
			<TimeStamp>
				<when>1914-04-12T10:22:27Z</when>
			</TimeStamp>
			<Point><coordinates>1.576380,50.539013,0</coordinates>
			</Point>
		</Placemark><Placemark>
			<name>@Arras95 Hospital at Camiers nearly overwhelmed with the wounded. http://t.co/kOT8D0s1</name>
			<description>@Arras95 Hospital at Camiers nearly overwhelmed with the wounded. http://t.co/kOT8D0s1</description>			
			<TimeStamp>
				<when>1914-04-12T10:22:27Z</when>
			</TimeStamp>
			<Point><coordinates>1.6151,50.5684,0</coordinates>
			</Point>
		</Placemark><Placemark>
			<name>@researchglobal RT @sommecourt: Just driving through the Arras battlefields - 95 years later all is quiet #Arras95</name>
			<description>@researchglobal RT @sommecourt: Just driving through the Arras battlefields - 95 years later all is quiet #Arras95</description>			
			<TimeStamp>
				<when>1914-04-12T11:11:21Z</when>
			</TimeStamp>
			<Point><coordinates>-82.326,28.2989,0</coordinates>
			</Point>
		</Placemark><Placemark>
			<name>@Arras95 Just in: S. African Brigade has captured chem works north of Roeux but has been decimated by German artillery. http://t.co/3FtHv9xI</name>
			<description>@Arras95 Just in: S. African Brigade has captured chem works north of Roeux but has been decimated by German artillery. http://t.co/3FtHv9xI</description>			
			<TimeStamp>
				<when>1914-04-12T13:50:00Z</when>
			</TimeStamp>
			<Point><coordinates>2.844357,50.277309,0</coordinates>
			</Point>
		</Placemark><Placemark>
			<name>@Arras95 Just in: S. African Brigade has captured chem works north of Roeux but has been decimated by German artillery. http://t.co/3FtHv9xI</name>
			<description>@Arras95 Just in: S. African Brigade has captured chem works north of Roeux but has been decimated by German artillery. http://t.co/3FtHv9xI</description>			
			<TimeStamp>
				<when>1914-04-12T13:50:00Z</when>
			</TimeStamp>
			<Point><coordinates>2.8689,50.3024,0</coordinates>
			</Point>
		</Placemark><Placemark>
			<name>@sommecourt Rainbow over Vimy Ridge #Arras95  @ Ste Catherine Arras http://t.co/2H2ZEn1U</name>
			<description>@sommecourt Rainbow over Vimy Ridge #Arras95  @ Ste Catherine Arras http://t.co/2H2ZEn1U</description>			
			<TimeStamp>
				<when>1914-04-12T15:45:44Z</when>
			</TimeStamp>
			<Point><coordinates>2.7702,50.2965,0</coordinates>
			</Point>
		</Placemark><Placemark>
			<name>@Arras95 More coming in on Vimy Ridge capture: CA divisions take 4,000 prisoners and 54 guns. http://t.co/2Kx5ubi6</name>
			<description>@Arras95 More coming in on Vimy Ridge capture: CA divisions take 4,000 prisoners and 54 guns. http://t.co/2Kx5ubi6</description>			
			<TimeStamp>
				<when>1914-04-12T16:50:00Z</when>
			</TimeStamp>
			<Point><coordinates>2.7739,50.3796,0</coordinates>
			</Point>
		</Placemark><Placemark>
			<name>@Arras95 More coming in on Vimy Ridge capture: CA divisions take 4,000 prisoners and 54 guns. http://t.co/2Kx5ubi6</name>
			<description>@Arras95 More coming in on Vimy Ridge capture: CA divisions take 4,000 prisoners and 54 guns. http://t.co/2Kx5ubi6</description>			
			<TimeStamp>
				<when>1914-04-12T16:50:00Z</when>
			</TimeStamp>
			<Point><coordinates>2.757974,50.376473,0</coordinates>
			</Point>
		</Placemark><Placemark>
			<name>@Arras95 We can now confirm that the Canadians are firmly in control of Vimy Ridge.</name>
			<description>@Arras95 We can now confirm that the Canadians are firmly in control of Vimy Ridge.</description>			
			<TimeStamp>
				<when>1914-04-12T17:10:01Z</when>
			</TimeStamp>
			<Point><coordinates>2.757974,50.376473,0</coordinates>
			</Point>
		</Placemark><Placemark>
			<name>@Arras95 We can now confirm that the Canadians are firmly in control of Vimy Ridge.</name>
			<description>@Arras95 We can now confirm that the Canadians are firmly in control of Vimy Ridge.</description>			
			<TimeStamp>
				<when>1914-04-12T17:10:01Z</when>
			</TimeStamp>
			<Point><coordinates>2.7739,50.3796,0</coordinates>
			</Point>
		</Placemark><Placemark>
			<name>@Arras95 CA Corps suffered 10,602 casualties: 3,598 killed and 7,004 wounded. Unsure if number of DE causulties in Battle of Vimy Ridge.</name>
			<description>@Arras95 CA Corps suffered 10,602 casualties: 3,598 killed and 7,004 wounded. Unsure if number of DE causulties in Battle of Vimy Ridge.</description>			
			<TimeStamp>
				<when>1914-04-12T20:02:00Z</when>
			</TimeStamp>
			<Point><coordinates>2.771750,50.362407,0</coordinates>
			</Point>
		</Placemark><Placemark>
			<name>@Arras95 German reinforcements pouring into line, arresting British advance. http://t.co/SsSG8pDV</name>
			<description>@Arras95 German reinforcements pouring into line, arresting British advance. http://t.co/SsSG8pDV</description>			
			<TimeStamp>
				<when>1914-04-13T13:52:01Z</when>
			</TimeStamp>
			<Point><coordinates>2.825806,50.270683,0</coordinates>
			</Point>
		</Placemark><Placemark>
			<name>@Arras95 German reinforcements pouring into line, arresting British advance. http://t.co/SsSG8pDV</name>
			<description>@Arras95 German reinforcements pouring into line, arresting British advance. http://t.co/SsSG8pDV</description>			
			<TimeStamp>
				<when>1914-04-13T13:52:01Z</when>
			</TimeStamp>
			<Point><coordinates>2.845,50.2946,0</coordinates>
			</Point>
		</Placemark><Placemark>
			<name>@8thEastLancs Finally from Monchy, a defining image of a Mark I tank alongside cavalry - last of the true 'War Horses' http://t.co/gUB9dWHe  #arras95</name>
			<description>@8thEastLancs Finally from Monchy, a defining image of a Mark I tank alongside cavalry - last of the true 'War Horses' http://t.co/gUB9dWHe  #arras95</description>			
			<TimeStamp>
				<when>1914-04-13T22:19:43Z</when>
			</TimeStamp>
			<Point><coordinates>2.4692,50.3104,0</coordinates>
			</Point>
		</Placemark><Placemark>
			<name>@Arras95 Newfoundlanders and the 1st Essex are pushing back 25th Bavarian Regiment from east of Monchy-le-Preux.</name>
			<description>@Arras95 Newfoundlanders and the 1st Essex are pushing back 25th Bavarian Regiment from east of Monchy-le-Preux.</description>			
			<TimeStamp>
				<when>1914-04-14T06:52:01Z</when>
			</TimeStamp>
			<Point><coordinates>2.853127,50.250698,0</coordinates>
			</Point>
		</Placemark><Placemark>
			<name>@Arras95 Newfoundlanders and the 1st Essex are pushing back 25th Bavarian Regiment from east of Monchy-le-Preux.</name>
			<description>@Arras95 Newfoundlanders and the 1st Essex are pushing back 25th Bavarian Regiment from east of Monchy-le-Preux.</description>			
			<TimeStamp>
				<when>1914-04-14T06:52:01Z</when>
			</TimeStamp>
			<Point><coordinates>2.9004,50.2657,0</coordinates>
			</Point>
		</Placemark><Placemark>
			<name>@Arras95 Bavarians providing strong counter-attack; both Newfoundlanders and 1st Essex suffering badly.</name>
			<description>@Arras95 Bavarians providing strong counter-attack; both Newfoundlanders and 1st Essex suffering badly.</description>			
			<TimeStamp>
				<when>1914-04-14T07:54:01Z</when>
			</TimeStamp>
			<Point><coordinates>2.853127,50.250698,0</coordinates>
			</Point>
		</Placemark><Placemark>
			<name>@Arras95 Bavarians providing strong counter-attack; both Newfoundlanders and 1st Essex suffering badly.</name>
			<description>@Arras95 Bavarians providing strong counter-attack; both Newfoundlanders and 1st Essex suffering badly.</description>			
			<TimeStamp>
				<when>1914-04-14T07:54:01Z</when>
			</TimeStamp>
			<Point><coordinates>2.9004,50.2657,0</coordinates>
			</Point>
		</Placemark><Placemark>
			<name>@Arras95 Update: Newfoundlanders and 1st Essex destroyed by Bavarian counter-attack. http://t.co/MuVbzBT0</name>
			<description>@Arras95 Update: Newfoundlanders and 1st Essex destroyed by Bavarian counter-attack. http://t.co/MuVbzBT0</description>			
			<TimeStamp>
				<when>1914-04-14T08:55:01Z</when>
			</TimeStamp>
			<Point><coordinates>2.9004,50.2657,0</coordinates>
			</Point>
		</Placemark><Placemark>
			<name>@Arras95 Update: Newfoundlanders and 1st Essex destroyed by Bavarian counter-attack. http://t.co/MuVbzBT0</name>
			<description>@Arras95 Update: Newfoundlanders and 1st Essex destroyed by Bavarian counter-attack. http://t.co/MuVbzBT0</description>			
			<TimeStamp>
				<when>1914-04-14T08:55:01Z</when>
			</TimeStamp>
			<Point><coordinates>2.853127,50.250698,0</coordinates>
			</Point>
		</Placemark><Placemark>
			<name>@8thEastLancs 'Battalion marched to billets in AMBRINES and rested for two days.'  #arras95</name>
			<description>@8thEastLancs 'Battalion marched to billets in AMBRINES and rested for two days.'  #arras95</description>			
			<TimeStamp>
				<when>1914-04-14T09:00:06Z</when>
			</TimeStamp>
			<Point><coordinates>2.4692,50.3104,0</coordinates>
			</Point>
		</Placemark><Placemark>
			<name>@Arras95 5th Army update: German counter-attack on Australians in Lagnicourt. Will keep you updated.</name>
			<description>@Arras95 5th Army update: German counter-attack on Australians in Lagnicourt. Will keep you updated.</description>			
			<TimeStamp>
				<when>1914-04-15T07:57:01Z</when>
			</TimeStamp>
			<Point><coordinates>2.9574,50.1574,0</coordinates>
			</Point>
		</Placemark><Placemark>
			<name>@Arras95 5th Army update: German counter-attack on Australians in Lagnicourt. Will keep you updated.</name>
			<description>@Arras95 5th Army update: German counter-attack on Australians in Lagnicourt. Will keep you updated.</description>			
			<TimeStamp>
				<when>1914-04-15T07:57:01Z</when>
			</TimeStamp>
			<Point><coordinates>2.927177,50.141972,0</coordinates>
			</Point>
		</Placemark><Placemark>
			<name>@Arras95 Germans repulsed at Lagnicourt, suffer 2,300 casualties to Australians’ 1,000. http://t.co/1OhhnKZQ</name>
			<description>@Arras95 Germans repulsed at Lagnicourt, suffer 2,300 casualties to Australians’ 1,000. http://t.co/1OhhnKZQ</description>			
			<TimeStamp>
				<when>1914-04-15T10:42:00Z</when>
			</TimeStamp>
			<Point><coordinates>2.927177,50.141972,0</coordinates>
			</Point>
		</Placemark><Placemark>
			<name>@Arras95 Germans repulsed at Lagnicourt, suffer 2,300 casualties to Australians’ 1,000. http://t.co/1OhhnKZQ</name>
			<description>@Arras95 Germans repulsed at Lagnicourt, suffer 2,300 casualties to Australians’ 1,000. http://t.co/1OhhnKZQ</description>			
			<TimeStamp>
				<when>1914-04-15T10:42:00Z</when>
			</TimeStamp>
			<Point><coordinates>2.9574,50.1574,0</coordinates>
			</Point>
		</Placemark><Placemark>
			<name>@Arras95 Breaking: French offensive on the Aisne has been launched, led by Gen. Nivelle.</name>
			<description>@Arras95 Breaking: French offensive on the Aisne has been launched, led by Gen. Nivelle.</description>			
			<TimeStamp>
				<when>1914-04-16T04:30:00Z</when>
			</TimeStamp>
			<Point><coordinates>3.674870,49.406627,0</coordinates>
			</Point>
		</Placemark><Placemark>
			<name>@Arras95 Breaking: French offensive on the Aisne has been launched, led by Gen. Nivelle.</name>
			<description>@Arras95 Breaking: French offensive on the Aisne has been launched, led by Gen. Nivelle.</description>			
			<TimeStamp>
				<when>1914-04-16T04:30:00Z</when>
			</TimeStamp>
			<Point><coordinates>3.707,49.4417,0</coordinates>
			</Point>
		</Placemark><Placemark>
			<name>@Arras95 Senegalese units suffering especially high casualties in French offensive. http://t.co/SKqkpdyL</name>
			<description>@Arras95 Senegalese units suffering especially high casualties in French offensive. http://t.co/SKqkpdyL</description>			
			<TimeStamp>
				<when>1914-04-16T09:05:00Z</when>
			</TimeStamp>
			<Point><coordinates>3.674870,49.406627,0</coordinates>
			</Point>
		</Placemark><Placemark>
			<name>@Arras95 Senegalese units suffering especially high casualties in French offensive. http://t.co/SKqkpdyL</name>
			<description>@Arras95 Senegalese units suffering especially high casualties in French offensive. http://t.co/SKqkpdyL</description>			
			<TimeStamp>
				<when>1914-04-16T09:05:00Z</when>
			</TimeStamp>
			<Point><coordinates>3.707,49.4417,0</coordinates>
			</Point>
		</Placemark><Placemark>
			<name>@Arras95 Poor planning: Gen. Nivelle predicted 15,000 losses, actual number around 100,000 men.</name>
			<description>@Arras95 Poor planning: Gen. Nivelle predicted 15,000 losses, actual number around 100,000 men.</description>			
			<TimeStamp>
				<when>1914-04-16T11:27:01Z</when>
			</TimeStamp>
			<Point><coordinates>3.674870,49.406627,0</coordinates>
			</Point>
		</Placemark><Placemark>
			<name>@Arras95 Poor planning: Gen. Nivelle predicted 15,000 losses, actual number around 100,000 men.</name>
			<description>@Arras95 Poor planning: Gen. Nivelle predicted 15,000 losses, actual number around 100,000 men.</description>			
			<TimeStamp>
				<when>1914-04-16T11:27:01Z</when>
			</TimeStamp>
			<Point><coordinates>3.707,49.4417,0</coordinates>
			</Point>
		</Placemark><Placemark>
			<name>@Arras95 Bad handling: 20 French divisions advance 600 yards, promised an advance of 6 miles.</name>
			<description>@Arras95 Bad handling: 20 French divisions advance 600 yards, promised an advance of 6 miles.</description>			
			<TimeStamp>
				<when>1914-04-16T15:15:01Z</when>
			</TimeStamp>
			<Point><coordinates>3.707,49.4417,0</coordinates>
			</Point>
		</Placemark><Placemark>
			<name>@Arras95 Bad handling: 20 French divisions advance 600 yards, promised an advance of 6 miles.</name>
			<description>@Arras95 Bad handling: 20 French divisions advance 600 yards, promised an advance of 6 miles.</description>			
			<TimeStamp>
				<when>1914-04-16T15:15:01Z</when>
			</TimeStamp>
			<Point><coordinates>3.674870,49.406627,0</coordinates>
			</Point>
		</Placemark><Placemark>
			<name>@Arras95 Breaking: poet Siegfried Sassoon has been shot in the shoulder. http://t.co/EOhyzGyp</name>
			<description>@Arras95 Breaking: poet Siegfried Sassoon has been shot in the shoulder. http://t.co/EOhyzGyp</description>			
			<TimeStamp>
				<when>1914-04-16T17:28:00Z</when>
			</TimeStamp>
			<Point><coordinates>2.853043,50.172702,0</coordinates>
			</Point>
		</Placemark><Placemark>
			<name>@Arras95 Breaking: poet Siegfried Sassoon has been shot in the shoulder. http://t.co/EOhyzGyp</name>
			<description>@Arras95 Breaking: poet Siegfried Sassoon has been shot in the shoulder. http://t.co/EOhyzGyp</description>			
			<TimeStamp>
				<when>1914-04-16T17:28:00Z</when>
			</TimeStamp>
			<Point><coordinates>2.8686,50.205,0</coordinates>
			</Point>
		</Placemark><Placemark>
			<name>@Arras95 Hearing that the French have suffered over 40,000 casualties and lost 150 tanks today alone.</name>
			<description>@Arras95 Hearing that the French have suffered over 40,000 casualties and lost 150 tanks today alone.</description>			
			<TimeStamp>
				<when>1914-04-16T21:38:20Z</when>
			</TimeStamp>
			<Point><coordinates>3.638914,49.286104,0</coordinates>
			</Point>
		</Placemark><Placemark>
			<name>@Arras95 Hearing that the French have suffered over 40,000 casualties and lost 150 tanks today alone.</name>
			<description>@Arras95 Hearing that the French have suffered over 40,000 casualties and lost 150 tanks today alone.</description>			
			<TimeStamp>
				<when>1914-04-16T21:38:20Z</when>
			</TimeStamp>
			<Point><coordinates>3.653,49.3051,0</coordinates>
			</Point>
		</Placemark><Placemark>
			<name>@8thEastLancs High expectations render Nivelle's seven km gain a failure. French Army mutinies begin early in May.  #arras95 #ww1</name>
			<description>@8thEastLancs High expectations render Nivelle's seven km gain a failure. French Army mutinies begin early in May.  #arras95 #ww1</description>			
			<TimeStamp>
				<when>1914-04-16T21:51:51Z</when>
			</TimeStamp>
			<Point><coordinates>2.4927,50.3181,0</coordinates>
			</Point>
		</Placemark><Placemark>
			<name>@Arras95 The French 4th army, led by François Anthoine, has launched an attack east of Reims towards Moronvilliers. http://t.co/Kg35xTf8</name>
			<description>@Arras95 The French 4th army, led by François Anthoine, has launched an attack east of Reims towards Moronvilliers. http://t.co/Kg35xTf8</description>			
			<TimeStamp>
				<when>1914-04-17T06:45:02Z</when>
			</TimeStamp>
			<Point><coordinates>4.1196,49.2709,0</coordinates>
			</Point>
		</Placemark><Placemark>
			<name>@Arras95 The French 4th army, led by François Anthoine, has launched an attack east of Reims towards Moronvilliers. http://t.co/Kg35xTf8</name>
			<description>@Arras95 The French 4th army, led by François Anthoine, has launched an attack east of Reims towards Moronvilliers. http://t.co/Kg35xTf8</description>			
			<TimeStamp>
				<when>1914-04-17T06:45:02Z</when>
			</TimeStamp>
			<Point><coordinates>4.078016,49.220029,0</coordinates>
			</Point>
		</Placemark><Placemark>
			<name>@8thEastLancs 'Battalion marched to billets in Villers-Sir-Simon and rested two days.' Still no working parties, but training at a guess. #arras95</name>
			<description>@8thEastLancs 'Battalion marched to billets in Villers-Sir-Simon and rested two days.' Still no working parties, but training at a guess. #arras95</description>			
			<TimeStamp>
				<when>1914-04-17T11:00:07Z</when>
			</TimeStamp>
			<Point><coordinates>2.4927,50.3181,0</coordinates>
			</Point>
		</Placemark><Placemark>
			<name>@Arras95 Sgt Albert White has charged a German machine gun single-handed; he saved operation but lost his own life. http://t.co/i5gT7Rb4</name>
			<description>@Arras95 Sgt Albert White has charged a German machine gun single-handed; he saved operation but lost his own life. http://t.co/i5gT7Rb4</description>			
			<TimeStamp>
				<when>1914-04-19T09:05:01Z</when>
			</TimeStamp>
			<Point><coordinates>2.853127,50.250698,0</coordinates>
			</Point>
		</Placemark><Placemark>
			<name>@Arras95 Sgt Albert White has charged a German machine gun single-handed; he saved operation but lost his own life. http://t.co/i5gT7Rb4</name>
			<description>@Arras95 Sgt Albert White has charged a German machine gun single-handed; he saved operation but lost his own life. http://t.co/i5gT7Rb4</description>			
			<TimeStamp>
				<when>1914-04-19T09:05:01Z</when>
			</TimeStamp>
			<Point><coordinates>2.9007,50.2655,0</coordinates>
			</Point>
		</Placemark><Placemark>
			<name>@8thEastLancs 'Battalion moved to LATTRE ST QUENTIN and rested two night.'  #arras95</name>
			<description>@8thEastLancs 'Battalion moved to LATTRE ST QUENTIN and rested two night.'  #arras95</description>			
			<TimeStamp>
				<when>1914-04-19T13:00:04Z</when>
			</TimeStamp>
			<Point><coordinates>2.5792,50.2888,0</coordinates>
			</Point>
		</Placemark><Placemark>
			<name>@Arras95 Interview with John Hamilton Close, wounded at Vimy http://t.co/arPYp5w4</name>
			<description>@Arras95 Interview with John Hamilton Close, wounded at Vimy http://t.co/arPYp5w4</description>			
			<TimeStamp>
				<when>1914-04-20T09:33:34Z</when>
			</TimeStamp>
			<Point><coordinates>2.771750,50.362407,0</coordinates>
			</Point>
		</Placemark><Placemark>
			<name>@Arras95 Interview with John Hamilton Close, wounded at Vimy http://t.co/arPYp5w4</name>
			<description>@Arras95 Interview with John Hamilton Close, wounded at Vimy http://t.co/arPYp5w4</description>			
			<TimeStamp>
				<when>1914-04-20T09:33:34Z</when>
			</TimeStamp>
			<Point><coordinates>2.8104,50.374,0</coordinates>
			</Point>
		</Placemark><Placemark>
			<name>@Arras95 Of 11 Heart of Midlothian FC members who enlisted together in 1914, Sgt J Allen, the 7th to fall, was killed today. http://t.co/Iw4JmH27</name>
			<description>@Arras95 Of 11 Heart of Midlothian FC members who enlisted together in 1914, Sgt J Allen, the 7th to fall, was killed today. http://t.co/Iw4JmH27</description>			
			<TimeStamp>
				<when>1914-04-20T15:55:01Z</when>
			</TimeStamp>
			<Point><coordinates>2.844357,50.277309,0</coordinates>
			</Point>
		</Placemark><Placemark>
			<name>@Arras95 French offensive has captured a salient 4 miles deep; however, this only shortens the line the Germans have to defend. #Arras95</name>
			<description>@Arras95 French offensive has captured a salient 4 miles deep; however, this only shortens the line the Germans have to defend. #Arras95</description>			
			<TimeStamp>
				<when>1914-04-20T19:45:01Z</when>
			</TimeStamp>
			<Point><coordinates>2.844357,50.277309,0</coordinates>
			</Point>
		</Placemark><Placemark>
			<name>@Arras95 Br. 3rd Army holds on to the ground captured during slow and terribly costly advance east of Fampoux.</name>
			<description>@Arras95 Br. 3rd Army holds on to the ground captured during slow and terribly costly advance east of Fampoux.</description>			
			<TimeStamp>
				<when>1914-04-21T08:40:01Z</when>
			</TimeStamp>
			<Point><coordinates>2.881573,50.287810,0</coordinates>
			</Point>
		</Placemark><Placemark>
			<name>@Arras95 Clear skies today allow Royal Flying Corps to attempt photographic missions over Drocourt. http://t.co/dMoOPSWE</name>
			<description>@Arras95 Clear skies today allow Royal Flying Corps to attempt photographic missions over Drocourt. http://t.co/dMoOPSWE</description>			
			<TimeStamp>
				<when>1914-04-22T08:20:01Z</when>
			</TimeStamp>
			<Point><coordinates>2.917224,50.378496,0</coordinates>
			</Point>
		</Placemark><Placemark>
			<name>@Arras95 Royal Flying Corps report unsuccessful photographic mission over Drocourt: only one of six aircraft has returned.</name>
			<description>@Arras95 Royal Flying Corps report unsuccessful photographic mission over Drocourt: only one of six aircraft has returned.</description>			
			<TimeStamp>
				<when>1914-04-22T18:50:00Z</when>
			</TimeStamp>
			<Point><coordinates>2.917224,50.378496,0</coordinates>
			</Point>
		</Placemark><Placemark>
			<name>@Arras95 News coming in that he British have launched an assault east from Wancourt towards Vis-en-Artois initiating the Second Battle of the Scarpe.</name>
			<description>@Arras95 News coming in that he British have launched an assault east from Wancourt towards Vis-en-Artois initiating the Second Battle of the Scarpe.</description>			
			<TimeStamp>
				<when>1914-04-23T04:00:02Z</when>
			</TimeStamp>
			<Point><coordinates>2.874846,50.238044,0</coordinates>
			</Point>
		</Placemark><Placemark>
			<name>@Arras95 3rd Army has ordered another attack at Roeux by 154 Brigade and 51st (Highland) Division http://t.co/CIri1WIu</name>
			<description>@Arras95 3rd Army has ordered another attack at Roeux by 154 Brigade and 51st (Highland) Division http://t.co/CIri1WIu</description>			
			<TimeStamp>
				<when>1914-04-23T04:50:00Z</when>
			</TimeStamp>
			<Point><coordinates>2.881573,50.287810,0</coordinates>
			</Point>
		</Placemark><Placemark>
			<name>@Arras95 German forces are counterattacking in an attempt to recapture Monchy-le-Preux.</name>
			<description>@Arras95 German forces are counterattacking in an attempt to recapture Monchy-le-Preux.</description>			
			<TimeStamp>
				<when>1914-04-23T06:20:01Z</when>
			</TimeStamp>
			<Point><coordinates>2.853127,50.250698,0</coordinates>
			</Point>
		</Placemark><Placemark>
			<name>@Arras95 News from Roeux: 154 Brigade has attacked south of the railway line and made some progress into the village but counterattack is fierce.</name>
			<description>@Arras95 News from Roeux: 154 Brigade has attacked south of the railway line and made some progress into the village but counterattack is fierce.</description>			
			<TimeStamp>
				<when>1914-04-23T08:50:00Z</when>
			</TimeStamp>
			<Point><coordinates>2.881573,50.287810,0</coordinates>
			</Point>
		</Placemark><Placemark>
			<name>@Arras95 63rd (Royal Naval) Division have pushed into the small but strategic village of Gavrelle. http://t.co/aislpUGb</name>
			<description>@Arras95 63rd (Royal Naval) Division have pushed into the small but strategic village of Gavrelle. http://t.co/aislpUGb</description>			
			<TimeStamp>
				<when>1914-04-23T09:45:00Z</when>
			</TimeStamp>
			<Point><coordinates>2.848707,50.312337,0</coordinates>
			</Point>
		</Placemark><Placemark>
			<name>@Arras95 Just in from Gavrelle assault: son of former PM, Cdr Arthur Asquith, to send back droves of shell-dazed prisoners.</name>
			<description>@Arras95 Just in from Gavrelle assault: son of former PM, Cdr Arthur Asquith, to send back droves of shell-dazed prisoners.</description>			
			<TimeStamp>
				<when>1914-04-23T09:55:00Z</when>
			</TimeStamp>
			<Point><coordinates>2.848707,50.312337,0</coordinates>
			</Point>
		</Placemark><Placemark>
			<name>@Arras95 Murderous house-to-house combat has erupted at Gavrelle between British and Germans.</name>
			<description>@Arras95 Murderous house-to-house combat has erupted at Gavrelle between British and Germans.</description>			
			<TimeStamp>
				<when>1914-04-23T12:50:00Z</when>
			</TimeStamp>
			<Point><coordinates>2.848707,50.312337,0</coordinates>
			</Point>
		</Placemark><Placemark>
			<name>@Arras95 Germans are reporting a failure of the British troops in Rouex sector to resist counter attacks. Casualties high.</name>
			<description>@Arras95 Germans are reporting a failure of the British troops in Rouex sector to resist counter attacks. Casualties high.</description>			
			<TimeStamp>
				<when>1914-04-23T15:20:00Z</when>
			</TimeStamp>
			<Point><coordinates>2.881573,50.287810,0</coordinates>
			</Point>
		</Placemark><Placemark>
			<name>@Arras95 Br. 3rd Army secures village of Guémappe but can advance no further and suffers heavy losses http://t.co/77k4qmLQ</name>
			<description>@Arras95 Br. 3rd Army secures village of Guémappe but can advance no further and suffers heavy losses http://t.co/77k4qmLQ</description>			
			<TimeStamp>
				<when>1914-04-23T17:40:00Z</when>
			</TimeStamp>
			<Point><coordinates>2.874846,50.238044,0</coordinates>
			</Point>
		</Placemark><Placemark>
			<name>@Arras95 Roeux attack has been unsuccessful: increasingly powerful German attack inflicts 2,000 casualties.</name>
			<description>@Arras95 Roeux attack has been unsuccessful: increasingly powerful German attack inflicts 2,000 casualties.</description>			
			<TimeStamp>
				<when>1914-04-23T21:10:01Z</when>
			</TimeStamp>
			<Point><coordinates>2.881573,50.287810,0</coordinates>
			</Point>
		</Placemark><Placemark>
			<name>@Arras95 Cornish troops establish themselves on the railway loop near Fresnoy. http://t.co/PPREQWMX</name>
			<description>@Arras95 Cornish troops establish themselves on the railway loop near Fresnoy. http://t.co/PPREQWMX</description>			
			<TimeStamp>
				<when>1914-04-24T10:05:01Z</when>
			</TimeStamp>
			<Point><coordinates>2.880221,50.358600,0</coordinates>
			</Point>
		</Placemark><Placemark>
			<name>@Arras95 Cornish troops at Fresnoy have suffered heavy casualties but maintain their position against counter-attacks.</name>
			<description>@Arras95 Cornish troops at Fresnoy have suffered heavy casualties but maintain their position against counter-attacks.</description>			
			<TimeStamp>
				<when>1914-04-24T15:50:01Z</when>
			</TimeStamp>
			<Point><coordinates>2.880221,50.358600,0</coordinates>
			</Point>
		</Placemark><Placemark>
			<name>@Arras95 None of the 10 tanks sent out today has returned. http://t.co/lQ1CawBb</name>
			<description>@Arras95 None of the 10 tanks sent out today has returned. http://t.co/lQ1CawBb</description>			
			<TimeStamp>
				<when>1914-04-27T17:50:01Z</when>
			</TimeStamp>
			<Point><coordinates>1.576380,50.539013,0</coordinates>
			</Point>
		</Placemark><Placemark>
			<name>@Arras95 News of heavy bombardment at Roeux, will the 3rd Army be attempting to capture the village and chemical works again today?</name>
			<description>@Arras95 News of heavy bombardment at Roeux, will the 3rd Army be attempting to capture the village and chemical works again today?</description>			
			<TimeStamp>
				<when>1914-04-28T05:30:00Z</when>
			</TimeStamp>
			<Point><coordinates>2.881573,50.287810,0</coordinates>
			</Point>
		</Placemark><Placemark>
			<name>@Arras95 101 Brigade and 103 Brigade carrying out the attack on Roeux today.</name>
			<description>@Arras95 101 Brigade and 103 Brigade carrying out the attack on Roeux today.</description>			
			<TimeStamp>
				<when>1914-04-28T09:30:02Z</when>
			</TimeStamp>
			<Point><coordinates>2.881573,50.287810,0</coordinates>
			</Point>
		</Placemark><Placemark>
			<name>@Arras95 Ernst Jünger, on Fresnoy: ‘As if by some magical power, one house subsided into the earth; walls broke, gables fell…’ http://t.co/GU0qgKNn</name>
			<description>@Arras95 Ernst Jünger, on Fresnoy: ‘As if by some magical power, one house subsided into the earth; walls broke, gables fell…’ http://t.co/GU0qgKNn</description>			
			<TimeStamp>
				<when>1914-04-28T11:05:00Z</when>
			</TimeStamp>
			<Point><coordinates>2.880221,50.358600,0</coordinates>
			</Point>
		</Placemark><Placemark>
			<name>@Arras95 Canadian troops today launched attack towards Arleux-en-Gohelle. http://t.co/AKBlWpRM</name>
			<description>@Arras95 Canadian troops today launched attack towards Arleux-en-Gohelle. http://t.co/AKBlWpRM</description>			
			<TimeStamp>
				<when>1914-04-28T12:20:01Z</when>
			</TimeStamp>
			<Point><coordinates>2.847831,50.346065,0</coordinates>
			</Point>
		</Placemark><Placemark>
			<name>@Arras95 Just in: Br. troops advancing on Gavrelle have met stiff resistance and sustained great losses. http://t.co/ncS9Xaqp</name>
			<description>@Arras95 Just in: Br. troops advancing on Gavrelle have met stiff resistance and sustained great losses. http://t.co/ncS9Xaqp</description>			
			<TimeStamp>
				<when>1914-04-28T13:30:01Z</when>
			</TimeStamp>
			<Point><coordinates>2.848707,50.312337,0</coordinates>
			</Point>
		</Placemark><Placemark>
			<name>@Arras95 Again Br. army facing strong counter attacks at Roeux, and are being driven back.</name>
			<description>@Arras95 Again Br. army facing strong counter attacks at Roeux, and are being driven back.</description>			
			<TimeStamp>
				<when>1914-04-28T13:43:00Z</when>
			</TimeStamp>
			<Point><coordinates>2.881573,50.287810,0</coordinates>
			</Point>
		</Placemark><Placemark>
			<name>@Arras95 Arleux-en-Gohelle has been captured by Canadians without great loss to their own numbers.</name>
			<description>@Arras95 Arleux-en-Gohelle has been captured by Canadians without great loss to their own numbers.</description>			
			<TimeStamp>
				<when>1914-04-28T16:50:00Z</when>
			</TimeStamp>
			<Point><coordinates>2.847831,50.346065,0</coordinates>
			</Point>
		</Placemark><Placemark>
			<name>@Arras95 2nd Lt Reginald Haine, 20, has won the VC after capturing German strongpoint andamp; 30 grenadiers at Gavrelle. http://t.co/LOHiS1io</name>
			<description>@Arras95 2nd Lt Reginald Haine, 20, has won the VC after capturing German strongpoint andamp; 30 grenadiers at Gavrelle. http://t.co/LOHiS1io</description>			
			<TimeStamp>
				<when>1914-04-28T18:42:01Z</when>
			</TimeStamp>
			<Point><coordinates>2.848707,50.312337,0</coordinates>
			</Point>
		</Placemark><Placemark>
			<name>@Arras95 Germans are attacking Gavrelle with artillery.</name>
			<description>@Arras95 Germans are attacking Gavrelle with artillery.</description>			
			<TimeStamp>
				<when>1914-04-29T09:25:00Z</when>
			</TimeStamp>
			<Point><coordinates>2.848707,50.312337,0</coordinates>
			</Point>
		</Placemark><Placemark>
			<name>@Arras95 Germans have been repulsed from Gavrelle but British have suffered high losses in defence. http://t.co/LAdOA3UC</name>
			<description>@Arras95 Germans have been repulsed from Gavrelle but British have suffered high losses in defence. http://t.co/LAdOA3UC</description>			
			<TimeStamp>
				<when>1914-04-29T13:40:01Z</when>
			</TimeStamp>
			<Point><coordinates>2.848707,50.312337,0</coordinates>
			</Point>
		</Placemark><Placemark>
			<name>@Arras95 Capt. Alfred Pollard, 23, wins the VC for defending his position during the German counter-attack at Gavrelle. http://t.co/bGtRsQZ6</name>
			<description>@Arras95 Capt. Alfred Pollard, 23, wins the VC for defending his position during the German counter-attack at Gavrelle. http://t.co/bGtRsQZ6</description>			
			<TimeStamp>
				<when>1914-04-29T17:55:00Z</when>
			</TimeStamp>
			<Point><coordinates>2.848707,50.312337,0</coordinates>
			</Point>
		</Placemark><Placemark>
			<name>@Arras95 French army on the Aisne has defeated two German advances south of Moronvillers. http://t.co/qzrQNK2L</name>
			<description>@Arras95 French army on the Aisne has defeated two German advances south of Moronvillers. http://t.co/qzrQNK2L</description>			
			<TimeStamp>
				<when>1914-05-01T09:07:01Z</when>
			</TimeStamp>
			<Point><coordinates>3.633508,49.443492,0</coordinates>
			</Point>
		</Placemark><Placemark>
			<name>@Arras95 3rd Army has launched attack to break through the Wotan Stellung, an expertly constructed trench system.</name>
			<description>@Arras95 3rd Army has launched attack to break through the Wotan Stellung, an expertly constructed trench system.</description>			
			<TimeStamp>
				<when>1914-05-03T03:10:00Z</when>
			</TimeStamp>
			<Point><coordinates>2.853127,50.250698,0</coordinates>
			</Point>
		</Placemark><Placemark>
			<name>@Arras95 Australian and Br. units again attacking the German trenches at Bullecourt. http://t.co/rQzdyptt</name>
			<description>@Arras95 Australian and Br. units again attacking the German trenches at Bullecourt. http://t.co/rQzdyptt</description>			
			<TimeStamp>
				<when>1914-05-03T03:30:01Z</when>
			</TimeStamp>
			<Point><coordinates>2.945062,50.177532,0</coordinates>
			</Point>
		</Placemark><Placemark>
			<name>@Arras95 1st Army has captured Fresnoy position from German divisions, fighting through gas and shells. http://t.co/JNKfTkNF</name>
			<description>@Arras95 1st Army has captured Fresnoy position from German divisions, fighting through gas and shells. http://t.co/JNKfTkNF</description>			
			<TimeStamp>
				<when>1914-05-03T04:25:03Z</when>
			</TimeStamp>
			<Point><coordinates>2.880221,50.358600,0</coordinates>
			</Point>
		</Placemark><Placemark>
			<name>@Arras95 The Londoners of the 167th Brigade have succeeded in penetrating the German lines. http://t.co/hxSnLUdA</name>
			<description>@Arras95 The Londoners of the 167th Brigade have succeeded in penetrating the German lines. http://t.co/hxSnLUdA</description>			
			<TimeStamp>
				<when>1914-05-03T11:09:01Z</when>
			</TimeStamp>
			<Point><coordinates>2.853127,50.250698,0</coordinates>
			</Point>
		</Placemark><Placemark>
			<name>@Arras95 The Londoners of the 167th Brigade have succeeded in penetrating the German lines. http://t.co/hxSnLUdA</name>
			<description>@Arras95 The Londoners of the 167th Brigade have succeeded in penetrating the German lines. http://t.co/hxSnLUdA</description>			
			<TimeStamp>
				<when>1914-05-03T11:09:01Z</when>
			</TimeStamp>
			<Point><coordinates>2.9154,50.2613,0</coordinates>
			</Point>
		</Placemark><Placemark>
			<name>@Arras95 Defeat snatched from jaws of victory: the 167th Brigade has been repulsed by the 41st East Prussian Rgt.</name>
			<description>@Arras95 Defeat snatched from jaws of victory: the 167th Brigade has been repulsed by the 41st East Prussian Rgt.</description>			
			<TimeStamp>
				<when>1914-05-03T12:50:00Z</when>
			</TimeStamp>
			<Point><coordinates>2.9154,50.2613,0</coordinates>
			</Point>
		</Placemark><Placemark>
			<name>@Arras95 Defeat snatched from jaws of victory: the 167th Brigade has been repulsed by the 41st East Prussian Rgt.</name>
			<description>@Arras95 Defeat snatched from jaws of victory: the 167th Brigade has been repulsed by the 41st East Prussian Rgt.</description>			
			<TimeStamp>
				<when>1914-05-03T12:50:00Z</when>
			</TimeStamp>
			<Point><coordinates>2.853127,50.250698,0</coordinates>
			</Point>
		</Placemark><Placemark>
			<name>@Arras95 31st Division has suffered many casualties in attack on Oppy Wood, inc 2nd Lt Harrison. http://t.co/3UrTkkPR</name>
			<description>@Arras95 31st Division has suffered many casualties in attack on Oppy Wood, inc 2nd Lt Harrison. http://t.co/3UrTkkPR</description>			
			<TimeStamp>
				<when>1914-05-03T19:05:01Z</when>
			</TimeStamp>
			<Point><coordinates>2.866851,50.336507,0</coordinates>
			</Point>
		</Placemark><Placemark>
			<name>@Arras95 31st Division has suffered many casualties in attack on Oppy Wood, inc 2nd Lt Harrison. http://t.co/3UrTkkPR</name>
			<description>@Arras95 31st Division has suffered many casualties in attack on Oppy Wood, inc 2nd Lt Harrison. http://t.co/3UrTkkPR</description>			
			<TimeStamp>
				<when>1914-05-03T19:05:01Z</when>
			</TimeStamp>
			<Point><coordinates>2.8867,50.3467,0</coordinates>
			</Point>
		</Placemark><Placemark>
			<name>@Arras95 The 52nd (West Riding) Division has suffered over 3000 casualties today.</name>
			<description>@Arras95 The 52nd (West Riding) Division has suffered over 3000 casualties today.</description>			
			<TimeStamp>
				<when>1914-05-03T22:55:01Z</when>
			</TimeStamp>
			<Point><coordinates>2.945062,50.177532,0</coordinates>
			</Point>
		</Placemark><Placemark>
			<name>@Arras95 The 52nd (West Riding) Division has suffered over 3000 casualties today.</name>
			<description>@Arras95 The 52nd (West Riding) Division has suffered over 3000 casualties today.</description>			
			<TimeStamp>
				<when>1914-05-03T22:55:01Z</when>
			</TimeStamp>
			<Point><coordinates>2.9534,50.1979,0</coordinates>
			</Point>
		</Placemark><Placemark>
			<name>@Arras95 Gen. Allenby's 3rd Army attacks have failed to secure their main objectives andamp; have thus been called off.</name>
			<description>@Arras95 Gen. Allenby's 3rd Army attacks have failed to secure their main objectives andamp; have thus been called off.</description>			
			<TimeStamp>
				<when>1914-05-04T13:10:00Z</when>
			</TimeStamp>
			<Point><coordinates>2.9072,50.2196,0</coordinates>
			</Point>
		</Placemark><Placemark>
			<name>@Arras95 Gen. Allenby's 3rd Army attacks have failed to secure their main objectives andamp; have thus been called off.</name>
			<description>@Arras95 Gen. Allenby's 3rd Army attacks have failed to secure their main objectives andamp; have thus been called off.</description>			
			<TimeStamp>
				<when>1914-05-04T13:10:00Z</when>
			</TimeStamp>
			<Point><coordinates>2.876525,50.200514,0</coordinates>
			</Point>
		</Placemark><Placemark>
			<name>@Arras95 High Br. casualty rates sustained around the villages of Cherisy, Roux and Fontaine. http://t.co/z47x4lRU</name>
			<description>@Arras95 High Br. casualty rates sustained around the villages of Cherisy, Roux and Fontaine. http://t.co/z47x4lRU</description>			
			<TimeStamp>
				<when>1914-05-04T15:20:01Z</when>
			</TimeStamp>
			<Point><coordinates>2.9072,50.2196,0</coordinates>
			</Point>
		</Placemark><Placemark>
			<name>@Arras95 High Br. casualty rates sustained around the villages of Cherisy, Roux and Fontaine. http://t.co/z47x4lRU</name>
			<description>@Arras95 High Br. casualty rates sustained around the villages of Cherisy, Roux and Fontaine. http://t.co/z47x4lRU</description>			
			<TimeStamp>
				<when>1914-05-04T15:20:01Z</when>
			</TimeStamp>
			<Point><coordinates>2.876525,50.200514,0</coordinates>
			</Point>
		</Placemark><Placemark>
			<name>@Arras95 Breaking: French forces have captured the Chemi-des-Dammes. http://t.co/lunL8uVx</name>
			<description>@Arras95 Breaking: French forces have captured the Chemi-des-Dammes. http://t.co/lunL8uVx</description>			
			<TimeStamp>
				<when>1914-05-05T11:15:01Z</when>
			</TimeStamp>
			<Point><coordinates>3.4234,49.4628,0</coordinates>
			</Point>
		</Placemark><Placemark>
			<name>@Arras95 Breaking: French forces have captured the Chemi-des-Dammes. http://t.co/lunL8uVx</name>
			<description>@Arras95 Breaking: French forces have captured the Chemi-des-Dammes. http://t.co/lunL8uVx</description>			
			<TimeStamp>
				<when>1914-05-05T11:15:01Z</when>
			</TimeStamp>
			<Point><coordinates>3.373609,49.458248,0</coordinates>
			</Point>
		</Placemark><Placemark>
			<name>@8thEastLancs The bodies of 40 men kia close to the German wire on April 28 were never recovered. Remembered  here:  http://t.co/0qFob5W2   #arras95  #WW1</name>
			<description>@8thEastLancs The bodies of 40 men kia close to the German wire on April 28 were never recovered. Remembered  here:  http://t.co/0qFob5W2   #arras95  #WW1</description>			
			<TimeStamp>
				<when>1914-05-05T12:28:49Z</when>
			</TimeStamp>
			<Point><coordinates>2.7561,50.2847,0</coordinates>
			</Point>
		</Placemark><Placemark>
			<name>@Arras95 Capt Albert Ball, 20, is killed in action near Annoeullin and buried by the Germans with full military honours. http://t.co/TdMeaoDU</name>
			<description>@Arras95 Capt Albert Ball, 20, is killed in action near Annoeullin and buried by the Germans with full military honours. http://t.co/TdMeaoDU</description>			
			<TimeStamp>
				<when>1914-05-06T15:30:00Z</when>
			</TimeStamp>
			<Point><coordinates>2.931,50.5294,0</coordinates>
			</Point>
		</Placemark><Placemark>
			<name>@Arras95 Capt Albert Ball, 20, is killed in action near Annoeullin and buried by the Germans with full military honours. http://t.co/TdMeaoDU</name>
			<description>@Arras95 Capt Albert Ball, 20, is killed in action near Annoeullin and buried by the Germans with full military honours. http://t.co/TdMeaoDU</description>			
			<TimeStamp>
				<when>1914-05-06T15:30:00Z</when>
			</TimeStamp>
			<Point><coordinates>2.895322,50.507483,0</coordinates>
			</Point>
		</Placemark><Placemark>
			<name>@Arras95 An Australian attack has improved the Br. position between Bullecourt and Queant. http://t.co/v09SYAwm</name>
			<description>@Arras95 An Australian attack has improved the Br. position between Bullecourt and Queant. http://t.co/v09SYAwm</description>			
			<TimeStamp>
				<when>1914-05-07T09:55:01Z</when>
			</TimeStamp>
			<Point><coordinates>2.956980,50.149509,0</coordinates>
			</Point>
		</Placemark><Placemark>
			<name>@Arras95 An Australian attack has improved the Br. position between Bullecourt and Queant. http://t.co/v09SYAwm</name>
			<description>@Arras95 An Australian attack has improved the Br. position between Bullecourt and Queant. http://t.co/v09SYAwm</description>			
			<TimeStamp>
				<when>1914-05-07T09:55:01Z</when>
			</TimeStamp>
			<Point><coordinates>2.982,50.1805,0</coordinates>
			</Point>
		</Placemark><Placemark>
			<name>@Arras95 Germans continuing to attack Gavrelle in an attempt to win back the village. http://t.co/EQn76Y7p</name>
			<description>@Arras95 Germans continuing to attack Gavrelle in an attempt to win back the village. http://t.co/EQn76Y7p</description>			
			<TimeStamp>
				<when>1914-05-08T08:20:00Z</when>
			</TimeStamp>
			<Point><coordinates>2.8871,50.331,0</coordinates>
			</Point>
		</Placemark><Placemark>
			<name>@Arras95 Germans continuing to attack Gavrelle in an attempt to win back the village. http://t.co/EQn76Y7p</name>
			<description>@Arras95 Germans continuing to attack Gavrelle in an attempt to win back the village. http://t.co/EQn76Y7p</description>			
			<TimeStamp>
				<when>1914-05-08T08:20:00Z</when>
			</TimeStamp>
			<Point><coordinates>2.848707,50.312337,0</coordinates>
			</Point>
		</Placemark><Placemark>
			<name>@Arras95 News just in: Germans have claimed Fresnoy from Canadians and British. http://t.co/0yKiDdKf</name>
			<description>@Arras95 News just in: Germans have claimed Fresnoy from Canadians and British. http://t.co/0yKiDdKf</description>			
			<TimeStamp>
				<when>1914-05-08T10:35:03Z</when>
			</TimeStamp>
			<Point><coordinates>2.8889,50.3661,0</coordinates>
			</Point>
		</Placemark><Placemark>
			<name>@Arras95 News just in: Germans have claimed Fresnoy from Canadians and British. http://t.co/0yKiDdKf</name>
			<description>@Arras95 News just in: Germans have claimed Fresnoy from Canadians and British. http://t.co/0yKiDdKf</description>			
			<TimeStamp>
				<when>1914-05-08T10:35:03Z</when>
			</TimeStamp>
			<Point><coordinates>2.880221,50.358600,0</coordinates>
			</Point>
		</Placemark><Placemark>
			<name>@Arras95 Fresnoy loss a serious rebuff to Br. forces, as they had held the village for nearly five days.</name>
			<description>@Arras95 Fresnoy loss a serious rebuff to Br. forces, as they had held the village for nearly five days.</description>			
			<TimeStamp>
				<when>1914-05-08T11:40:01Z</when>
			</TimeStamp>
			<Point><coordinates>2.8889,50.3661,0</coordinates>
			</Point>
		</Placemark><Placemark>
			<name>@Arras95 Fresnoy loss a serious rebuff to Br. forces, as they had held the village for nearly five days.</name>
			<description>@Arras95 Fresnoy loss a serious rebuff to Br. forces, as they had held the village for nearly five days.</description>			
			<TimeStamp>
				<when>1914-05-08T11:40:01Z</when>
			</TimeStamp>
			<Point><coordinates>2.880221,50.358600,0</coordinates>
			</Point>
		</Placemark><Placemark>
			<name>@8thEastLancs '119 OR (Other Ranks) joined the Battn.'  #arras95  #ww1</name>
			<description>@8thEastLancs '119 OR (Other Ranks) joined the Battn.'  #arras95  #ww1</description>			
			<TimeStamp>
				<when>1914-05-08T17:57:00Z</when>
			</TimeStamp>
			<Point><coordinates>2.4692,50.3104,0</coordinates>
			</Point>
		</Placemark><Placemark>
			<name>@Arras95 Battle for Bullecourt continues: Germans mounting fierce counter-attacks against Br. and Australian units. http://t.co/zPjmJTpD</name>
			<description>@Arras95 Battle for Bullecourt continues: Germans mounting fierce counter-attacks against Br. and Australian units. http://t.co/zPjmJTpD</description>			
			<TimeStamp>
				<when>1914-05-09T07:10:00Z</when>
			</TimeStamp>
			<Point><coordinates>2.904095,50.177685,0</coordinates>
			</Point>
		</Placemark><Placemark>
			<name>@Arras95 Battle for Bullecourt continues: Germans mounting fierce counter-attacks against Br. and Australian units. http://t.co/zPjmJTpD</name>
			<description>@Arras95 Battle for Bullecourt continues: Germans mounting fierce counter-attacks against Br. and Australian units. http://t.co/zPjmJTpD</description>			
			<TimeStamp>
				<when>1914-05-09T07:10:00Z</when>
			</TimeStamp>
			<Point><coordinates>2.9279,50.1904,0</coordinates>
			</Point>
		</Placemark><Placemark>
			<name>@Arras95 Bullecourt battle swaying, now in favour of one side, now the other.</name>
			<description>@Arras95 Bullecourt battle swaying, now in favour of one side, now the other.</description>			
			<TimeStamp>
				<when>1914-05-09T11:07:01Z</when>
			</TimeStamp>
			<Point><coordinates>2.904095,50.177685,0</coordinates>
			</Point>
		</Placemark><Placemark>
			<name>@Arras95 Bullecourt battle swaying, now in favour of one side, now the other.</name>
			<description>@Arras95 Bullecourt battle swaying, now in favour of one side, now the other.</description>			
			<TimeStamp>
				<when>1914-05-09T11:07:01Z</when>
			</TimeStamp>
			<Point><coordinates>2.9279,50.1904,0</coordinates>
			</Point>
		</Placemark><Placemark>
			<name>@Arras95 Fr. offensive on the Aisne ends as outbreaks of mutiny become increasingly serious in the French ranks.</name>
			<description>@Arras95 Fr. offensive on the Aisne ends as outbreaks of mutiny become increasingly serious in the French ranks.</description>			
			<TimeStamp>
				<when>1914-05-09T17:45:00Z</when>
			</TimeStamp>
			<Point><coordinates>2.904095,50.177685,0</coordinates>
			</Point>
		</Placemark><Placemark>
			<name>@Arras95 Fr. offensive on the Aisne ends as outbreaks of mutiny become increasingly serious in the French ranks.</name>
			<description>@Arras95 Fr. offensive on the Aisne ends as outbreaks of mutiny become increasingly serious in the French ranks.</description>			
			<TimeStamp>
				<when>1914-05-09T17:45:00Z</when>
			</TimeStamp>
			<Point><coordinates>2.9279,50.1904,0</coordinates>
			</Point>
		</Placemark><Placemark>
			<name>@Arras95 Even in a district torn by war, a badly damaged cottage is now re-inhabited: such is the French love of their land. http://t.co/l6P13Wuh</name>
			<description>@Arras95 Even in a district torn by war, a badly damaged cottage is now re-inhabited: such is the French love of their land. http://t.co/l6P13Wuh</description>			
			<TimeStamp>
				<when>1914-05-10T09:25:00Z</when>
			</TimeStamp>
			<Point><coordinates>2.639647,50.330895,0</coordinates>
			</Point>
		</Placemark><Placemark>
			<name>@Arras95 Even in a district torn by war, a badly damaged cottage is now re-inhabited: such is the French love of their land. http://t.co/l6P13Wuh</name>
			<description>@Arras95 Even in a district torn by war, a badly damaged cottage is now re-inhabited: such is the French love of their land. http://t.co/l6P13Wuh</description>			
			<TimeStamp>
				<when>1914-05-10T09:25:00Z</when>
			</TimeStamp>
			<Point><coordinates>2.6582,50.3637,0</coordinates>
			</Point>
		</Placemark><Placemark>
			<name>@SOFOtrust '35 OR (Other Ranks) joined the Battn.'  #ww1 #arras95</name>
			<description>@SOFOtrust '35 OR (Other Ranks) joined the Battn.'  #ww1 #arras95</description>			
			<TimeStamp>
				<when>1914-05-11T07:11:10Z</when>
			</TimeStamp>
			<Point><coordinates>2.4692,50.3104,0</coordinates>
			</Point>
		</Placemark><Placemark>
			<name>@8thEastLancs '35 OR (Other Ranks) joined the Battn.' #ww1 #arras95</name>
			<description>@8thEastLancs '35 OR (Other Ranks) joined the Battn.' #ww1 #arras95</description>			
			<TimeStamp>
				<when>1914-05-11T07:20:22Z</when>
			</TimeStamp>
			<Point><coordinates>2.4692,50.3104,0</coordinates>
			</Point>
		</Placemark><Placemark>
			<name>@8thEastLancs I think that some may continue beyond 16th.  I shall follow with interest. All the best. #arras95</name>
			<description>@8thEastLancs I think that some may continue beyond 16th.  I shall follow with interest. All the best. #arras95</description>			
			<TimeStamp>
				<when>1914-05-11T08:00:14Z</when>
			</TimeStamp>
			<Point><coordinates>-0.9919,52.005,0</coordinates>
			</Point>
		</Placemark><Placemark>
			<name>@Arras95 3rd Army’s 4th Div., near exhaustion, has stormed trenches and village of Roeux.</name>
			<description>@Arras95 3rd Army’s 4th Div., near exhaustion, has stormed trenches and village of Roeux.</description>			
			<TimeStamp>
				<when>1914-05-11T08:30:00Z</when>
			</TimeStamp>
			<Point><coordinates>2.881573,50.287810,0</coordinates>
			</Point>
		</Placemark><Placemark>
			<name>@Arras95 3rd Army’s 4th Div., near exhaustion, has stormed trenches and village of Roeux.</name>
			<description>@Arras95 3rd Army’s 4th Div., near exhaustion, has stormed trenches and village of Roeux.</description>			
			<TimeStamp>
				<when>1914-05-11T08:30:00Z</when>
			</TimeStamp>
			<Point><coordinates>2.8972,50.2957,0</coordinates>
			</Point>
		</Placemark><Placemark>
			<name>@Arras95 4th Div. has been in action almost since start of the battle and is now in dire need of respite and complete refit.</name>
			<description>@Arras95 4th Div. has been in action almost since start of the battle and is now in dire need of respite and complete refit.</description>			
			<TimeStamp>
				<when>1914-05-11T10:55:00Z</when>
			</TimeStamp>
			<Point><coordinates>2.6582,50.3637,0</coordinates>
			</Point>
		</Placemark><Placemark>
			<name>@Arras95 4th Div. has been in action almost since start of the battle and is now in dire need of respite and complete refit.</name>
			<description>@Arras95 4th Div. has been in action almost since start of the battle and is now in dire need of respite and complete refit.</description>			
			<TimeStamp>
				<when>1914-05-11T10:55:00Z</when>
			</TimeStamp>
			<Point><coordinates>2.639647,50.330895,0</coordinates>
			</Point>
		</Placemark><Placemark>
			<name>@Arras95 Confirmed: last German positions in Roeux and chem. works have been captured by the British. http://t.co/Bxj8utRf</name>
			<description>@Arras95 Confirmed: last German positions in Roeux and chem. works have been captured by the British. http://t.co/Bxj8utRf</description>			
			<TimeStamp>
				<when>1914-05-12T08:00:00Z</when>
			</TimeStamp>
			<Point><coordinates>2.9015,50.3058,0</coordinates>
			</Point>
		</Placemark><Placemark>
			<name>@Arras95 Confirmed: last German positions in Roeux and chem. works have been captured by the British. http://t.co/Bxj8utRf</name>
			<description>@Arras95 Confirmed: last German positions in Roeux and chem. works have been captured by the British. http://t.co/Bxj8utRf</description>			
			<TimeStamp>
				<when>1914-05-12T08:00:00Z</when>
			</TimeStamp>
			<Point><coordinates>2.881573,50.287810,0</coordinates>
			</Point>
		</Placemark><Placemark>
			<name>@Arras95 British and Australians have taken most of Bullecourt and Cagnicourt. http://t.co/SsCI3unh</name>
			<description>@Arras95 British and Australians have taken most of Bullecourt and Cagnicourt. http://t.co/SsCI3unh</description>			
			<TimeStamp>
				<when>1914-05-12T14:05:01Z</when>
			</TimeStamp>
			<Point><coordinates>3.0012,50.2012,0</coordinates>
			</Point>
		</Placemark><Placemark>
			<name>@Arras95 British and Australians have taken most of Bullecourt and Cagnicourt. http://t.co/SsCI3unh</name>
			<description>@Arras95 British and Australians have taken most of Bullecourt and Cagnicourt. http://t.co/SsCI3unh</description>			
			<TimeStamp>
				<when>1914-05-12T14:05:01Z</when>
			</TimeStamp>
			<Point><coordinates>2.971392,50.189970,0</coordinates>
			</Point>
		</Placemark><Placemark>
			<name>@Arras95 A German counter-attack on Bullecourt and Cagnicourt has been unsuccessful.</name>
			<description>@Arras95 A German counter-attack on Bullecourt and Cagnicourt has been unsuccessful.</description>			
			<TimeStamp>
				<when>1914-05-12T14:45:01Z</when>
			</TimeStamp>
			<Point><coordinates>2.881573,50.287810,0</coordinates>
			</Point>
		</Placemark><Placemark>
			<name>@Arras95 A German counter-attack on Bullecourt and Cagnicourt has been unsuccessful.</name>
			<description>@Arras95 A German counter-attack on Bullecourt and Cagnicourt has been unsuccessful.</description>			
			<TimeStamp>
				<when>1914-05-12T14:45:01Z</when>
			</TimeStamp>
			<Point><coordinates>2.8972,50.2957,0</coordinates>
			</Point>
		</Placemark><Placemark>
			<name>@Arras95 Area around Bullecourt described as a ‘veritable charnel house … virtually untenable … dead bodies in their hundreds’.</name>
			<description>@Arras95 Area around Bullecourt described as a ‘veritable charnel house … virtually untenable … dead bodies in their hundreds’.</description>			
			<TimeStamp>
				<when>1914-05-12T17:20:00Z</when>
			</TimeStamp>
			<Point><coordinates>3.0012,50.2012,0</coordinates>
			</Point>
		</Placemark><Placemark>
			<name>@Arras95 Area around Bullecourt described as a ‘veritable charnel house … virtually untenable … dead bodies in their hundreds’.</name>
			<description>@Arras95 Area around Bullecourt described as a ‘veritable charnel house … virtually untenable … dead bodies in their hundreds’.</description>			
			<TimeStamp>
				<when>1914-05-12T17:20:00Z</when>
			</TimeStamp>
			<Point><coordinates>2.971392,50.189970,0</coordinates>
			</Point>
		</Placemark><Placemark>
			<name>@Arras95 Australian Lt Rupert Moon to be honoured with Victoria Cross for his bravery at Bullecourt. http://t.co/VrUHXylZ</name>
			<description>@Arras95 Australian Lt Rupert Moon to be honoured with Victoria Cross for his bravery at Bullecourt. http://t.co/VrUHXylZ</description>			
			<TimeStamp>
				<when>1914-05-12T19:15:00Z</when>
			</TimeStamp>
			<Point><coordinates>2.9361,50.2002,0</coordinates>
			</Point>
		</Placemark><Placemark>
			<name>@Arras95 Australian Lt Rupert Moon to be honoured with Victoria Cross for his bravery at Bullecourt. http://t.co/VrUHXylZ</name>
			<description>@Arras95 Australian Lt Rupert Moon to be honoured with Victoria Cross for his bravery at Bullecourt. http://t.co/VrUHXylZ</description>			
			<TimeStamp>
				<when>1914-05-12T19:15:00Z</when>
			</TimeStamp>
			<Point><coordinates>2.904095,50.177685,0</coordinates>
			</Point>
		</Placemark><Placemark>
			<name>@Arras95 11th East Lancs Rgt unsuccessful in attempts to break into a strongly-wired enemy strongpoint in Oppy Wood. http://t.co/iQukTPNO</name>
			<description>@Arras95 11th East Lancs Rgt unsuccessful in attempts to break into a strongly-wired enemy strongpoint in Oppy Wood. http://t.co/iQukTPNO</description>			
			<TimeStamp>
				<when>1914-05-13T10:45:01Z</when>
			</TimeStamp>
			<Point><coordinates>2.8871,50.342,0</coordinates>
			</Point>
		</Placemark><Placemark>
			<name>@Arras95 11th East Lancs Rgt unsuccessful in attempts to break into a strongly-wired enemy strongpoint in Oppy Wood. http://t.co/iQukTPNO</name>
			<description>@Arras95 11th East Lancs Rgt unsuccessful in attempts to break into a strongly-wired enemy strongpoint in Oppy Wood. http://t.co/iQukTPNO</description>			
			<TimeStamp>
				<when>1914-05-13T10:45:01Z</when>
			</TimeStamp>
			<Point><coordinates>2.866851,50.336507,0</coordinates>
			</Point>
		</Placemark><Placemark>
			<name>@Arras95 3rd Army has been fighting against the 16th Bavarian RIR, inc among their ranks Greifreiter Adolf Hitler. http://t.co/6Yoqckxu</name>
			<description>@Arras95 3rd Army has been fighting against the 16th Bavarian RIR, inc among their ranks Greifreiter Adolf Hitler. http://t.co/6Yoqckxu</description>			
			<TimeStamp>
				<when>1914-05-14T15:20:01Z</when>
			</TimeStamp>
			<Point><coordinates>2.848707,50.312337,0</coordinates>
			</Point>
		</Placemark><Placemark>
			<name>@Arras95 3rd Army has been fighting against the 16th Bavarian RIR, inc among their ranks Greifreiter Adolf Hitler. http://t.co/6Yoqckxu</name>
			<description>@Arras95 3rd Army has been fighting against the 16th Bavarian RIR, inc among their ranks Greifreiter Adolf Hitler. http://t.co/6Yoqckxu</description>			
			<TimeStamp>
				<when>1914-05-14T15:20:01Z</when>
			</TimeStamp>
			<Point><coordinates>2.8871,50.331,0</coordinates>
			</Point>
		</Placemark>