<?xml version="1.0" encoding="UTF-8"?>
				<kml xmlns="http://www.opengis.net/kml/2.2">
					<Document>
						<name>
							Cemeteries of the Commonwealth War Graves Commission for Ayrshire
						</name>
						<description>
							Cemeteries in Ayrshire from the Commonwealth War Graves Commission database (http://www.cwgc.org/) turned into a map by the World War One Centenary Project at The University of Oxford (http://ww1centenary.oucs.ox.ac.uk/). Licensed as Attribution-NonCommercial-ShareAlike 2.0 UK: England and Wales 
						</description><Placemark>
			  <name>ARDROSSAN CEMETERY</name>
			  <description><a href="http://www.cwgc.org/find-a-cemetery/cemetery/74100/ARDROSSAN%20CEMETERY">ARDROSSAN CEMETERY at the Commonwealth War Graves Commission</a>
			  </description>
			  <Point>
				<coordinates> -4.7965,55.64816</coordinates>
			  </Point>
			</Placemark><Placemark>
			  <name>AYR CEMETERY, AYRSHIRE</name>
			  <description><a href="http://www.cwgc.org/find-a-cemetery/cemetery/74101/AYR%20CEMETERY,%20AYRSHIRE">AYR CEMETERY, AYRSHIRE at the Commonwealth War Graves Commission</a>
			  </description>
			  <Point>
				<coordinates> -4.61714,55.45637</coordinates>
			  </Point>
			</Placemark><Placemark>
			  <name>GIRVAN (DOUNE) CEMETERY</name>
			  <description><a href="http://www.cwgc.org/find-a-cemetery/cemetery/74118/GIRVAN%20(DOUNE)%20CEMETERY">GIRVAN (DOUNE) CEMETERY at the Commonwealth War Graves Commission</a>
			  </description>
			  <Point>
				<coordinates> -4.8581,55.23676</coordinates>
			  </Point>
			</Placemark><Placemark>
			  <name>KILMARNOCK CEMETERY</name>
			  <description><a href="http://www.cwgc.org/find-a-cemetery/cemetery/74122/KILMARNOCK%20CEMETERY">KILMARNOCK CEMETERY at the Commonwealth War Graves Commission</a>
			  </description>
			  <Point>
				<coordinates> -4.48171,55.61464</coordinates>
			  </Point>
			</Placemark><Placemark>
			  <name>STEVENSTON (NEW STREET) CEMETERY</name>
			  <description><a href="http://www.cwgc.org/find-a-cemetery/cemetery/74141/STEVENSTON%20(NEW%20STREET)%20CEMETERY">STEVENSTON (NEW STREET) CEMETERY at the Commonwealth War Graves Commission</a>
			  </description>
			  <Point>
				<coordinates> -4.75617,55.63844</coordinates>
			  </Point>
			</Placemark><Placemark>
			  <name>BEITH NEW BURIAL GROUND</name>
			  <description><a href="http://www.cwgc.org/find-a-cemetery/cemetery/2000169/BEITH%20NEW%20BURIAL%20GROUND">BEITH NEW BURIAL GROUND at the Commonwealth War Graves Commission</a>
			  </description>
			  <Point>
				<coordinates> -4.63643,55.75541</coordinates>
			  </Point>
			</Placemark></Document></kml>