<?xml version="1.0" encoding="UTF-8"?>
				<kml xmlns="http://www.opengis.net/kml/2.2">
					<Document>
						<name>
							Cemeteries of the Commonwealth War Graves Commission for Edinburgh
						</name>
						<description>
							Cemeteries in Edinburgh from the Commonwealth War Graves Commission database (http://www.cwgc.org/) turned into a map by the World War One Centenary Project at The University of Oxford (http://ww1centenary.oucs.ox.ac.uk/). Licensed as Attribution-NonCommercial-ShareAlike 2.0 UK: England and Wales 
						</description><Placemark>
			  <name>EDINBURGH (COMELY BANK) CEMETERY</name>
			  <description><a href="http://www.cwgc.org/find-a-cemetery/cemetery/47104/EDINBURGH%20(COMELY%20BANK)%20CEMETERY">EDINBURGH (COMELY BANK) CEMETERY at the Commonwealth War Graves Commission</a>
			  </description>
			  <Point>
				<coordinates> -3.2284,55.95983</coordinates>
			  </Point>
			</Placemark><Placemark>
			  <name>EDINBURGH (NEWINGTON OR ECHO BANK) CEMETERY</name>
			  <description><a href="http://www.cwgc.org/find-a-cemetery/cemetery/47110/EDINBURGH%20(NEWINGTON%20OR%20ECHO%20BANK)%20CEMETERY">EDINBURGH (NEWINGTON OR ECHO BANK) CEMETERY at the Commonwealth War Graves Commission</a>
			  </description>
			  <Point>
				<coordinates> -3.16562,55.93272</coordinates>
			  </Point>
			</Placemark><Placemark>
			  <name>EDINBURGH (ROSEBANK) CEMETERY</name>
			  <description><a href="http://www.cwgc.org/find-a-cemetery/cemetery/47114/EDINBURGH%20(ROSEBANK)%20CEMETERY">EDINBURGH (ROSEBANK) CEMETERY at the Commonwealth War Graves Commission</a>
			  </description>
			  <Point>
				<coordinates> -3.18366,55.96813</coordinates>
			  </Point>
			</Placemark><Placemark>
			  <name>EDINBURGH (SEAFIELD) CEMETERY</name>
			  <description><a href="http://www.cwgc.org/find-a-cemetery/cemetery/47117/EDINBURGH%20(SEAFIELD)%20CEMETERY">EDINBURGH (SEAFIELD) CEMETERY at the Commonwealth War Graves Commission</a>
			  </description>
			  <Point>
				<coordinates> -3.15133,55.97033</coordinates>
			  </Point>
			</Placemark><Placemark>
			  <name>EDINBURGH (NORTH MERCHISTON) CEMETERY</name>
			  <description><a href="http://www.cwgc.org/find-a-cemetery/cemetery/2000413/EDINBURGH%20(NORTH%20MERCHISTON)%20CEMETERY">EDINBURGH (NORTH MERCHISTON) CEMETERY at the Commonwealth War Graves Commission</a>
			  </description>
			  <Point>
				<coordinates> -3.22674,55.93736</coordinates>
			  </Point>
			</Placemark></Document></kml>