<?xml version="1.0" encoding="UTF-8"?>
				<kml xmlns="http://www.opengis.net/kml/2.2">
					<Document>
						<name>
							Cemeteries of the Commonwealth War Graves Commission for Glamorganshire
						</name>
						<description>
							Cemeteries in Glamorganshire from the Commonwealth War Graves Commission database (http://www.cwgc.org/) turned into a map by the World War One Centenary Project at The University of Oxford (http://ww1centenary.oucs.ox.ac.uk/). Licensed as Attribution-NonCommercial-ShareAlike 2.0 UK: England and Wales 
						</description><Placemark>
			  <name>ABERDARE CEMETERY, GLAMORGANSHIRE</name>
			  <description><a href="http://www.cwgc.org/find-a-cemetery/cemetery/2072503/ABERDARE%20CEMETERY,%20GLAMORGANSHIRE">ABERDARE CEMETERY, GLAMORGANSHIRE at the Commonwealth War Graves Commission</a>
			  </description>
			  <Point>
				<coordinates> -3.47116,51.72607</coordinates>
			  </Point>
			</Placemark><Placemark>
			  <name>BRIDGEND CEMETERY</name>
			  <description><a href="http://www.cwgc.org/find-a-cemetery/cemetery/2072510/BRIDGEND%20CEMETERY">BRIDGEND CEMETERY at the Commonwealth War Graves Commission</a>
			  </description>
			  <Point>
				<coordinates> -3.57947,51.51542</coordinates>
			  </Point>
			</Placemark><Placemark>
			  <name>CAERPHILLY (PENYRHEOL) CEMETERY</name>
			  <description><a href="http://www.cwgc.org/find-a-cemetery/cemetery/2072513/CAERPHILLY%20(PENYRHEOL)%20CEMETERY">CAERPHILLY (PENYRHEOL) CEMETERY at the Commonwealth War Graves Commission</a>
			  </description>
			  <Point>
				<coordinates> -3.23752,51.58496</coordinates>
			  </Point>
			</Placemark><Placemark>
			  <name>CAERPHILLY (ST. MARTIN) CHURCHYARD</name>
			  <description><a href="http://www.cwgc.org/find-a-cemetery/cemetery/2072514/CAERPHILLY%20(ST.%20MARTIN)%20CHURCHYARD">CAERPHILLY (ST. MARTIN) CHURCHYARD at the Commonwealth War Graves Commission</a>
			  </description>
			  <Point>
				<coordinates> -3.22031,51.57135</coordinates>
			  </Point>
			</Placemark><Placemark>
			  <name>CARDIFF (CATHAYS) CEMETERY</name>
			  <description><a href="http://www.cwgc.org/find-a-cemetery/cemetery/2072516/CARDIFF%20(CATHAYS)%20CEMETERY">CARDIFF (CATHAYS) CEMETERY at the Commonwealth War Graves Commission</a>
			  </description>
			  <Point>
				<coordinates> -3.1787,51.50025</coordinates>
			  </Point>
			</Placemark><Placemark>
			  <name>CARDIFF WESTERN CEMETERY</name>
			  <description><a href="http://www.cwgc.org/find-a-cemetery/cemetery/2072520/CARDIFF%20WESTERN%20CEMETERY">CARDIFF WESTERN CEMETERY at the Commonwealth War Graves Commission</a>
			  </description>
			  <Point>
				<coordinates> -3.26456,51.46904</coordinates>
			  </Point>
			</Placemark><Placemark>
			  <name>COCKETT (ST. PETER) CHURCHYARD</name>
			  <description><a href="http://www.cwgc.org/find-a-cemetery/cemetery/2072524/COCKETT%20(ST.%20PETER)%20CHURCHYARD">COCKETT (ST. PETER) CHURCHYARD at the Commonwealth War Graves Commission</a>
			  </description>
			  <Point>
				<coordinates> -3.98048,51.63565</coordinates>
			  </Point>
			</Placemark><Placemark>
			  <name>GELLYGAER (GWAELODYBRITHDIR) CEMETERY</name>
			  <description><a href="http://www.cwgc.org/find-a-cemetery/cemetery/2072546/GELLYGAER%20(GWAELODYBRITHDIR)%20CEMETERY">GELLYGAER (GWAELODYBRITHDIR) CEMETERY at the Commonwealth War Graves Commission</a>
			  </description>
			  <Point>
				<coordinates> -3.23021,51.70052</coordinates>
			  </Point>
			</Placemark><Placemark>
			  <name>MAESTEG CEMETERY</name>
			  <description><a href="http://www.cwgc.org/find-a-cemetery/cemetery/2072600/MAESTEG%20CEMETERY">MAESTEG CEMETERY at the Commonwealth War Graves Commission</a>
			  </description>
			  <Point>
				<coordinates> -3.64269,51.60937</coordinates>
			  </Point>
			</Placemark><Placemark>
			  <name>MERTHYR TYDFIL (BEECH GROVE) CEMETERY</name>
			  <description><a href="http://www.cwgc.org/find-a-cemetery/cemetery/2072607/MERTHYR%20TYDFIL%20(BEECH%20GROVE)%20CEMETERY">MERTHYR TYDFIL (BEECH GROVE) CEMETERY at the Commonwealth War Graves Commission</a>
			  </description>
			  <Point>
				<coordinates> -3.31911,51.66265</coordinates>
			  </Point>
			</Placemark><Placemark>
			  <name>MERTHYR TYDFIL (FFRWD) CEMETERY, PENDERYN</name>
			  <description><a href="http://www.cwgc.org/find-a-cemetery/cemetery/2072608/MERTHYR%20TYDFIL%20(FFRWD)%20CEMETERY,%20PENDERYN">MERTHYR TYDFIL (FFRWD) CEMETERY, PENDERYN at the Commonwealth War Graves Commission</a>
			  </description>
			  <Point>
				<coordinates> -3.41088,51.76085</coordinates>
			  </Point>
			</Placemark><Placemark>
			  <name>MERTHYR TYDFIL (PANT) CEMETERY</name>
			  <description><a href="http://www.cwgc.org/find-a-cemetery/cemetery/2072609/MERTHYR%20TYDFIL%20(PANT)%20CEMETERY">MERTHYR TYDFIL (PANT) CEMETERY at the Commonwealth War Graves Commission</a>
			  </description>
			  <Point>
				<coordinates> -3.36118,51.77385</coordinates>
			  </Point>
			</Placemark><Placemark>
			  <name>MOUNTAIN ASH (ABERCYNON) CEMETERY</name>
			  <description><a href="http://www.cwgc.org/find-a-cemetery/cemetery/2072612/MOUNTAIN%20ASH%20(ABERCYNON)%20CEMETERY">MOUNTAIN ASH (ABERCYNON) CEMETERY at the Commonwealth War Graves Commission</a>
			  </description>
			  <Point>
				<coordinates> -3.33807,51.65209</coordinates>
			  </Point>
			</Placemark><Placemark>
			  <name>MOUNTAIN ASH (MAESYRARIAN) CEMETERY</name>
			  <description><a href="http://www.cwgc.org/find-a-cemetery/cemetery/2072613/MOUNTAIN%20ASH%20(MAESYRARIAN)%20CEMETERY">MOUNTAIN ASH (MAESYRARIAN) CEMETERY at the Commonwealth War Graves Commission</a>
			  </description>
			  <Point>
				<coordinates> -3.39086,51.68565</coordinates>
			  </Point>
			</Placemark><Placemark>
			  <name>NEATH (LLANTWIT) CEMETERY</name>
			  <description><a href="http://www.cwgc.org/find-a-cemetery/cemetery/2072617/NEATH%20(LLANTWIT)%20CEMETERY">NEATH (LLANTWIT) CEMETERY at the Commonwealth War Graves Commission</a>
			  </description>
			  <Point>
				<coordinates> -3.78865,51.66723</coordinates>
			  </Point>
			</Placemark><Placemark>
			  <name>NEATH (YNYSYMAERDY) CEMETERY</name>
			  <description><a href="http://www.cwgc.org/find-a-cemetery/cemetery/2072618/NEATH%20(YNYSYMAERDY)%20CEMETERY">NEATH (YNYSYMAERDY) CEMETERY at the Commonwealth War Graves Commission</a>
			  </description>
			  <Point>
				<coordinates> -3.81162,51.6405</coordinates>
			  </Point>
			</Placemark><Placemark>
			  <name>PENARTH CEMETERY</name>
			  <description><a href="http://www.cwgc.org/find-a-cemetery/cemetery/2072626/PENARTH%20CEMETERY">PENARTH CEMETERY at the Commonwealth War Graves Commission</a>
			  </description>
			  <Point>
				<coordinates> -3.18133,51.42482</coordinates>
			  </Point>
			</Placemark><Placemark>
			  <name>PONTYPRIDD (GLYNTAFF) CEMETERY</name>
			  <description><a href="http://www.cwgc.org/find-a-cemetery/cemetery/2072641/PONTYPRIDD%20(GLYNTAFF)%20CEMETERY">PONTYPRIDD (GLYNTAFF) CEMETERY at the Commonwealth War Graves Commission</a>
			  </description>
			  <Point>
				<coordinates> -3.3199,51.59403</coordinates>
			  </Point>
			</Placemark><Placemark>
			  <name>PORT TALBOT (GOYTRE) CEMETERY</name>
			  <description><a href="http://www.cwgc.org/find-a-cemetery/cemetery/2072645/PORT%20TALBOT%20(GOYTRE)%20CEMETERY">PORT TALBOT (GOYTRE) CEMETERY at the Commonwealth War Graves Commission</a>
			  </description>
			  <Point>
				<coordinates> -3.75201,51.59249</coordinates>
			  </Point>
			</Placemark><Placemark>
			  <name>PORT TALBOT (HOLY CROSS) CHURCHYARD</name>
			  <description><a href="http://www.cwgc.org/find-a-cemetery/cemetery/2072646/PORT%20TALBOT%20(HOLY%20CROSS)%20CHURCHYARD">PORT TALBOT (HOLY CROSS) CHURCHYARD at the Commonwealth War Graves Commission</a>
			  </description>
			  <Point>
				<coordinates> -3.76909,51.59138</coordinates>
			  </Point>
			</Placemark><Placemark>
			  <name>RHONDDA (FERNDALE) CEMETERY</name>
			  <description><a href="http://www.cwgc.org/find-a-cemetery/cemetery/2072651/RHONDDA%20(FERNDALE)%20CEMETERY">RHONDDA (FERNDALE) CEMETERY at the Commonwealth War Graves Commission</a>
			  </description>
			  <Point>
				<coordinates> -3.46942,51.66734</coordinates>
			  </Point>
			</Placemark><Placemark>
			  <name>RHONDDA (TREALAW) CEMETERY</name>
			  <description><a href="http://www.cwgc.org/find-a-cemetery/cemetery/2072653/RHONDDA%20(TREALAW)%20CEMETERY">RHONDDA (TREALAW) CEMETERY at the Commonwealth War Graves Commission</a>
			  </description>
			  <Point>
				<coordinates> -3.42793,51.61768</coordinates>
			  </Point>
			</Placemark><Placemark>
			  <name>RHONDDA (TREORCHY) CEMETERY</name>
			  <description><a href="http://www.cwgc.org/find-a-cemetery/cemetery/2072654/RHONDDA%20(TREORCHY)%20CEMETERY">RHONDDA (TREORCHY) CEMETERY at the Commonwealth War Graves Commission</a>
			  </description>
			  <Point>
				<coordinates> -3.50918,51.66586</coordinates>
			  </Point>
			</Placemark><Placemark>
			  <name>SWANSEA (CWMGELLY) CEMETERY</name>
			  <description><a href="http://www.cwgc.org/find-a-cemetery/cemetery/2072669/SWANSEA%20(CWMGELLY)%20CEMETERY">SWANSEA (CWMGELLY) CEMETERY at the Commonwealth War Graves Commission</a>
			  </description>
			  <Point>
				<coordinates> -3.94179,51.65106</coordinates>
			  </Point>
			</Placemark><Placemark>
			  <name>SWANSEA (DANYGRAIG) CEMETERY</name>
			  <description><a href="http://www.cwgc.org/find-a-cemetery/cemetery/2072670/SWANSEA%20(DANYGRAIG)%20CEMETERY">SWANSEA (DANYGRAIG) CEMETERY at the Commonwealth War Graves Commission</a>
			  </description>
			  <Point>
				<coordinates> -3.91479,51.62403</coordinates>
			  </Point>
			</Placemark><Placemark>
			  <name>SWANSEA (OYSTERMOUTH) CEMETERY</name>
			  <description><a href="http://www.cwgc.org/find-a-cemetery/cemetery/2072673/SWANSEA%20(OYSTERMOUTH)%20CEMETERY">SWANSEA (OYSTERMOUTH) CEMETERY at the Commonwealth War Graves Commission</a>
			  </description>
			  <Point>
				<coordinates> -4.01061,51.57708</coordinates>
			  </Point>
			</Placemark><Placemark>
			  <name>WHITCHURCH (ST. MARY) CHURCHYARD, GLAMORGANSHIRE</name>
			  <description><a href="http://www.cwgc.org/find-a-cemetery/cemetery/2072679/WHITCHURCH%20(ST.%20MARY)%20CHURCHYARD,%20GLAMORGANSHIRE">WHITCHURCH (ST. MARY) CHURCHYARD, GLAMORGANSHIRE at the Commonwealth War Graves Commission</a>
			  </description>
			  <Point>
				<coordinates> -3.22041,51.51312</coordinates>
			  </Point>
			</Placemark><Placemark>
			  <name>YSTRAD MYNACH (HOLY TRINITY) CHURCHYARD</name>
			  <description><a href="http://www.cwgc.org/find-a-cemetery/cemetery/2072683/YSTRAD%20MYNACH%20(HOLY%20TRINITY)%20CHURCHYARD">YSTRAD MYNACH (HOLY TRINITY) CHURCHYARD at the Commonwealth War Graves Commission</a>
			  </description>
			  <Point>
				<coordinates> -3.23898,51.64004</coordinates>
			  </Point>
			</Placemark><Placemark>
			  <name>BARRY (MERTHYR DYFAN) BURIAL GROUND</name>
			  <description><a href="http://www.cwgc.org/find-a-cemetery/cemetery/2080902/BARRY%20(MERTHYR%20DYFAN)%20BURIAL%20GROUND">BARRY (MERTHYR DYFAN) BURIAL GROUND at the Commonwealth War Graves Commission</a>
			  </description>
			  <Point>
				<coordinates> -3.27437,51.41292</coordinates>
			  </Point>
			</Placemark></Document></kml>