<?xml version="1.0" encoding="UTF-8"?>
				<kml xmlns="http://www.opengis.net/kml/2.2">
					<Document>
						<name>
							Cemeteries of the Commonwealth War Graves Commission for Hampshire
						</name>
						<description>
							Cemeteries in Hampshire from the Commonwealth War Graves Commission database (http://www.cwgc.org/) turned into a map by the World War One Centenary Project at The University of Oxford (http://ww1centenary.oucs.ox.ac.uk/). Licensed as Attribution-NonCommercial-ShareAlike 2.0 UK: England and Wales 
						</description><Placemark>
			  <name>ALDERSHOT MILITARY CEMETERY</name>
			  <description><a href="http://www.cwgc.org/find-a-cemetery/cemetery/38800/ALDERSHOT%20MILITARY%20CEMETERY">ALDERSHOT MILITARY CEMETERY at the Commonwealth War Graves Commission</a>
			  </description>
			  <Point>
				<coordinates> -0.74481,51.25552</coordinates>
			  </Point>
			</Placemark><Placemark>
			  <name>BOURNEMOUTH (WIMBORNE ROAD) CEMETERY</name>
			  <description><a href="http://www.cwgc.org/find-a-cemetery/cemetery/39202/BOURNEMOUTH%20(WIMBORNE%20ROAD)%20CEMETERY">BOURNEMOUTH (WIMBORNE ROAD) CEMETERY at the Commonwealth War Graves Commission</a>
			  </description>
			  <Point>
				<coordinates> -1.87403,50.73229</coordinates>
			  </Point>
			</Placemark><Placemark>
			  <name>BOURNEMOUTH EAST CEMETERY</name>
			  <description><a href="http://www.cwgc.org/find-a-cemetery/cemetery/39200/BOURNEMOUTH%20EAST%20CEMETERY">BOURNEMOUTH EAST CEMETERY at the Commonwealth War Graves Commission</a>
			  </description>
			  <Point>
				<coordinates> -1.82826,50.7339</coordinates>
			  </Point>
			</Placemark><Placemark>
			  <name>BRAMSHOTT (ST. MARY) CHURCHYARD</name>
			  <description><a href="http://www.cwgc.org/find-a-cemetery/cemetery/38900/BRAMSHOTT%20(ST.%20MARY)%20CHURCHYARD">BRAMSHOTT (ST. MARY) CHURCHYARD at the Commonwealth War Graves Commission</a>
			  </description>
			  <Point>
				<coordinates> -0.79801,51.08944</coordinates>
			  </Point>
			</Placemark><Placemark>
			  <name>BROCKENHURST (ST. NICHOLAS) CHURCHYARD</name>
			  <description><a href="http://www.cwgc.org/find-a-cemetery/cemetery/39217/BROCKENHURST%20(ST.%20NICHOLAS)%20CHURCHYARD">BROCKENHURST (ST. NICHOLAS) CHURCHYARD at the Commonwealth War Graves Commission</a>
			  </description>
			  <Point>
				<coordinates> -1.56791,50.8144</coordinates>
			  </Point>
			</Placemark><Placemark>
			  <name>CHRISTCHURCH CEMETERY</name>
			  <description><a href="http://www.cwgc.org/find-a-cemetery/cemetery/39204/CHRISTCHURCH%20CEMETERY">CHRISTCHURCH CEMETERY at the Commonwealth War Graves Commission</a>
			  </description>
			  <Point>
				<coordinates> -1.79409,50.74278</coordinates>
			  </Point>
			</Placemark><Placemark>
			  <name>EAST BOLDRE (ST. PAUL) CHURCHYARD</name>
			  <description><a href="http://www.cwgc.org/find-a-cemetery/cemetery/39218/EAST%20BOLDRE%20(ST.%20PAUL)%20CHURCHYARD">EAST BOLDRE (ST. PAUL) CHURCHYARD at the Commonwealth War Graves Commission</a>
			  </description>
			  <Point>
				<coordinates> -1.46951,50.80146</coordinates>
			  </Point>
			</Placemark><Placemark>
			  <name>GRAYSHOTT (ST. JOSEPH) ROMAN CATHOLIC CHURCHYARD</name>
			  <description><a href="http://www.cwgc.org/find-a-cemetery/cemetery/38901/GRAYSHOTT%20(ST.%20JOSEPH)%20ROMAN%20CATHOLIC%20CHURCHYARD">GRAYSHOTT (ST. JOSEPH) ROMAN CATHOLIC CHURCHYARD at the Commonwealth War Graves Commission</a>
			  </description>
			  <Point>
				<coordinates> -0.76578,51.11102</coordinates>
			  </Point>
			</Placemark><Placemark>
			  <name>MOORDOWN (ST. JOHN THE BAPTIST) CHURCHYARD</name>
			  <description><a href="http://www.cwgc.org/find-a-cemetery/cemetery/39203/MOORDOWN%20(ST.%20JOHN%20THE%20BAPTIST)%20CHURCHYARD">MOORDOWN (ST. JOHN THE BAPTIST) CHURCHYARD at the Commonwealth War Graves Commission</a>
			  </description>
			  <Point>
				<coordinates> -1.8782,50.74939</coordinates>
			  </Point>
			</Placemark><Placemark>
			  <name>NETLEY MILITARY CEMETERY</name>
			  <description><a href="http://www.cwgc.org/find-a-cemetery/cemetery/39250/NETLEY%20MILITARY%20CEMETERY">NETLEY MILITARY CEMETERY at the Commonwealth War Graves Commission</a>
			  </description>
			  <Point>
				<coordinates> -1.33232,50.86609</coordinates>
			  </Point>
			</Placemark><Placemark>
			  <name>PORTSDOWN (CHRIST CHURCH) MILITARY CEMETERY</name>
			  <description><a href="http://www.cwgc.org/find-a-cemetery/cemetery/39105/PORTSDOWN%20(CHRIST%20CHURCH)%20MILITARY%20CEMETERY">PORTSDOWN (CHRIST CHURCH) MILITARY CEMETERY at the Commonwealth War Graves Commission</a>
			  </description>
			  <Point>
				<coordinates> -1.05235,50.85457</coordinates>
			  </Point>
			</Placemark><Placemark>
			  <name>PORTSMOUTH (HIGHLAND ROAD) CEMETERY</name>
			  <description><a href="http://www.cwgc.org/find-a-cemetery/cemetery/39100/PORTSMOUTH%20(HIGHLAND%20ROAD)%20CEMETERY">PORTSMOUTH (HIGHLAND ROAD) CEMETERY at the Commonwealth War Graves Commission</a>
			  </description>
			  <Point>
				<coordinates> -1.06725,50.78608</coordinates>
			  </Point>
			</Placemark><Placemark>
			  <name>PORTSMOUTH (KINGSTON) CEMETERY</name>
			  <description><a href="http://www.cwgc.org/find-a-cemetery/cemetery/39101/PORTSMOUTH%20(KINGSTON)%20CEMETERY">PORTSMOUTH (KINGSTON) CEMETERY at the Commonwealth War Graves Commission</a>
			  </description>
			  <Point>
				<coordinates> -1.06833,50.80315</coordinates>
			  </Point>
			</Placemark><Placemark>
			  <name>SOUTHAMPTON (HOLLYBROOK) CEMETERY</name>
			  <description><a href="http://www.cwgc.org/find-a-cemetery/cemetery/39242/SOUTHAMPTON%20(HOLLYBROOK)%20CEMETERY">SOUTHAMPTON (HOLLYBROOK) CEMETERY at the Commonwealth War Graves Commission</a>
			  </description>
			  <Point>
				<coordinates> -1.43139,50.93401</coordinates>
			  </Point>
			</Placemark><Placemark>
			  <name>SOUTHAMPTON (ST. MARY EXTRA) CEMETERY</name>
			  <description><a href="http://www.cwgc.org/find-a-cemetery/cemetery/39244/SOUTHAMPTON%20(ST.%20MARY%20EXTRA)%20CEMETERY">SOUTHAMPTON (ST. MARY EXTRA) CEMETERY at the Commonwealth War Graves Commission</a>
			  </description>
			  <Point>
				<coordinates> -1.35231,50.89487</coordinates>
			  </Point>
			</Placemark><Placemark>
			  <name>SOUTHAMPTON OLD CEMETERY</name>
			  <description><a href="http://www.cwgc.org/find-a-cemetery/cemetery/39243/SOUTHAMPTON%20OLD%20CEMETERY">SOUTHAMPTON OLD CEMETERY at the Commonwealth War Graves Commission</a>
			  </description>
			  <Point>
				<coordinates> -1.41286,50.92034</coordinates>
			  </Point>
			</Placemark><Placemark>
			  <name>HOLLYBROOK MEMORIAL, SOUTHAMPTON</name>
			  <description><a href="http://www.cwgc.org/find-a-cemetery/cemetery/142019/HOLLYBROOK%20MEMORIAL,%20SOUTHAMPTON">HOLLYBROOK MEMORIAL, SOUTHAMPTON at the Commonwealth War Graves Commission</a>
			  </description>
			  <Point>
				<coordinates> -1.43114,50.93384</coordinates>
			  </Point>
			</Placemark><Placemark>
			  <name>PORTSMOUTH NAVAL MEMORIAL</name>
			  <description><a href="http://www.cwgc.org/find-a-cemetery/cemetery/144703/PORTSMOUTH%20NAVAL%20MEMORIAL">PORTSMOUTH NAVAL MEMORIAL at the Commonwealth War Graves Commission</a>
			  </description>
			  <Point>
				<coordinates> -1.09599,50.78242</coordinates>
			  </Point>
			</Placemark><Placemark>
			  <name>PENTON MEWSEY (HOLY TRINITY) CHURCHYARD</name>
			  <description><a href="http://www.cwgc.org/find-a-cemetery/cemetery/2034501/PENTON%20MEWSEY%20(HOLY%20TRINITY)%20CHURCHYARD">PENTON MEWSEY (HOLY TRINITY) CHURCHYARD at the Commonwealth War Graves Commission</a>
			  </description>
			  <Point>
				<coordinates> -1.52885,51.22495</coordinates>
			  </Point>
			</Placemark><Placemark>
			  <name>PORTSMOUTH (MILTON) CEMETERY</name>
			  <description><a href="http://www.cwgc.org/find-a-cemetery/cemetery/2034510/PORTSMOUTH%20(MILTON)%20CEMETERY">PORTSMOUTH (MILTON) CEMETERY at the Commonwealth War Graves Commission</a>
			  </description>
			  <Point>
				<coordinates> -1.0608,50.79886</coordinates>
			  </Point>
			</Placemark><Placemark>
			  <name>WINCHESTER (MAGDALEN HILL) CEMETERY</name>
			  <description><a href="http://www.cwgc.org/find-a-cemetery/cemetery/2034572/WINCHESTER%20(MAGDALEN%20HILL)%20CEMETERY">WINCHESTER (MAGDALEN HILL) CEMETERY at the Commonwealth War Graves Commission</a>
			  </description>
			  <Point>
				<coordinates> -1.27211,51.06176</coordinates>
			  </Point>
			</Placemark><Placemark>
			  <name>WINCHESTER (WEST HILL) OLD CEMETERY</name>
			  <description><a href="http://www.cwgc.org/find-a-cemetery/cemetery/2034574/WINCHESTER%20(WEST%20HILL)%20OLD%20CEMETERY">WINCHESTER (WEST HILL) OLD CEMETERY at the Commonwealth War Graves Commission</a>
			  </description>
			  <Point>
				<coordinates> -1.32298,51.06104</coordinates>
			  </Point>
			</Placemark><Placemark>
			  <name>GOSPORT (ANN'S HILL) CEMETERY</name>
			  <description><a href="http://www.cwgc.org/find-a-cemetery/cemetery/2044500/GOSPORT%20(ANN'S%20HILL)%20CEMETERY">GOSPORT (ANN'S HILL) CEMETERY at the Commonwealth War Graves Commission</a>
			  </description>
			  <Point>
				<coordinates> -1.14855,50.79796</coordinates>
			  </Point>
			</Placemark><Placemark>
			  <name>HASLAR ROYAL NAVAL CEMETERY</name>
			  <description><a href="http://www.cwgc.org/find-a-cemetery/cemetery/2044620/HASLAR%20ROYAL%20NAVAL%20CEMETERY">HASLAR ROYAL NAVAL CEMETERY at the Commonwealth War Graves Commission</a>
			  </description>
			  <Point>
				<coordinates> -1.13732,50.78325</coordinates>
			  </Point>
			</Placemark><Placemark>
			  <name>HAVANT AND WATERLOO (WARBLINGTON) CEMETERY</name>
			  <description><a href="http://www.cwgc.org/find-a-cemetery/cemetery/2044507/HAVANT%20AND%20WATERLOO%20(WARBLINGTON)%20CEMETERY">HAVANT AND WATERLOO (WARBLINGTON) CEMETERY at the Commonwealth War Graves Commission</a>
			  </description>
			  <Point>
				<coordinates> -0.96727,50.8439</coordinates>
			  </Point>
			</Placemark><Placemark>
			  <name>ALDERSHOT CIVIL CEMETERY</name>
			  <description><a href="http://www.cwgc.org/find-a-cemetery/cemetery/2067502/ALDERSHOT%20CIVIL%20CEMETERY">ALDERSHOT CIVIL CEMETERY at the Commonwealth War Graves Commission</a>
			  </description>
			  <Point>
				<coordinates> -0.74884,51.24957</coordinates>
			  </Point>
			</Placemark><Placemark>
			  <name>ANDOVER CEMETERY</name>
			  <description><a href="http://www.cwgc.org/find-a-cemetery/cemetery/2067506/ANDOVER%20CEMETERY">ANDOVER CEMETERY at the Commonwealth War Graves Commission</a>
			  </description>
			  <Point>
				<coordinates> -1.47614,51.21272</coordinates>
			  </Point>
			</Placemark><Placemark>
			  <name>BASINGSTOKE (SOUTH VIEW OR OLD) CEMETERY</name>
			  <description><a href="http://www.cwgc.org/find-a-cemetery/cemetery/2067509/BASINGSTOKE%20(SOUTH%20VIEW%20OR%20OLD)%20CEMETERY">BASINGSTOKE (SOUTH VIEW OR OLD) CEMETERY at the Commonwealth War Graves Commission</a>
			  </description>
			  <Point>
				<coordinates> -1.09119,51.26932</coordinates>
			  </Point>
			</Placemark><Placemark>
			  <name>BASINGSTOKE (WORTING ROAD) CEMETERY</name>
			  <description><a href="http://www.cwgc.org/find-a-cemetery/cemetery/2067510/BASINGSTOKE%20(WORTING%20ROAD)%20CEMETERY">BASINGSTOKE (WORTING ROAD) CEMETERY at the Commonwealth War Graves Commission</a>
			  </description>
			  <Point>
				<coordinates> -1.10496,51.26235</coordinates>
			  </Point>
			</Placemark><Placemark>
			  <name>BORDON MILITARY CEMETERY</name>
			  <description><a href="http://www.cwgc.org/find-a-cemetery/cemetery/2067524/BORDON%20MILITARY%20CEMETERY">BORDON MILITARY CEMETERY at the Commonwealth War Graves Commission</a>
			  </description>
			  <Point>
				<coordinates> -0.8762,51.11961</coordinates>
			  </Point>
			</Placemark><Placemark>
			  <name>EASTLEIGH CEMETERY</name>
			  <description><a href="http://www.cwgc.org/find-a-cemetery/cemetery/2067565/EASTLEIGH%20CEMETERY">EASTLEIGH CEMETERY at the Commonwealth War Graves Commission</a>
			  </description>
			  <Point>
				<coordinates> -1.36118,50.97246</coordinates>
			  </Point>
			</Placemark><Placemark>
			  <name>FAREHAM CEMETERY</name>
			  <description><a href="http://www.cwgc.org/find-a-cemetery/cemetery/2067579/FAREHAM%20CEMETERY">FAREHAM CEMETERY at the Commonwealth War Graves Commission</a>
			  </description>
			  <Point>
				<coordinates> -1.17966,50.86229</coordinates>
			  </Point>
			</Placemark><Placemark>
			  <name>FARNBOROUGH (VICTORIA ROAD) CEMETERY</name>
			  <description><a href="http://www.cwgc.org/find-a-cemetery/cemetery/2067587/FARNBOROUGH%20(VICTORIA%20ROAD)%20CEMETERY">FARNBOROUGH (VICTORIA ROAD) CEMETERY at the Commonwealth War Graves Commission</a>
			  </description>
			  <Point>
				<coordinates> -0.75907,51.2954</coordinates>
			  </Point>
			</Placemark><Placemark>
			  <name>HURSLEY (ALL SAINTS) CHURCH CEMETERY</name>
			  <description><a href="http://www.cwgc.org/find-a-cemetery/cemetery/2100816/HURSLEY%20(ALL%20SAINTS)%20CHURCH%20CEMETERY">HURSLEY (ALL SAINTS) CHURCH CEMETERY at the Commonwealth War Graves Commission</a>
			  </description>
			  <Point>
				<coordinates> -1.39105,51.02565</coordinates>
			  </Point>
			</Placemark></Document></kml>