<?xml version="1.0" encoding="UTF-8"?>
				<kml xmlns="http://www.opengis.net/kml/2.2">
					<Document>
						<name>
							Cemeteries of the Commonwealth War Graves Commission for Hertfordshire
						</name>
						<description>
							Cemeteries in Hertfordshire from the Commonwealth War Graves Commission database (http://www.cwgc.org/) turned into a map by the World War One Centenary Project at The University of Oxford (http://ww1centenary.oucs.ox.ac.uk/). Licensed as Attribution-NonCommercial-ShareAlike 2.0 UK: England and Wales 
						</description><Placemark>
			  <name>BISHOP'S HATFIELD (ST. LUKE) CHURCHYARD</name>
			  <description><a href="http://www.cwgc.org/find-a-cemetery/cemetery/39633/BISHOP'S%20HATFIELD%20(ST.%20LUKE)%20CHURCHYARD">BISHOP'S HATFIELD (ST. LUKE) CHURCHYARD at the Commonwealth War Graves Commission</a>
			  </description>
			  <Point>
				<coordinates> -0.22378,51.76433</coordinates>
			  </Point>
			</Placemark><Placemark>
			  <name>BISHOP'S STORTFORD OLD CEMETERY</name>
			  <description><a href="http://www.cwgc.org/find-a-cemetery/cemetery/39616/BISHOP'S%20STORTFORD%20OLD%20CEMETERY">BISHOP'S STORTFORD OLD CEMETERY at the Commonwealth War Graves Commission</a>
			  </description>
			  <Point>
				<coordinates> 0.15658,51.86577</coordinates>
			  </Point>
			</Placemark><Placemark>
			  <name>BUSHEY (ST. JAMES) CHURCHYARD</name>
			  <description><a href="http://www.cwgc.org/find-a-cemetery/cemetery/39623/BUSHEY%20(ST.%20JAMES)%20CHURCHYARD">BUSHEY (ST. JAMES) CHURCHYARD at the Commonwealth War Graves Commission</a>
			  </description>
			  <Point>
				<coordinates> -0.36806,51.64481</coordinates>
			  </Point>
			</Placemark><Placemark>
			  <name>CHORLEYWOOD ROAD CEMETERY</name>
			  <description><a href="http://www.cwgc.org/find-a-cemetery/cemetery/39678/CHORLEYWOOD%20ROAD%20CEMETERY">CHORLEYWOOD ROAD CEMETERY at the Commonwealth War Graves Commission</a>
			  </description>
			  <Point>
				<coordinates> -0.47529,51.64405</coordinates>
			  </Point>
			</Placemark><Placemark>
			  <name>GREAT BERKHAMSTED (ST. PETER) CHURCH CEMETERY</name>
			  <description><a href="http://www.cwgc.org/find-a-cemetery/cemetery/39626/GREAT%20BERKHAMSTED%20(ST.%20PETER)%20CHURCH%20CEMETERY">GREAT BERKHAMSTED (ST. PETER) CHURCH CEMETERY at the Commonwealth War Graves Commission</a>
			  </description>
			  <Point>
				<coordinates> -0.56116,51.75698</coordinates>
			  </Point>
			</Placemark><Placemark>
			  <name>HARPENDEN (ST. NICHOLAS) CHURCHYARD</name>
			  <description><a href="http://www.cwgc.org/find-a-cemetery/cemetery/39632/HARPENDEN%20(ST.%20NICHOLAS)%20CHURCHYARD">HARPENDEN (ST. NICHOLAS) CHURCHYARD at the Commonwealth War Graves Commission</a>
			  </description>
			  <Point>
				<coordinates> -0.35803,51.81653</coordinates>
			  </Point>
			</Placemark><Placemark>
			  <name>HATFIELD ROAD CEMETERY, ST. ALBANS</name>
			  <description><a href="http://www.cwgc.org/find-a-cemetery/cemetery/39681/HATFIELD%20ROAD%20CEMETERY,%20ST.%20ALBANS">HATFIELD ROAD CEMETERY, ST. ALBANS at the Commonwealth War Graves Commission</a>
			  </description>
			  <Point>
				<coordinates> -0.31928,51.75233</coordinates>
			  </Point>
			</Placemark><Placemark>
			  <name>HEMEL HEMPSTEAD (HEATH LANE) CEMETERY</name>
			  <description><a href="http://www.cwgc.org/find-a-cemetery/cemetery/39639/HEMEL%20HEMPSTEAD%20(HEATH%20LANE)%20CEMETERY">HEMEL HEMPSTEAD (HEATH LANE) CEMETERY at the Commonwealth War Graves Commission</a>
			  </description>
			  <Point>
				<coordinates> -0.47841,51.75124</coordinates>
			  </Point>
			</Placemark><Placemark>
			  <name>HITCHIN CEMETERY</name>
			  <description><a href="http://www.cwgc.org/find-a-cemetery/cemetery/39675/HITCHIN%20CEMETERY">HITCHIN CEMETERY at the Commonwealth War Graves Commission</a>
			  </description>
			  <Point>
				<coordinates> -0.2732,51.94287</coordinates>
			  </Point>
			</Placemark><Placemark>
			  <name>NEW SOUTHGATE CEMETERY</name>
			  <description><a href="http://www.cwgc.org/find-a-cemetery/cemetery/39625/NEW%20SOUTHGATE%20CEMETERY">NEW SOUTHGATE CEMETERY at the Commonwealth War Graves Commission</a>
			  </description>
			  <Point>
				<coordinates> -0.14726,51.62505</coordinates>
			  </Point>
			</Placemark><Placemark>
			  <name>STEVENAGE (ST. NICHOLAS) CHURCHYARD</name>
			  <description><a href="http://www.cwgc.org/find-a-cemetery/cemetery/39689/STEVENAGE%20(ST.%20NICHOLAS)%20CHURCHYARD">STEVENAGE (ST. NICHOLAS) CHURCHYARD at the Commonwealth War Graves Commission</a>
			  </description>
			  <Point>
				<coordinates> -0.19756,51.92022</coordinates>
			  </Point>
			</Placemark><Placemark>
			  <name>TRING CEMETERY</name>
			  <description><a href="http://www.cwgc.org/find-a-cemetery/cemetery/39690/TRING%20CEMETERY">TRING CEMETERY at the Commonwealth War Graves Commission</a>
			  </description>
			  <Point>
				<coordinates> -0.67753,51.78983</coordinates>
			  </Point>
			</Placemark><Placemark>
			  <name>WARE NEW CEMETERY</name>
			  <description><a href="http://www.cwgc.org/find-a-cemetery/cemetery/39700/WARE%20NEW%20CEMETERY">WARE NEW CEMETERY at the Commonwealth War Graves Commission</a>
			  </description>
			  <Point>
				<coordinates> -0.04301,51.81744</coordinates>
			  </Point>
			</Placemark><Placemark>
			  <name>WATFORD CEMETERY</name>
			  <description><a href="http://www.cwgc.org/find-a-cemetery/cemetery/39703/WATFORD%20CEMETERY">WATFORD CEMETERY at the Commonwealth War Graves Commission</a>
			  </description>
			  <Point>
				<coordinates> -0.40078,51.65174</coordinates>
			  </Point>
			</Placemark><Placemark>
			  <name>BELLS HILL BURIAL GROUND</name>
			  <description><a href="http://www.cwgc.org/find-a-cemetery/cemetery/2000510/BELLS%20HILL%20BURIAL%20GROUND">BELLS HILL BURIAL GROUND at the Commonwealth War Graves Commission</a>
			  </description>
			  <Point>
				<coordinates> -0.21508,51.64842</coordinates>
			  </Point>
			</Placemark><Placemark>
			  <name>CHESHUNT BURIAL GROUND</name>
			  <description><a href="http://www.cwgc.org/find-a-cemetery/cemetery/2000513/CHESHUNT%20BURIAL%20GROUND">CHESHUNT BURIAL GROUND at the Commonwealth War Graves Commission</a>
			  </description>
			  <Point>
				<coordinates> -0.0561,51.70106</coordinates>
			  </Point>
			</Placemark></Document></kml>