<?xml version="1.0" encoding="UTF-8"?>
				<kml xmlns="http://www.opengis.net/kml/2.2">
					<Document>
						<name>
							Cemeteries of the Commonwealth War Graves Commission for Norfolk
						</name>
						<description>
							Cemeteries in Norfolk from the Commonwealth War Graves Commission database (http://www.cwgc.org/) turned into a map by the World War One Centenary Project at The University of Oxford (http://ww1centenary.oucs.ox.ac.uk/). Licensed as Attribution-NonCommercial-ShareAlike 2.0 UK: England and Wales 
						</description><Placemark>
			  <name>EAST DEREHAM CEMETERY</name>
			  <description><a href="http://www.cwgc.org/find-a-cemetery/cemetery/2081554/EAST%20DEREHAM%20CEMETERY">EAST DEREHAM CEMETERY at the Commonwealth War Graves Commission</a>
			  </description>
			  <Point>
				<coordinates> 0.94471,52.68611</coordinates>
			  </Point>
			</Placemark><Placemark>
			  <name>GREAT YARMOUTH (CAISTER) CEMETERY</name>
			  <description><a href="http://www.cwgc.org/find-a-cemetery/cemetery/2081585/GREAT%20YARMOUTH%20(CAISTER)%20CEMETERY">GREAT YARMOUTH (CAISTER) CEMETERY at the Commonwealth War Graves Commission</a>
			  </description>
			  <Point>
				<coordinates> 1.72305,52.65245</coordinates>
			  </Point>
			</Placemark><Placemark>
			  <name>GREAT YARMOUTH (GORLESTON) CEMETERY</name>
			  <description><a href="http://www.cwgc.org/find-a-cemetery/cemetery/2081586/GREAT%20YARMOUTH%20(GORLESTON)%20CEMETERY">GREAT YARMOUTH (GORLESTON) CEMETERY at the Commonwealth War Graves Commission</a>
			  </description>
			  <Point>
				<coordinates> 1.71726,52.57871</coordinates>
			  </Point>
			</Placemark><Placemark>
			  <name>GREAT YARMOUTH NEW CEMETERY</name>
			  <description><a href="http://www.cwgc.org/find-a-cemetery/cemetery/2081587/GREAT%20YARMOUTH%20NEW%20CEMETERY">GREAT YARMOUTH NEW CEMETERY at the Commonwealth War Graves Commission</a>
			  </description>
			  <Point>
				<coordinates> 1.73351,52.6151</coordinates>
			  </Point>
			</Placemark><Placemark>
			  <name>KING'S LYNN CEMETERY</name>
			  <description><a href="http://www.cwgc.org/find-a-cemetery/cemetery/2081619/KING'S%20LYNN%20CEMETERY">KING'S LYNN CEMETERY at the Commonwealth War Graves Commission</a>
			  </description>
			  <Point>
				<coordinates> 0.40465,52.74352</coordinates>
			  </Point>
			</Placemark><Placemark>
			  <name>NARBOROUGH (ALL SAINTS) CHURCHYARD</name>
			  <description><a href="http://www.cwgc.org/find-a-cemetery/cemetery/2081642/NARBOROUGH%20(ALL%20SAINTS)%20CHURCHYARD">NARBOROUGH (ALL SAINTS) CHURCHYARD at the Commonwealth War Graves Commission</a>
			  </description>
			  <Point>
				<coordinates> 0.58336,52.68624</coordinates>
			  </Point>
			</Placemark><Placemark>
			  <name>NORWICH (THE ROSARY) CEMETERY</name>
			  <description><a href="http://www.cwgc.org/find-a-cemetery/cemetery/2081653/NORWICH%20(THE%20ROSARY)%20CEMETERY">NORWICH (THE ROSARY) CEMETERY at the Commonwealth War Graves Commission</a>
			  </description>
			  <Point>
				<coordinates> 1.31247,52.62717</coordinates>
			  </Point>
			</Placemark><Placemark>
			  <name>NORWICH CEMETERY, NORFOLK</name>
			  <description><a href="http://www.cwgc.org/find-a-cemetery/cemetery/2081652/NORWICH%20CEMETERY,%20NORFOLK">NORWICH CEMETERY, NORFOLK at the Commonwealth War Graves Commission</a>
			  </description>
			  <Point>
				<coordinates> 1.26774,52.63059</coordinates>
			  </Point>
			</Placemark><Placemark>
			  <name>THETFORD CEMETERY</name>
			  <description><a href="http://www.cwgc.org/find-a-cemetery/cemetery/2081704/THETFORD%20CEMETERY">THETFORD CEMETERY at the Commonwealth War Graves Commission</a>
			  </description>
			  <Point>
				<coordinates> 0.73781,52.40983</coordinates>
			  </Point>
			</Placemark><Placemark>
			  <name>CROMER NO.2 BURIAL GROUND</name>
			  <description><a href="http://www.cwgc.org/find-a-cemetery/cemetery/2100791/CROMER%20NO.2%20BURIAL%20GROUND">CROMER NO.2 BURIAL GROUND at the Commonwealth War Graves Commission</a>
			  </description>
			  <Point>
				<coordinates> 1.27345,52.92002</coordinates>
			  </Point>
			</Placemark></Document></kml>