<?xml version="1.0" encoding="UTF-8"?>
				<kml xmlns="http://www.opengis.net/kml/2.2">
					<Document>
						<name>
							Cemeteries of the Commonwealth War Graves Commission for Orkney
						</name>
						<description>
							Cemeteries in Orkney from the Commonwealth War Graves Commission database (http://www.cwgc.org/) turned into a map by the World War One Centenary Project at The University of Oxford (http://ww1centenary.oucs.ox.ac.uk/). Licensed as Attribution-NonCommercial-ShareAlike 2.0 UK: England and Wales 
						</description><Placemark>
			  <name>BIRSAY NEW CEMETERY</name>
			  <description><a href="http://www.cwgc.org/find-a-cemetery/cemetery/74554/BIRSAY%20NEW%20CEMETERY">BIRSAY NEW CEMETERY at the Commonwealth War Graves Commission</a>
			  </description>
			  <Point>
				<coordinates> -3.31432,59.12106</coordinates>
			  </Point>
			</Placemark><Placemark>
			  <name>BURNESS CEMETERY</name>
			  <description><a href="http://www.cwgc.org/find-a-cemetery/cemetery/74555/BURNESS%20CEMETERY">BURNESS CEMETERY at the Commonwealth War Graves Commission</a>
			  </description>
			  <Point>
				<coordinates> -2.57714,59.2899</coordinates>
			  </Point>
			</Placemark><Placemark>
			  <name>BURRAY CEMETERY</name>
			  <description><a href="http://www.cwgc.org/find-a-cemetery/cemetery/74556/BURRAY%20CEMETERY">BURRAY CEMETERY at the Commonwealth War Graves Commission</a>
			  </description>
			  <Point>
				<coordinates> -2.88362,58.85191</coordinates>
			  </Point>
			</Placemark><Placemark>
			  <name>CROSS CEMETERY</name>
			  <description><a href="http://www.cwgc.org/find-a-cemetery/cemetery/74557/CROSS%20CEMETERY">CROSS CEMETERY at the Commonwealth War Graves Commission</a>
			  </description>
			  <Point>
				<coordinates> -2.56754,59.24492</coordinates>
			  </Point>
			</Placemark><Placemark>
			  <name>DEERNESS PARISH CHURCHYARD</name>
			  <description><a href="http://www.cwgc.org/find-a-cemetery/cemetery/74558/DEERNESS%20PARISH%20CHURCHYARD">DEERNESS PARISH CHURCHYARD at the Commonwealth War Graves Commission</a>
			  </description>
			  <Point>
				<coordinates> -2.71709,58.94227</coordinates>
			  </Point>
			</Placemark><Placemark>
			  <name>EDAY OLD CHURCHYARD</name>
			  <description><a href="http://www.cwgc.org/find-a-cemetery/cemetery/74559/EDAY%20OLD%20CHURCHYARD">EDAY OLD CHURCHYARD at the Commonwealth War Graves Commission</a>
			  </description>
			  <Point>
				<coordinates> -2.75803,59.18009</coordinates>
			  </Point>
			</Placemark><Placemark>
			  <name>EVIE CEMETERY</name>
			  <description><a href="http://www.cwgc.org/find-a-cemetery/cemetery/74560/EVIE%20CEMETERY">EVIE CEMETERY at the Commonwealth War Graves Commission</a>
			  </description>
			  <Point>
				<coordinates> -3.10009,59.11795</coordinates>
			  </Point>
			</Placemark><Placemark>
			  <name>FLOTTA PARISH CHURCHYARD</name>
			  <description><a href="http://www.cwgc.org/find-a-cemetery/cemetery/74561/FLOTTA%20PARISH%20CHURCHYARD">FLOTTA PARISH CHURCHYARD at the Commonwealth War Graves Commission</a>
			  </description>
			  <Point>
				<coordinates> -3.09781,58.82082</coordinates>
			  </Point>
			</Placemark><Placemark>
			  <name>HARRAY (ST. MICHAEL) PARISH CHURCHYARD</name>
			  <description><a href="http://www.cwgc.org/find-a-cemetery/cemetery/74562/HARRAY%20(ST.%20MICHAEL)%20PARISH%20CHURCHYARD">HARRAY (ST. MICHAEL) PARISH CHURCHYARD at the Commonwealth War Graves Commission</a>
			  </description>
			  <Point>
				<coordinates> -3.1969,59.04264</coordinates>
			  </Point>
			</Placemark><Placemark>
			  <name>HOLM PARISH CHURCHYARD</name>
			  <description><a href="http://www.cwgc.org/find-a-cemetery/cemetery/74563/HOLM%20PARISH%20CHURCHYARD">HOLM PARISH CHURCHYARD at the Commonwealth War Graves Commission</a>
			  </description>
			  <Point>
				<coordinates> -2.85071,58.89005</coordinates>
			  </Point>
			</Placemark><Placemark>
			  <name>HOY OLD CHURCHYARD, HOY AND GRAEMSAY</name>
			  <description><a href="http://www.cwgc.org/find-a-cemetery/cemetery/74564/HOY%20OLD%20CHURCHYARD,%20HOY%20AND%20GRAEMSAY">HOY OLD CHURCHYARD, HOY AND GRAEMSAY at the Commonwealth War Graves Commission</a>
			  </description>
			  <Point>
				<coordinates> -3.32876,58.92208</coordinates>
			  </Point>
			</Placemark><Placemark>
			  <name>KIRKWALL (ST. MAGNUS) CATHEDRAL CHURCHYARD</name>
			  <description><a href="http://www.cwgc.org/find-a-cemetery/cemetery/74565/KIRKWALL%20(ST.%20MAGNUS)%20CATHEDRAL%20CHURCHYARD">KIRKWALL (ST. MAGNUS) CATHEDRAL CHURCHYARD at the Commonwealth War Graves Commission</a>
			  </description>
			  <Point>
				<coordinates> -2.95953,58.98108</coordinates>
			  </Point>
			</Placemark><Placemark>
			  <name>KIRKWALL (ST. OLAF'S) CEMETERY</name>
			  <description><a href="http://www.cwgc.org/find-a-cemetery/cemetery/74566/KIRKWALL%20(ST.%20OLAF'S)%20CEMETERY">KIRKWALL (ST. OLAF'S) CEMETERY at the Commonwealth War Graves Commission</a>
			  </description>
			  <Point>
				<coordinates> -2.98651,58.96995</coordinates>
			  </Point>
			</Placemark><Placemark>
			  <name>LYNESS ROYAL NAVAL CEMETERY</name>
			  <description><a href="http://www.cwgc.org/find-a-cemetery/cemetery/74567/LYNESS%20ROYAL%20NAVAL%20CEMETERY">LYNESS ROYAL NAVAL CEMETERY at the Commonwealth War Graves Commission</a>
			  </description>
			  <Point>
				<coordinates> -3.20997,58.83384</coordinates>
			  </Point>
			</Placemark><Placemark>
			  <name>NORTH RONALDSAY CHURCHYARD</name>
			  <description><a href="http://www.cwgc.org/find-a-cemetery/cemetery/74568/NORTH%20RONALDSAY%20CHURCHYARD">NORTH RONALDSAY CHURCHYARD at the Commonwealth War Graves Commission</a>
			  </description>
			  <Point>
				<coordinates> -2.43346,59.36447</coordinates>
			  </Point>
			</Placemark><Placemark>
			  <name>OSMONDWALL CEMETERY</name>
			  <description><a href="http://www.cwgc.org/find-a-cemetery/cemetery/74569/OSMONDWALL%20CEMETERY">OSMONDWALL CEMETERY at the Commonwealth War Graves Commission</a>
			  </description>
			  <Point>
				<coordinates> -3.15429,58.78783</coordinates>
			  </Point>
			</Placemark><Placemark>
			  <name>PAPA-WESTRAY OLD CHURCHYARD</name>
			  <description><a href="http://www.cwgc.org/find-a-cemetery/cemetery/74570/PAPA-WESTRAY%20OLD%20CHURCHYARD">PAPA-WESTRAY OLD CHURCHYARD at the Commonwealth War Graves Commission</a>
			  </description>
			  <Point>
				<coordinates> -2.90153,59.3577</coordinates>
			  </Point>
			</Placemark><Placemark>
			  <name>PIEROWALL OLD CHURCHYARD</name>
			  <description><a href="http://www.cwgc.org/find-a-cemetery/cemetery/74571/PIEROWALL%20OLD%20CHURCHYARD">PIEROWALL OLD CHURCHYARD at the Commonwealth War Graves Commission</a>
			  </description>
			  <Point>
				<coordinates> -2.98698,59.32249</coordinates>
			  </Point>
			</Placemark><Placemark>
			  <name>SCOCKNESS CEMETERY</name>
			  <description><a href="http://www.cwgc.org/find-a-cemetery/cemetery/74573/SCOCKNESS%20CEMETERY">SCOCKNESS CEMETERY at the Commonwealth War Graves Commission</a>
			  </description>
			  <Point>
				<coordinates> -2.95943,59.17617</coordinates>
			  </Point>
			</Placemark><Placemark>
			  <name>SHAPINSAY PARISH CHURCHYARD</name>
			  <description><a href="http://www.cwgc.org/find-a-cemetery/cemetery/74574/SHAPINSAY%20PARISH%20CHURCHYARD">SHAPINSAY PARISH CHURCHYARD at the Commonwealth War Graves Commission</a>
			  </description>
			  <Point>
				<coordinates> -2.86849,59.03315</coordinates>
			  </Point>
			</Placemark><Placemark>
			  <name>SOUTH RONALDSAY (ST. PETER) CHURCHYARD</name>
			  <description><a href="http://www.cwgc.org/find-a-cemetery/cemetery/74575/SOUTH%20RONALDSAY%20(ST.%20PETER)%20CHURCHYARD">SOUTH RONALDSAY (ST. PETER) CHURCHYARD at the Commonwealth War Graves Commission</a>
			  </description>
			  <Point>
				<coordinates> -2.91848,58.80264</coordinates>
			  </Point>
			</Placemark><Placemark>
			  <name>ST. ANDREWS NEW CEMETERY</name>
			  <description><a href="http://www.cwgc.org/find-a-cemetery/cemetery/74572/ST.%20ANDREWS%20NEW%20CEMETERY">ST. ANDREWS NEW CEMETERY at the Commonwealth War Graves Commission</a>
			  </description>
			  <Point>
				<coordinates> -2.85311,58.93941</coordinates>
			  </Point>
			</Placemark><Placemark>
			  <name>STENNESS PARISH CHURCHYARD</name>
			  <description><a href="http://www.cwgc.org/find-a-cemetery/cemetery/74576/STENNESS%20PARISH%20CHURCHYARD">STENNESS PARISH CHURCHYARD at the Commonwealth War Graves Commission</a>
			  </description>
			  <Point>
				<coordinates> -3.20065,58.99338</coordinates>
			  </Point>
			</Placemark><Placemark>
			  <name>STROMNESS CEMETERY</name>
			  <description><a href="http://www.cwgc.org/find-a-cemetery/cemetery/74577/STROMNESS%20CEMETERY">STROMNESS CEMETERY at the Commonwealth War Graves Commission</a>
			  </description>
			  <Point>
				<coordinates> -3.32656,58.95491</coordinates>
			  </Point>
			</Placemark><Placemark>
			  <name>STRONSAY PARISH CHURCHYARD</name>
			  <description><a href="http://www.cwgc.org/find-a-cemetery/cemetery/74578/STRONSAY%20PARISH%20CHURCHYARD">STRONSAY PARISH CHURCHYARD at the Commonwealth War Graves Commission</a>
			  </description>
			  <Point>
				<coordinates> -2.60619,59.11178</coordinates>
			  </Point>
			</Placemark><Placemark>
			  <name>WESTNESS CEMETERY</name>
			  <description><a href="http://www.cwgc.org/find-a-cemetery/cemetery/74579/WESTNESS%20CEMETERY">WESTNESS CEMETERY at the Commonwealth War Graves Commission</a>
			  </description>
			  <Point>
				<coordinates> -3.09637,59.15379</coordinates>
			  </Point>
			</Placemark></Document></kml>