<?xml version="1.0" encoding="UTF-8"?>
				<kml xmlns="http://www.opengis.net/kml/2.2">
					<Document>
						<name>
							Cemeteries of the Commonwealth War Graves Commission for Staffordshire
						</name>
						<description>
							Cemeteries in Staffordshire from the Commonwealth War Graves Commission database (http://www.cwgc.org/) turned into a map by the World War One Centenary Project at The University of Oxford (http://ww1centenary.oucs.ox.ac.uk/). Licensed as Attribution-NonCommercial-ShareAlike 2.0 UK: England and Wales 
						</description><Placemark>
			  <name>BILSTON CEMETERY</name>
			  <description><a href="http://www.cwgc.org/find-a-cemetery/cemetery/43801/BILSTON%20CEMETERY">BILSTON CEMETERY at the Commonwealth War Graves Commission</a>
			  </description>
			  <Point>
				<coordinates> -2.08628,52.57085</coordinates>
			  </Point>
			</Placemark><Placemark>
			  <name>BURTON-UPON-TRENT CEMETERY</name>
			  <description><a href="http://www.cwgc.org/find-a-cemetery/cemetery/43905/BURTON-UPON-TRENT%20CEMETERY">BURTON-UPON-TRENT CEMETERY at the Commonwealth War Graves Commission</a>
			  </description>
			  <Point>
				<coordinates> -1.62092,52.80261</coordinates>
			  </Point>
			</Placemark><Placemark>
			  <name>NEWCASTLE-UNDER-LYME CEMETERY</name>
			  <description><a href="http://www.cwgc.org/find-a-cemetery/cemetery/43948/NEWCASTLE-UNDER-LYME%20CEMETERY">NEWCASTLE-UNDER-LYME CEMETERY at the Commonwealth War Graves Commission</a>
			  </description>
			  <Point>
				<coordinates> -2.22856,53.00662</coordinates>
			  </Point>
			</Placemark><Placemark>
			  <name>SMETHWICK (UPLANDS) CEMETERY</name>
			  <description><a href="http://www.cwgc.org/find-a-cemetery/cemetery/43846/SMETHWICK%20(UPLANDS)%20CEMETERY">SMETHWICK (UPLANDS) CEMETERY at the Commonwealth War Graves Commission</a>
			  </description>
			  <Point>
				<coordinates> -1.97548,52.4868</coordinates>
			  </Point>
			</Placemark><Placemark>
			  <name>STOKE-ON-TRENT (BURSLEM) CEMETERY</name>
			  <description><a href="http://www.cwgc.org/find-a-cemetery/cemetery/43970/STOKE-ON-TRENT%20(BURSLEM)%20CEMETERY">STOKE-ON-TRENT (BURSLEM) CEMETERY at the Commonwealth War Graves Commission</a>
			  </description>
			  <Point>
				<coordinates> -2.17468,53.0463</coordinates>
			  </Point>
			</Placemark><Placemark>
			  <name>STOKE-ON-TRENT (HANLEY) CEMETERY</name>
			  <description><a href="http://www.cwgc.org/find-a-cemetery/cemetery/43972/STOKE-ON-TRENT%20(HANLEY)%20CEMETERY">STOKE-ON-TRENT (HANLEY) CEMETERY at the Commonwealth War Graves Commission</a>
			  </description>
			  <Point>
				<coordinates> -2.18509,53.01408</coordinates>
			  </Point>
			</Placemark><Placemark>
			  <name>STOKE-ON-TRENT (HARTSHILL) CEMETERY</name>
			  <description><a href="http://www.cwgc.org/find-a-cemetery/cemetery/43973/STOKE-ON-TRENT%20(HARTSHILL)%20CEMETERY">STOKE-ON-TRENT (HARTSHILL) CEMETERY at the Commonwealth War Graves Commission</a>
			  </description>
			  <Point>
				<coordinates> -2.20257,53.00668</coordinates>
			  </Point>
			</Placemark><Placemark>
			  <name>STOKE-ON-TRENT (LONGTON) CEMETERY</name>
			  <description><a href="http://www.cwgc.org/find-a-cemetery/cemetery/43974/STOKE-ON-TRENT%20(LONGTON)%20CEMETERY">STOKE-ON-TRENT (LONGTON) CEMETERY at the Commonwealth War Graves Commission</a>
			  </description>
			  <Point>
				<coordinates> -2.1371,52.98093</coordinates>
			  </Point>
			</Placemark><Placemark>
			  <name>WALSALL (RYECROFT) CEMETERY</name>
			  <description><a href="http://www.cwgc.org/find-a-cemetery/cemetery/43855/WALSALL%20(RYECROFT)%20CEMETERY">WALSALL (RYECROFT) CEMETERY at the Commonwealth War Graves Commission</a>
			  </description>
			  <Point>
				<coordinates> -1.97684,52.5979</coordinates>
			  </Point>
			</Placemark><Placemark>
			  <name>WEST BROMWICH CEMETERY</name>
			  <description><a href="http://www.cwgc.org/find-a-cemetery/cemetery/43866/WEST%20BROMWICH%20CEMETERY">WEST BROMWICH CEMETERY at the Commonwealth War Graves Commission</a>
			  </description>
			  <Point>
				<coordinates> -1.98858,52.53555</coordinates>
			  </Point>
			</Placemark><Placemark>
			  <name>WOLVERHAMPTON BOROUGH CEMETERY</name>
			  <description><a href="http://www.cwgc.org/find-a-cemetery/cemetery/43870/WOLVERHAMPTON%20BOROUGH%20CEMETERY">WOLVERHAMPTON BOROUGH CEMETERY at the Commonwealth War Graves Commission</a>
			  </description>
			  <Point>
				<coordinates> -2.15062,52.57914</coordinates>
			  </Point>
			</Placemark><Placemark>
			  <name>CANNOCK CHASE WAR CEMETERY</name>
			  <description><a href="http://www.cwgc.org/find-a-cemetery/cemetery/2000401/CANNOCK%20CHASE%20WAR%20CEMETERY">CANNOCK CHASE WAR CEMETERY at the Commonwealth War Graves Commission</a>
			  </description>
			  <Point>
				<coordinates> -2.02703,52.73691</coordinates>
			  </Point>
			</Placemark></Document></kml>