<?xml version="1.0" encoding="UTF-8"?>
				<kml xmlns="http://www.opengis.net/kml/2.2">
					<Document>
						<name>
							Cemeteries of the Commonwealth War Graves Commission for Stirlingshire
						</name>
						<description>
							Cemeteries in Stirlingshire from the Commonwealth War Graves Commission database (http://www.cwgc.org/) turned into a map by the World War One Centenary Project at The University of Oxford (http://ww1centenary.oucs.ox.ac.uk/). Licensed as Attribution-NonCommercial-ShareAlike 2.0 UK: England and Wales 
						</description><Placemark>
			  <name>CAMELON CEMETERY</name>
			  <description><a href="http://www.cwgc.org/find-a-cemetery/cemetery/2047843/CAMELON%20CEMETERY">CAMELON CEMETERY at the Commonwealth War Graves Commission</a>
			  </description>
			  <Point>
				<coordinates> -3.80673,56.00677</coordinates>
			  </Point>
			</Placemark><Placemark>
			  <name>DENNY AND DUNIPACE CEMETERY</name>
			  <description><a href="http://www.cwgc.org/find-a-cemetery/cemetery/2047857/DENNY%20AND%20DUNIPACE%20CEMETERY">DENNY AND DUNIPACE CEMETERY at the Commonwealth War Graves Commission</a>
			  </description>
			  <Point>
				<coordinates> -3.89217,56.0212</coordinates>
			  </Point>
			</Placemark><Placemark>
			  <name>KILSYTH CEMETERY</name>
			  <description><a href="http://www.cwgc.org/find-a-cemetery/cemetery/2079189/KILSYTH%20CEMETERY">KILSYTH CEMETERY at the Commonwealth War Graves Commission</a>
			  </description>
			  <Point>
				<coordinates> -4.05663,55.97057</coordinates>
			  </Point>
			</Placemark><Placemark>
			  <name>LARBERT CEMETERY</name>
			  <description><a href="http://www.cwgc.org/find-a-cemetery/cemetery/2079191/LARBERT%20CEMETERY">LARBERT CEMETERY at the Commonwealth War Graves Commission</a>
			  </description>
			  <Point>
				<coordinates> -3.81015,56.03072</coordinates>
			  </Point>
			</Placemark><Placemark>
			  <name>ST. NINIANS (BANNOCKBURN) PARISH BURIAL GROUND</name>
			  <description><a href="http://www.cwgc.org/find-a-cemetery/cemetery/2079197/ST.%20NINIANS%20(BANNOCKBURN)%20PARISH%20BURIAL%20GROUND">ST. NINIANS (BANNOCKBURN) PARISH BURIAL GROUND at the Commonwealth War Graves Commission</a>
			  </description>
			  <Point>
				<coordinates> -3.9111,56.09234</coordinates>
			  </Point>
			</Placemark><Placemark>
			  <name>STIRLING (BALLENGEICH) CEMETERY</name>
			  <description><a href="http://www.cwgc.org/find-a-cemetery/cemetery/2079200/STIRLING%20(BALLENGEICH)%20CEMETERY">STIRLING (BALLENGEICH) CEMETERY at the Commonwealth War Graves Commission</a>
			  </description>
			  <Point>
				<coordinates> -3.94692,56.12462</coordinates>
			  </Point>
			</Placemark><Placemark>
			  <name>STIRLING (MAR PLACE) CEMETERY</name>
			  <description><a href="http://www.cwgc.org/find-a-cemetery/cemetery/2079202/STIRLING%20(MAR%20PLACE)%20CEMETERY">STIRLING (MAR PLACE) CEMETERY at the Commonwealth War Graves Commission</a>
			  </description>
			  <Point>
				<coordinates> -3.94428,56.12182</coordinates>
			  </Point>
			</Placemark><Placemark>
			  <name>GRANGEMOUTH (GRANDSABLE) CEMETERY</name>
			  <description><a href="http://www.cwgc.org/find-a-cemetery/cemetery/2090152/GRANGEMOUTH%20(GRANDSABLE)%20CEMETERY">GRANGEMOUTH (GRANDSABLE) CEMETERY at the Commonwealth War Graves Commission</a>
			  </description>
			  <Point>
				<coordinates> -3.72595,55.99574</coordinates>
			  </Point>
			</Placemark></Document></kml>