<?xml version="1.0" encoding="UTF-8"?>
				<kml xmlns="http://www.opengis.net/kml/2.2">
					<Document>
						<name>
							Cemeteries of the Commonwealth War Graves Commission for Warwickshire
						</name>
						<description>
							Cemeteries in Warwickshire from the Commonwealth War Graves Commission database (http://www.cwgc.org/) turned into a map by the World War One Centenary Project at The University of Oxford (http://ww1centenary.oucs.ox.ac.uk/). Licensed as Attribution-NonCommercial-ShareAlike 2.0 UK: England and Wales 
						</description><Placemark>
			  <name>ASTON (SS. PETER AND PAUL) CHURCHYARD</name>
			  <description><a href="http://www.cwgc.org/find-a-cemetery/cemetery/45001/ASTON%20(SS.%20PETER%20AND%20PAUL)%20CHURCHYARD">ASTON (SS. PETER AND PAUL) CHURCHYARD at the Commonwealth War Graves Commission</a>
			  </description>
			  <Point>
				<coordinates> -1.88102,52.50703</coordinates>
			  </Point>
			</Placemark><Placemark>
			  <name>BIRMINGHAM (BRANDWOOD END) CEMETERY</name>
			  <description><a href="http://www.cwgc.org/find-a-cemetery/cemetery/45002/BIRMINGHAM%20(BRANDWOOD%20END)%20CEMETERY">BIRMINGHAM (BRANDWOOD END) CEMETERY at the Commonwealth War Graves Commission</a>
			  </description>
			  <Point>
				<coordinates> -1.89911,52.41819</coordinates>
			  </Point>
			</Placemark><Placemark>
			  <name>BIRMINGHAM (HANDSWORTH) CEMETERY</name>
			  <description><a href="http://www.cwgc.org/find-a-cemetery/cemetery/45004/BIRMINGHAM%20(HANDSWORTH)%20CEMETERY">BIRMINGHAM (HANDSWORTH) CEMETERY at the Commonwealth War Graves Commission</a>
			  </description>
			  <Point>
				<coordinates> -1.96176,52.51239</coordinates>
			  </Point>
			</Placemark><Placemark>
			  <name>BIRMINGHAM (KEY HILL) CEMETERY</name>
			  <description><a href="http://www.cwgc.org/find-a-cemetery/cemetery/45003/BIRMINGHAM%20(KEY%20HILL)%20CEMETERY">BIRMINGHAM (KEY HILL) CEMETERY at the Commonwealth War Graves Commission</a>
			  </description>
			  <Point>
				<coordinates> -1.9145,52.49146</coordinates>
			  </Point>
			</Placemark><Placemark>
			  <name>BIRMINGHAM (LODGE HILL) CEMETERY</name>
			  <description><a href="http://www.cwgc.org/find-a-cemetery/cemetery/45005/BIRMINGHAM%20(LODGE%20HILL)%20CEMETERY">BIRMINGHAM (LODGE HILL) CEMETERY at the Commonwealth War Graves Commission</a>
			  </description>
			  <Point>
				<coordinates> -1.95495,52.43887</coordinates>
			  </Point>
			</Placemark><Placemark>
			  <name>BIRMINGHAM (WARSTONE LANE) CEMETERY</name>
			  <description><a href="http://www.cwgc.org/find-a-cemetery/cemetery/45006/BIRMINGHAM%20(WARSTONE%20LANE)%20CEMETERY">BIRMINGHAM (WARSTONE LANE) CEMETERY at the Commonwealth War Graves Commission</a>
			  </description>
			  <Point>
				<coordinates> -1.91394,52.48719</coordinates>
			  </Point>
			</Placemark><Placemark>
			  <name>BIRMINGHAM (WITTON) CEMETERY</name>
			  <description><a href="http://www.cwgc.org/find-a-cemetery/cemetery/45007/BIRMINGHAM%20(WITTON)%20CEMETERY">BIRMINGHAM (WITTON) CEMETERY at the Commonwealth War Graves Commission</a>
			  </description>
			  <Point>
				<coordinates> -1.87843,52.52742</coordinates>
			  </Point>
			</Placemark><Placemark>
			  <name>BIRMINGHAM (YARDLEY) CEMETERY</name>
			  <description><a href="http://www.cwgc.org/find-a-cemetery/cemetery/45008/BIRMINGHAM%20(YARDLEY)%20CEMETERY">BIRMINGHAM (YARDLEY) CEMETERY at the Commonwealth War Graves Commission</a>
			  </description>
			  <Point>
				<coordinates> -1.81784,52.45913</coordinates>
			  </Point>
			</Placemark><Placemark>
			  <name>ERDINGTON (ST. BARNABAS) CHURCHYARD</name>
			  <description><a href="http://www.cwgc.org/find-a-cemetery/cemetery/45012/ERDINGTON%20(ST.%20BARNABAS)%20CHURCHYARD">ERDINGTON (ST. BARNABAS) CHURCHYARD at the Commonwealth War Graves Commission</a>
			  </description>
			  <Point>
				<coordinates> -1.83924,52.52255</coordinates>
			  </Point>
			</Placemark><Placemark>
			  <name>HANDSWORTH (ST. MARY) CHURCHYARD</name>
			  <description><a href="http://www.cwgc.org/find-a-cemetery/cemetery/45014/HANDSWORTH%20(ST.%20MARY)%20CHURCHYARD">HANDSWORTH (ST. MARY) CHURCHYARD at the Commonwealth War Graves Commission</a>
			  </description>
			  <Point>
				<coordinates> -1.91898,52.51087</coordinates>
			  </Point>
			</Placemark><Placemark>
			  <name>HARBORNE (ST. PETER) CHURCHYARD</name>
			  <description><a href="http://www.cwgc.org/find-a-cemetery/cemetery/45015/HARBORNE%20(ST.%20PETER)%20CHURCHYARD">HARBORNE (ST. PETER) CHURCHYARD at the Commonwealth War Graves Commission</a>
			  </description>
			  <Point>
				<coordinates> -1.95959,52.45355</coordinates>
			  </Point>
			</Placemark><Placemark>
			  <name>KINGS NORTON (ST. NICOLAS) CHURCHYARD</name>
			  <description><a href="http://www.cwgc.org/find-a-cemetery/cemetery/45017/KINGS%20NORTON%20(ST.%20NICOLAS)%20CHURCHYARD">KINGS NORTON (ST. NICOLAS) CHURCHYARD at the Commonwealth War Graves Commission</a>
			  </description>
			  <Point>
				<coordinates> -1.92883,52.40819</coordinates>
			  </Point>
			</Placemark><Placemark>
			  <name>NECHELLS (ST. JOSEPH) ROMAN CATHOLIC CHURCHYARD</name>
			  <description><a href="http://www.cwgc.org/find-a-cemetery/cemetery/45019/NECHELLS%20(ST.%20JOSEPH)%20ROMAN%20CATHOLIC%20CHURCHYARD">NECHELLS (ST. JOSEPH) ROMAN CATHOLIC CHURCHYARD at the Commonwealth War Graves Commission</a>
			  </description>
			  <Point>
				<coordinates> -1.87105,52.49856</coordinates>
			  </Point>
			</Placemark><Placemark>
			  <name>PERRY BARR (ST. JOHN) CHURCHYARD</name>
			  <description><a href="http://www.cwgc.org/find-a-cemetery/cemetery/45021/PERRY%20BARR%20(ST.%20JOHN)%20CHURCHYARD">PERRY BARR (ST. JOHN) CHURCHYARD at the Commonwealth War Graves Commission</a>
			  </description>
			  <Point>
				<coordinates> -1.901,52.52612</coordinates>
			  </Point>
			</Placemark><Placemark>
			  <name>BUDBROOKE (ST. MICHAEL) CHURCHYARD</name>
			  <description><a href="http://www.cwgc.org/find-a-cemetery/cemetery/2072027/BUDBROOKE%20(ST.%20MICHAEL)%20CHURCHYARD">BUDBROOKE (ST. MICHAEL) CHURCHYARD at the Commonwealth War Graves Commission</a>
			  </description>
			  <Point>
				<coordinates> -1.62273,52.28719</coordinates>
			  </Point>
			</Placemark><Placemark>
			  <name>COVENTRY (LONDON ROAD) CEMETERY</name>
			  <description><a href="http://www.cwgc.org/find-a-cemetery/cemetery/2072000/COVENTRY%20(LONDON%20ROAD)%20CEMETERY">COVENTRY (LONDON ROAD) CEMETERY at the Commonwealth War Graves Commission</a>
			  </description>
			  <Point>
				<coordinates> -1.50036,52.39828</coordinates>
			  </Point>
			</Placemark><Placemark>
			  <name>LEAMINGTON (WHITNASH ROAD) CEMETERY</name>
			  <description><a href="http://www.cwgc.org/find-a-cemetery/cemetery/2072070/LEAMINGTON%20(WHITNASH%20ROAD)%20CEMETERY">LEAMINGTON (WHITNASH ROAD) CEMETERY at the Commonwealth War Graves Commission</a>
			  </description>
			  <Point>
				<coordinates> -1.52824,52.27562</coordinates>
			  </Point>
			</Placemark><Placemark>
			  <name>NUNEATON (OASTON ROAD) CEMETERY</name>
			  <description><a href="http://www.cwgc.org/find-a-cemetery/cemetery/2072090/NUNEATON%20(OASTON%20ROAD)%20CEMETERY">NUNEATON (OASTON ROAD) CEMETERY at the Commonwealth War Graves Commission</a>
			  </description>
			  <Point>
				<coordinates> -1.4574,52.52439</coordinates>
			  </Point>
			</Placemark><Placemark>
			  <name>RUGBY (CLIFTON ROAD) CEMETERY</name>
			  <description><a href="http://www.cwgc.org/find-a-cemetery/cemetery/2072108/RUGBY%20(CLIFTON%20ROAD)%20CEMETERY">RUGBY (CLIFTON ROAD) CEMETERY at the Commonwealth War Graves Commission</a>
			  </description>
			  <Point>
				<coordinates> -1.24828,52.37226</coordinates>
			  </Point>
			</Placemark><Placemark>
			  <name>STRATFORD-ON-AVON CEMETERY</name>
			  <description><a href="http://www.cwgc.org/find-a-cemetery/cemetery/2072143/STRATFORD-ON-AVON%20CEMETERY">STRATFORD-ON-AVON CEMETERY at the Commonwealth War Graves Commission</a>
			  </description>
			  <Point>
				<coordinates> -1.72194,52.18663</coordinates>
			  </Point>
			</Placemark><Placemark>
			  <name>SUTTON COLDFIELD CEMETERY</name>
			  <description><a href="http://www.cwgc.org/find-a-cemetery/cemetery/2072126/SUTTON%20COLDFIELD%20CEMETERY">SUTTON COLDFIELD CEMETERY at the Commonwealth War Graves Commission</a>
			  </description>
			  <Point>
				<coordinates> -1.8146,52.56682</coordinates>
			  </Point>
			</Placemark><Placemark>
			  <name>WARWICK CEMETERY</name>
			  <description><a href="http://www.cwgc.org/find-a-cemetery/cemetery/2072131/WARWICK%20CEMETERY">WARWICK CEMETERY at the Commonwealth War Graves Commission</a>
			  </description>
			  <Point>
				<coordinates> -1.60561,52.28824</coordinates>
			  </Point>
			</Placemark></Document></kml>