<?xml version="1.0" encoding="UTF-8"?>
				<kml xmlns="http://www.opengis.net/kml/2.2">
					<Document>
						<name>
							Cemeteries of the Commonwealth War Graves Commission for Yorkshire
						</name>
						<description>
							Cemeteries in Yorkshire from the Commonwealth War Graves Commission database (http://www.cwgc.org/) turned into a map by the World War One Centenary Project at The University of Oxford (http://ww1centenary.oucs.ox.ac.uk/). Licensed as Attribution-NonCommercial-ShareAlike 2.0 UK: England and Wales 
						</description><Placemark>
			  <name>DORE (CHRIST CHURCH) CHURCHYARD</name>
			  <description><a href="http://www.cwgc.org/find-a-cemetery/cemetery/37719/DORE%20(CHRIST%20CHURCH)%20CHURCHYARD">DORE (CHRIST CHURCH) CHURCHYARD at the Commonwealth War Graves Commission</a>
			  </description>
			  <Point>
				<coordinates> -1.53899,53.32569</coordinates>
			  </Point>
			</Placemark><Placemark>
			  <name>RICHMOND CEMETERY, YORKSHIRE</name>
			  <description><a href="http://www.cwgc.org/find-a-cemetery/cemetery/44688/RICHMOND%20CEMETERY,%20YORKSHIRE">RICHMOND CEMETERY, YORKSHIRE at the Commonwealth War Graves Commission</a>
			  </description>
			  <Point>
				<coordinates> -1.75694,54.40478</coordinates>
			  </Point>
			</Placemark><Placemark>
			  <name>ALDWARK (ST. STEPHEN) CHURCHYARD</name>
			  <description><a href="http://www.cwgc.org/find-a-cemetery/cemetery/45813/ALDWARK%20(ST.%20STEPHEN)%20CHURCHYARD">ALDWARK (ST. STEPHEN) CHURCHYARD at the Commonwealth War Graves Commission</a>
			  </description>
			  <Point>
				<coordinates> -1.2874,54.06418</coordinates>
			  </Point>
			</Placemark><Placemark>
			  <name>ALLERTHORPE (ST. BOTOLPH) CHURCHYARD</name>
			  <description><a href="http://www.cwgc.org/find-a-cemetery/cemetery/45758/ALLERTHORPE%20(ST.%20BOTOLPH)%20CHURCHYARD">ALLERTHORPE (ST. BOTOLPH) CHURCHYARD at the Commonwealth War Graves Commission</a>
			  </description>
			  <Point>
				<coordinates> -0.80572,53.91699</coordinates>
			  </Point>
			</Placemark><Placemark>
			  <name>ALNE (ST. MARY) CHURCHYARD</name>
			  <description><a href="http://www.cwgc.org/find-a-cemetery/cemetery/45814/ALNE%20(ST.%20MARY)%20CHURCHYARD">ALNE (ST. MARY) CHURCHYARD at the Commonwealth War Graves Commission</a>
			  </description>
			  <Point>
				<coordinates> -1.24394,54.08155</coordinates>
			  </Point>
			</Placemark><Placemark>
			  <name>AMOTHERBY (ST. HELEN) CHURCHYARD</name>
			  <description><a href="http://www.cwgc.org/find-a-cemetery/cemetery/45846/AMOTHERBY%20(ST.%20HELEN)%20CHURCHYARD">AMOTHERBY (ST. HELEN) CHURCHYARD at the Commonwealth War Graves Commission</a>
			  </description>
			  <Point>
				<coordinates> -0.85271,54.15128</coordinates>
			  </Point>
			</Placemark><Placemark>
			  <name>AMPLEFORTH (ST. BENEDICT) ROMAN CATHOLIC CHURCHYARD</name>
			  <description><a href="http://www.cwgc.org/find-a-cemetery/cemetery/45831/AMPLEFORTH%20(ST.%20BENEDICT)%20ROMAN%20CATHOLIC%20CHURCHYARD">AMPLEFORTH (ST. BENEDICT) ROMAN CATHOLIC CHURCHYARD at the Commonwealth War Graves Commission</a>
			  </description>
			  <Point>
				<coordinates> -1.10559,54.20106</coordinates>
			  </Point>
			</Placemark><Placemark>
			  <name>AMPLEFORTH (ST. HILDA) CHURCHYARD</name>
			  <description><a href="http://www.cwgc.org/find-a-cemetery/cemetery/45832/AMPLEFORTH%20(ST.%20HILDA)%20CHURCHYARD">AMPLEFORTH (ST. HILDA) CHURCHYARD at the Commonwealth War Graves Commission</a>
			  </description>
			  <Point>
				<coordinates> -1.1081,54.20041</coordinates>
			  </Point>
			</Placemark><Placemark>
			  <name>ARKENGARTHDALE (ST. MARY) CHURCHYARD</name>
			  <description><a href="http://www.cwgc.org/find-a-cemetery/cemetery/45875/ARKENGARTHDALE%20(ST.%20MARY)%20CHURCHYARD">ARKENGARTHDALE (ST. MARY) CHURCHYARD at the Commonwealth War Graves Commission</a>
			  </description>
			  <Point>
				<coordinates> -1.99731,54.41975</coordinates>
			  </Point>
			</Placemark><Placemark>
			  <name>ASKRIGG (ST. OSWALD) CHURCHYARD</name>
			  <description><a href="http://www.cwgc.org/find-a-cemetery/cemetery/45801/ASKRIGG%20(ST.%20OSWALD)%20CHURCHYARD">ASKRIGG (ST. OSWALD) CHURCHYARD at the Commonwealth War Graves Commission</a>
			  </description>
			  <Point>
				<coordinates> -2.08139,54.3147</coordinates>
			  </Point>
			</Placemark><Placemark>
			  <name>ATWICK (ST. LAURENCE) CHURCHYARD</name>
			  <description><a href="http://www.cwgc.org/find-a-cemetery/cemetery/45776/ATWICK%20(ST.%20LAURENCE)%20CHURCHYARD">ATWICK (ST. LAURENCE) CHURCHYARD at the Commonwealth War Graves Commission</a>
			  </description>
			  <Point>
				<coordinates> -0.19635,53.93961</coordinates>
			  </Point>
			</Placemark><Placemark>
			  <name>AYSGARTH (ST. ANDREW) CHURCHYARD</name>
			  <description><a href="http://www.cwgc.org/find-a-cemetery/cemetery/45802/AYSGARTH%20(ST.%20ANDREW)%20CHURCHYARD">AYSGARTH (ST. ANDREW) CHURCHYARD at the Commonwealth War Graves Commission</a>
			  </description>
			  <Point>
				<coordinates> -1.98252,54.29161</coordinates>
			  </Point>
			</Placemark><Placemark>
			  <name>BAINTON (ST. ANDREW) CHURCHYARD AND EXTENSION</name>
			  <description><a href="http://www.cwgc.org/find-a-cemetery/cemetery/45721/BAINTON%20(ST.%20ANDREW)%20CHURCHYARD%20AND%20EXTENSION">BAINTON (ST. ANDREW) CHURCHYARD AND EXTENSION at the Commonwealth War Graves Commission</a>
			  </description>
			  <Point>
				<coordinates> -0.53109,53.95816</coordinates>
			  </Point>
			</Placemark><Placemark>
			  <name>BARLBY (ALL SAINTS) CHURCHYARD</name>
			  <description><a href="http://www.cwgc.org/find-a-cemetery/cemetery/45768/BARLBY%20(ALL%20SAINTS)%20CHURCHYARD">BARLBY (ALL SAINTS) CHURCHYARD at the Commonwealth War Graves Commission</a>
			  </description>
			  <Point>
				<coordinates> -1.04178,53.79888</coordinates>
			  </Point>
			</Placemark><Placemark>
			  <name>BARMBY-ON-THE-MOOR (ST. CATHERINE) CHURCHYARD</name>
			  <description><a href="http://www.cwgc.org/find-a-cemetery/cemetery/45759/BARMBY-ON-THE-MOOR%20(ST.%20CATHERINE)%20CHURCHYARD">BARMBY-ON-THE-MOOR (ST. CATHERINE) CHURCHYARD at the Commonwealth War Graves Commission</a>
			  </description>
			  <Point>
				<coordinates> -0.81834,53.93111</coordinates>
			  </Point>
			</Placemark><Placemark>
			  <name>BARTON (ST. CUTHBERT) CHURCHYARD</name>
			  <description><a href="http://www.cwgc.org/find-a-cemetery/cemetery/45810/BARTON%20(ST.%20CUTHBERT)%20CHURCHYARD">BARTON (ST. CUTHBERT) CHURCHYARD at the Commonwealth War Graves Commission</a>
			  </description>
			  <Point>
				<coordinates> -1.64579,54.47531</coordinates>
			  </Point>
			</Placemark><Placemark>
			  <name>BEDALE (ST. GREGORY) CHURCHYARD</name>
			  <description><a href="http://www.cwgc.org/find-a-cemetery/cemetery/45805/BEDALE%20(ST.%20GREGORY)%20CHURCHYARD">BEDALE (ST. GREGORY) CHURCHYARD at the Commonwealth War Graves Commission</a>
			  </description>
			  <Point>
				<coordinates> -1.59392,54.29095</coordinates>
			  </Point>
			</Placemark><Placemark>
			  <name>BEVERLEY (QUEENSGATE) CEMETERY</name>
			  <description><a href="http://www.cwgc.org/find-a-cemetery/cemetery/45700/BEVERLEY%20(QUEENSGATE)%20CEMETERY">BEVERLEY (QUEENSGATE) CEMETERY at the Commonwealth War Graves Commission</a>
			  </description>
			  <Point>
				<coordinates> -0.43713,53.83128</coordinates>
			  </Point>
			</Placemark><Placemark>
			  <name>BEVERLEY (ST. JOHN'S) CEMETERY</name>
			  <description><a href="http://www.cwgc.org/find-a-cemetery/cemetery/45701/BEVERLEY%20(ST.%20JOHN'S)%20CEMETERY">BEVERLEY (ST. JOHN'S) CEMETERY at the Commonwealth War Graves Commission</a>
			  </description>
			  <Point>
				<coordinates> -0.43638,53.83462</coordinates>
			  </Point>
			</Placemark><Placemark>
			  <name>BEVERLEY (ST. MARTIN'S) CEMETERY</name>
			  <description><a href="http://www.cwgc.org/find-a-cemetery/cemetery/45702/BEVERLEY%20(ST.%20MARTIN'S)%20CEMETERY">BEVERLEY (ST. MARTIN'S) CEMETERY at the Commonwealth War Graves Commission</a>
			  </description>
			  <Point>
				<coordinates> -0.43708,53.83611</coordinates>
			  </Point>
			</Placemark><Placemark>
			  <name>BEVERLEY (ST. MARY) CHURCH CEMETERY</name>
			  <description><a href="http://www.cwgc.org/find-a-cemetery/cemetery/45703/BEVERLEY%20(ST.%20MARY)%20CHURCH%20CEMETERY">BEVERLEY (ST. MARY) CHURCH CEMETERY at the Commonwealth War Graves Commission</a>
			  </description>
			  <Point>
				<coordinates> -0.44166,53.84867</coordinates>
			  </Point>
			</Placemark><Placemark>
			  <name>BEVERLEY (ST. NICHOLAS) CHURCHYARD</name>
			  <description><a href="http://www.cwgc.org/find-a-cemetery/cemetery/45704/BEVERLEY%20(ST.%20NICHOLAS)%20CHURCHYARD">BEVERLEY (ST. NICHOLAS) CHURCHYARD at the Commonwealth War Graves Commission</a>
			  </description>
			  <Point>
				<coordinates> -0.41419,53.84115</coordinates>
			  </Point>
			</Placemark><Placemark>
			  <name>BILTON (OR BILTON-IN-HOLDERNESS) (ST. PETER) CHURCHYARD</name>
			  <description><a href="http://www.cwgc.org/find-a-cemetery/cemetery/45777/BILTON%20(OR%20BILTON-IN-HOLDERNESS)%20(ST.%20PETER)%20CHURCHYARD">BILTON (OR BILTON-IN-HOLDERNESS) (ST. PETER) CHURCHYARD at the Commonwealth War Graves Commission</a>
			  </description>
			  <Point>
				<coordinates> -0.2471,53.77791</coordinates>
			  </Point>
			</Placemark><Placemark>
			  <name>BIRDSALL (ST. MARY) CHURCHYARD</name>
			  <description><a href="http://www.cwgc.org/find-a-cemetery/cemetery/45744/BIRDSALL%20(ST.%20MARY)%20CHURCHYARD">BIRDSALL (ST. MARY) CHURCHYARD at the Commonwealth War Graves Commission</a>
			  </description>
			  <Point>
				<coordinates> -0.75184,54.07785</coordinates>
			  </Point>
			</Placemark><Placemark>
			  <name>BISHOP WILTON (ST. EDITH) CHURCHYARD</name>
			  <description><a href="http://www.cwgc.org/find-a-cemetery/cemetery/45760/BISHOP%20WILTON%20(ST.%20EDITH)%20CHURCHYARD">BISHOP WILTON (ST. EDITH) CHURCHYARD at the Commonwealth War Graves Commission</a>
			  </description>
			  <Point>
				<coordinates> -0.78378,53.98639</coordinates>
			  </Point>
			</Placemark><Placemark>
			  <name>BLACKTOFT (HOLY TRINITY) CHURCHYARD</name>
			  <description><a href="http://www.cwgc.org/find-a-cemetery/cemetery/45736/BLACKTOFT%20(HOLY%20TRINITY)%20CHURCHYARD">BLACKTOFT (HOLY TRINITY) CHURCHYARD at the Commonwealth War Graves Commission</a>
			  </description>
			  <Point>
				<coordinates> -0.72736,53.70808</coordinates>
			  </Point>
			</Placemark><Placemark>
			  <name>BRANDSBY (ALL SAINTS) CHURCHYARD</name>
			  <description><a href="http://www.cwgc.org/find-a-cemetery/cemetery/45815/BRANDSBY%20(ALL%20SAINTS)%20CHURCHYARD">BRANDSBY (ALL SAINTS) CHURCHYARD at the Commonwealth War Graves Commission</a>
			  </description>
			  <Point>
				<coordinates> -1.08508,54.13975</coordinates>
			  </Point>
			</Placemark><Placemark>
			  <name>BRANTINGHAM (ALL SAINTS) CHURCHYARD</name>
			  <description><a href="http://www.cwgc.org/find-a-cemetery/cemetery/45705/BRANTINGHAM%20(ALL%20SAINTS)%20CHURCHYARD">BRANTINGHAM (ALL SAINTS) CHURCHYARD at the Commonwealth War Graves Commission</a>
			  </description>
			  <Point>
				<coordinates> -0.57032,53.75812</coordinates>
			  </Point>
			</Placemark><Placemark>
			  <name>BRIDLINGTON CEMETERY</name>
			  <description><a href="http://www.cwgc.org/find-a-cemetery/cemetery/45713/BRIDLINGTON%20CEMETERY">BRIDLINGTON CEMETERY at the Commonwealth War Graves Commission</a>
			  </description>
			  <Point>
				<coordinates> -0.19414,54.09611</coordinates>
			  </Point>
			</Placemark><Placemark>
			  <name>BROMPTON (ST. THOMAS) CHURCHYARD</name>
			  <description><a href="http://www.cwgc.org/find-a-cemetery/cemetery/45868/BROMPTON%20(ST.%20THOMAS)%20CHURCHYARD">BROMPTON (ST. THOMAS) CHURCHYARD at the Commonwealth War Graves Commission</a>
			  </description>
			  <Point>
				<coordinates> -1.42663,54.3613</coordinates>
			  </Point>
			</Placemark><Placemark>
			  <name>BUBWITH (ALL SAINTS) CHURCHYARD</name>
			  <description><a href="http://www.cwgc.org/find-a-cemetery/cemetery/45737/BUBWITH%20(ALL%20SAINTS)%20CHURCHYARD">BUBWITH (ALL SAINTS) CHURCHYARD at the Commonwealth War Graves Commission</a>
			  </description>
			  <Point>
				<coordinates> -0.92091,53.81702</coordinates>
			  </Point>
			</Placemark><Placemark>
			  <name>BULMER (ST. MARTIN) CHURCHYARD</name>
			  <description><a href="http://www.cwgc.org/find-a-cemetery/cemetery/45847/BULMER%20(ST.%20MARTIN)%20CHURCHYARD">BULMER (ST. MARTIN) CHURCHYARD at the Commonwealth War Graves Commission</a>
			  </description>
			  <Point>
				<coordinates> -0.93226,54.09984</coordinates>
			  </Point>
			</Placemark><Placemark>
			  <name>BURSTWICK (ALL SAINTS) CHURCHYARD</name>
			  <description><a href="http://www.cwgc.org/find-a-cemetery/cemetery/45750/BURSTWICK%20(ALL%20SAINTS)%20CHURCHYARD">BURSTWICK (ALL SAINTS) CHURCHYARD at the Commonwealth War Graves Commission</a>
			  </description>
			  <Point>
				<coordinates> -0.14016,53.73405</coordinates>
			  </Point>
			</Placemark><Placemark>
			  <name>CLEASBY (ST. PETER) CHURCHYARD</name>
			  <description><a href="http://www.cwgc.org/find-a-cemetery/cemetery/45811/CLEASBY%20(ST.%20PETER)%20CHURCHYARD">CLEASBY (ST. PETER) CHURCHYARD at the Commonwealth War Graves Commission</a>
			  </description>
			  <Point>
				<coordinates> -1.61648,54.51213</coordinates>
			  </Point>
			</Placemark><Placemark>
			  <name>COATHAM (CHRIST CHURCH) CHURCHYARD</name>
			  <description><a href="http://www.cwgc.org/find-a-cemetery/cemetery/45867/COATHAM%20(CHRIST%20CHURCH)%20CHURCHYARD">COATHAM (CHRIST CHURCH) CHURCHYARD at the Commonwealth War Graves Commission</a>
			  </description>
			  <Point>
				<coordinates> -1.08067,54.61702</coordinates>
			  </Point>
			</Placemark><Placemark>
			  <name>COLD KIRBY (ST. MICHAEL) CHURCHYARD</name>
			  <description><a href="http://www.cwgc.org/find-a-cemetery/cemetery/45833/COLD%20KIRBY%20(ST.%20MICHAEL)%20CHURCHYARD">COLD KIRBY (ST. MICHAEL) CHURCHYARD at the Commonwealth War Graves Commission</a>
			  </description>
			  <Point>
				<coordinates> -1.18278,54.25351</coordinates>
			  </Point>
			</Placemark><Placemark>
			  <name>COTTINGHAM CEMETERY</name>
			  <description><a href="http://www.cwgc.org/find-a-cemetery/cemetery/45720/COTTINGHAM%20CEMETERY">COTTINGHAM CEMETERY at the Commonwealth War Graves Commission</a>
			  </description>
			  <Point>
				<coordinates> -0.43077,53.783</coordinates>
			  </Point>
			</Placemark><Placemark>
			  <name>COXWOLD (ST. MICHAEL) CHURCHYARD</name>
			  <description><a href="http://www.cwgc.org/find-a-cemetery/cemetery/45816/COXWOLD%20(ST.%20MICHAEL)%20CHURCHYARD">COXWOLD (ST. MICHAEL) CHURCHYARD at the Commonwealth War Graves Commission</a>
			  </description>
			  <Point>
				<coordinates> -1.18393,54.18775</coordinates>
			  </Point>
			</Placemark><Placemark>
			  <name>DRIFFIELD CEMETERY</name>
			  <description><a href="http://www.cwgc.org/find-a-cemetery/cemetery/45732/DRIFFIELD%20CEMETERY">DRIFFIELD CEMETERY at the Commonwealth War Graves Commission</a>
			  </description>
			  <Point>
				<coordinates> -0.42551,54.01124</coordinates>
			  </Point>
			</Placemark><Placemark>
			  <name>DUNNINGTON (ST. NICHOLAS) CHURCHYARD</name>
			  <description><a href="http://www.cwgc.org/find-a-cemetery/cemetery/45728/DUNNINGTON%20(ST.%20NICHOLAS)%20CHURCHYARD">DUNNINGTON (ST. NICHOLAS) CHURCHYARD at the Commonwealth War Graves Commission</a>
			  </description>
			  <Point>
				<coordinates> -0.98302,53.96624</coordinates>
			  </Point>
			</Placemark><Placemark>
			  <name>EASINGTON CEMETERY</name>
			  <description><a href="http://www.cwgc.org/find-a-cemetery/cemetery/45751/EASINGTON%20CEMETERY">EASINGTON CEMETERY at the Commonwealth War Graves Commission</a>
			  </description>
			  <Point>
				<coordinates> 0.11259,53.64556</coordinates>
			  </Point>
			</Placemark><Placemark>
			  <name>EASINGWOLD (ST. JOHN THE BAPTIST AND ALL SAINTS) CHURCHYARD</name>
			  <description><a href="http://www.cwgc.org/find-a-cemetery/cemetery/45817/EASINGWOLD%20(ST.%20JOHN%20THE%20BAPTIST%20AND%20ALL%20SAINTS)%20CHURCHYARD">EASINGWOLD (ST. JOHN THE BAPTIST AND ALL SAINTS) CHURCHYARD at the Commonwealth War Graves Commission</a>
			  </description>
			  <Point>
				<coordinates> -1.19659,54.12337</coordinates>
			  </Point>
			</Placemark><Placemark>
			  <name>EAST HARLSEY (ST. OSWALD) CHURCHYARD</name>
			  <description><a href="http://www.cwgc.org/find-a-cemetery/cemetery/45869/EAST%20HARLSEY%20(ST.%20OSWALD)%20CHURCHYARD">EAST HARLSEY (ST. OSWALD) CHURCHYARD at the Commonwealth War Graves Commission</a>
			  </description>
			  <Point>
				<coordinates> -1.34497,54.39113</coordinates>
			  </Point>
			</Placemark><Placemark>
			  <name>EAST WITTON (ST. JOHN) CHURCHYARD</name>
			  <description><a href="http://www.cwgc.org/find-a-cemetery/cemetery/45838/EAST%20WITTON%20(ST.%20JOHN)%20CHURCHYARD">EAST WITTON (ST. JOHN) CHURCHYARD at the Commonwealth War Graves Commission</a>
			  </description>
			  <Point>
				<coordinates> -1.77677,54.26958</coordinates>
			  </Point>
			</Placemark><Placemark>
			  <name>ERYHOLME (ST. MARY) CHURCHYARD</name>
			  <description><a href="http://www.cwgc.org/find-a-cemetery/cemetery/45812/ERYHOLME%20(ST.%20MARY)%20CHURCHYARD">ERYHOLME (ST. MARY) CHURCHYARD at the Commonwealth War Graves Commission</a>
			  </description>
			  <Point>
				<coordinates> -1.50534,54.4756</coordinates>
			  </Point>
			</Placemark><Placemark>
			  <name>ESTON CEMETERY</name>
			  <description><a href="http://www.cwgc.org/find-a-cemetery/cemetery/45821/ESTON%20CEMETERY">ESTON CEMETERY at the Commonwealth War Graves Commission</a>
			  </description>
			  <Point>
				<coordinates> -1.15385,54.56208</coordinates>
			  </Point>
			</Placemark><Placemark>
			  <name>FENCOTE (ST. ANDREW) CHURCHYARD</name>
			  <description><a href="http://www.cwgc.org/find-a-cemetery/cemetery/45806/FENCOTE%20(ST.%20ANDREW)%20CHURCHYARD">FENCOTE (ST. ANDREW) CHURCHYARD at the Commonwealth War Graves Commission</a>
			  </description>
			  <Point>
				<coordinates> -1.56623,54.33664</coordinates>
			  </Point>
			</Placemark><Placemark>
			  <name>FILEY (ST. OSWALD) CHURCHYARD</name>
			  <description><a href="http://www.cwgc.org/find-a-cemetery/cemetery/45731/FILEY%20(ST.%20OSWALD)%20CHURCHYARD">FILEY (ST. OSWALD) CHURCHYARD at the Commonwealth War Graves Commission</a>
			  </description>
			  <Point>
				<coordinates> -0.28763,54.21339</coordinates>
			  </Point>
			</Placemark><Placemark>
			  <name>FIMBER (ST. MARY) CHURCHYARD</name>
			  <description><a href="http://www.cwgc.org/find-a-cemetery/cemetery/45722/FIMBER%20(ST.%20MARY)%20CHURCHYARD">FIMBER (ST. MARY) CHURCHYARD at the Commonwealth War Graves Commission</a>
			  </description>
			  <Point>
				<coordinates> -0.63623,54.03367</coordinates>
			  </Point>
			</Placemark><Placemark>
			  <name>FINGHALL (ST. ANDREW) CHURCHYARD</name>
			  <description><a href="http://www.cwgc.org/find-a-cemetery/cemetery/45839/FINGHALL%20(ST.%20ANDREW)%20CHURCHYARD">FINGHALL (ST. ANDREW) CHURCHYARD at the Commonwealth War Graves Commission</a>
			  </description>
			  <Point>
				<coordinates> -1.70888,54.30704</coordinates>
			  </Point>
			</Placemark><Placemark>
			  <name>FLAMBOROUGH (ST. OSWALD) CHURCHYARD</name>
			  <description><a href="http://www.cwgc.org/find-a-cemetery/cemetery/45714/FLAMBOROUGH%20(ST.%20OSWALD)%20CHURCHYARD">FLAMBOROUGH (ST. OSWALD) CHURCHYARD at the Commonwealth War Graves Commission</a>
			  </description>
			  <Point>
				<coordinates> -0.12594,54.11287</coordinates>
			  </Point>
			</Placemark><Placemark>
			  <name>FLAXTON (ST. LAWRENCE) CHURCHYARD</name>
			  <description><a href="http://www.cwgc.org/find-a-cemetery/cemetery/45822/FLAXTON%20(ST.%20LAWRENCE)%20CHURCHYARD">FLAXTON (ST. LAWRENCE) CHURCHYARD at the Commonwealth War Graves Commission</a>
			  </description>
			  <Point>
				<coordinates> -0.96184,54.05098</coordinates>
			  </Point>
			</Placemark><Placemark>
			  <name>FOLKTON (ST. JOHN) CHURCHYARD</name>
			  <description><a href="http://www.cwgc.org/find-a-cemetery/cemetery/45774/FOLKTON%20(ST.%20JOHN)%20CHURCHYARD">FOLKTON (ST. JOHN) CHURCHYARD at the Commonwealth War Graves Commission</a>
			  </description>
			  <Point>
				<coordinates> -0.38632,54.20189</coordinates>
			  </Point>
			</Placemark><Placemark>
			  <name>FOSTON-ON-THE-WOLDS (ST. ANDREW) NEW CHURCHYARD</name>
			  <description><a href="http://www.cwgc.org/find-a-cemetery/cemetery/45723/FOSTON-ON-THE-WOLDS%20(ST.%20ANDREW)%20NEW%20CHURCHYARD">FOSTON-ON-THE-WOLDS (ST. ANDREW) NEW CHURCHYARD at the Commonwealth War Graves Commission</a>
			  </description>
			  <Point>
				<coordinates> -0.32305,53.98635</coordinates>
			  </Point>
			</Placemark><Placemark>
			  <name>GARTON-IN-HOLDERNESS (ST. MICHAEL) CHURCHYARD</name>
			  <description><a href="http://www.cwgc.org/find-a-cemetery/cemetery/45778/GARTON-IN-HOLDERNESS%20(ST.%20MICHAEL)%20CHURCHYARD">GARTON-IN-HOLDERNESS (ST. MICHAEL) CHURCHYARD at the Commonwealth War Graves Commission</a>
			  </description>
			  <Point>
				<coordinates> -0.07293,53.7998</coordinates>
			  </Point>
			</Placemark><Placemark>
			  <name>GATE HELMSLEY (ST. MARY) CHURCHYARD</name>
			  <description><a href="http://www.cwgc.org/find-a-cemetery/cemetery/45823/GATE%20HELMSLEY%20(ST.%20MARY)%20CHURCHYARD">GATE HELMSLEY (ST. MARY) CHURCHYARD at the Commonwealth War Graves Commission</a>
			  </description>
			  <Point>
				<coordinates> -0.94809,53.98817</coordinates>
			  </Point>
			</Placemark><Placemark>
			  <name>GREAT SMEATON (ST. ELOY) CHURCHYARD</name>
			  <description><a href="http://www.cwgc.org/find-a-cemetery/cemetery/45870/GREAT%20SMEATON%20(ST.%20ELOY)%20CHURCHYARD">GREAT SMEATON (ST. ELOY) CHURCHYARD at the Commonwealth War Graves Commission</a>
			  </description>
			  <Point>
				<coordinates> -1.46402,54.43416</coordinates>
			  </Point>
			</Placemark><Placemark>
			  <name>GRINTON (ST. ANDREW) CHURCHYARD</name>
			  <description><a href="http://www.cwgc.org/find-a-cemetery/cemetery/45876/GRINTON%20(ST.%20ANDREW)%20CHURCHYARD">GRINTON (ST. ANDREW) CHURCHYARD at the Commonwealth War Graves Commission</a>
			  </description>
			  <Point>
				<coordinates> -1.92982,54.38116</coordinates>
			  </Point>
			</Placemark><Placemark>
			  <name>GUISBOROUGH CEMETERY</name>
			  <description><a href="http://www.cwgc.org/find-a-cemetery/cemetery/45828/GUISBOROUGH%20CEMETERY">GUISBOROUGH CEMETERY at the Commonwealth War Graves Commission</a>
			  </description>
			  <Point>
				<coordinates> -1.04299,54.54576</coordinates>
			  </Point>
			</Placemark><Placemark>
			  <name>HALTEMPRICE (HESSLE) CEMETERY</name>
			  <description><a href="http://www.cwgc.org/find-a-cemetery/cemetery/45734/HALTEMPRICE%20(HESSLE)%20CEMETERY">HALTEMPRICE (HESSLE) CEMETERY at the Commonwealth War Graves Commission</a>
			  </description>
			  <Point>
				<coordinates> -0.43703,53.72735</coordinates>
			  </Point>
			</Placemark><Placemark>
			  <name>HAWES (ST. MARGARET) CHURCHYARD</name>
			  <description><a href="http://www.cwgc.org/find-a-cemetery/cemetery/45803/HAWES%20(ST.%20MARGARET)%20CHURCHYARD">HAWES (ST. MARGARET) CHURCHYARD at the Commonwealth War Graves Commission</a>
			  </description>
			  <Point>
				<coordinates> -2.19697,54.30323</coordinates>
			  </Point>
			</Placemark><Placemark>
			  <name>HAWNBY (ALL SAINTS) CHURCHYARD</name>
			  <description><a href="http://www.cwgc.org/find-a-cemetery/cemetery/45834/HAWNBY%20(ALL%20SAINTS)%20CHURCHYARD">HAWNBY (ALL SAINTS) CHURCHYARD at the Commonwealth War Graves Commission</a>
			  </description>
			  <Point>
				<coordinates> -1.17602,54.30034</coordinates>
			  </Point>
			</Placemark><Placemark>
			  <name>HEALEY (ST. PAUL) CHURCHYARD</name>
			  <description><a href="http://www.cwgc.org/find-a-cemetery/cemetery/45853/HEALEY%20(ST.%20PAUL)%20CHURCHYARD">HEALEY (ST. PAUL) CHURCHYARD at the Commonwealth War Graves Commission</a>
			  </description>
			  <Point>
				<coordinates> -1.72098,54.22101</coordinates>
			  </Point>
			</Placemark><Placemark>
			  <name>HEDON CEMETERY</name>
			  <description><a href="http://www.cwgc.org/find-a-cemetery/cemetery/45733/HEDON%20CEMETERY">HEDON CEMETERY at the Commonwealth War Graves Commission</a>
			  </description>
			  <Point>
				<coordinates> -0.20437,53.74167</coordinates>
			  </Point>
			</Placemark><Placemark>
			  <name>HELMSLEY CEMETERY</name>
			  <description><a href="http://www.cwgc.org/find-a-cemetery/cemetery/45835/HELMSLEY%20CEMETERY">HELMSLEY CEMETERY at the Commonwealth War Graves Commission</a>
			  </description>
			  <Point>
				<coordinates> -1.06226,54.24835</coordinates>
			  </Point>
			</Placemark><Placemark>
			  <name>HEMINGBROUGH (ST. MARY) CHURCHYARD</name>
			  <description><a href="http://www.cwgc.org/find-a-cemetery/cemetery/45738/HEMINGBROUGH%20(ST.%20MARY)%20CHURCHYARD">HEMINGBROUGH (ST. MARY) CHURCHYARD at the Commonwealth War Graves Commission</a>
			  </description>
			  <Point>
				<coordinates> -0.97926,53.76742</coordinates>
			  </Point>
			</Placemark><Placemark>
			  <name>HINDERWELL CEMETERY</name>
			  <description><a href="http://www.cwgc.org/find-a-cemetery/cemetery/45836/HINDERWELL%20CEMETERY">HINDERWELL CEMETERY at the Commonwealth War Graves Commission</a>
			  </description>
			  <Point>
				<coordinates> -0.77876,54.54298</coordinates>
			  </Point>
			</Placemark><Placemark>
			  <name>HOLME-UPON-SPALDING MOOR (ALL SAINTS) CHURCHYARD</name>
			  <description><a href="http://www.cwgc.org/find-a-cemetery/cemetery/45739/HOLME-UPON-SPALDING%20MOOR%20(ALL%20SAINTS)%20CHURCHYARD">HOLME-UPON-SPALDING MOOR (ALL SAINTS) CHURCHYARD at the Commonwealth War Graves Commission</a>
			  </description>
			  <Point>
				<coordinates> -0.75437,53.83995</coordinates>
			  </Point>
			</Placemark><Placemark>
			  <name>HOLTBY (HOLY TRINITY) CHURCHYARD</name>
			  <description><a href="http://www.cwgc.org/find-a-cemetery/cemetery/45824/HOLTBY%20(HOLY%20TRINITY)%20CHURCHYARD">HOLTBY (HOLY TRINITY) CHURCHYARD at the Commonwealth War Graves Commission</a>
			  </description>
			  <Point>
				<coordinates> -0.97223,53.97911</coordinates>
			  </Point>
			</Placemark><Placemark>
			  <name>HORNBY (ST. MARY) CHURCHYARD</name>
			  <description><a href="http://www.cwgc.org/find-a-cemetery/cemetery/45840/HORNBY%20(ST.%20MARY)%20CHURCHYARD">HORNBY (ST. MARY) CHURCHYARD at the Commonwealth War Graves Commission</a>
			  </description>
			  <Point>
				<coordinates> -1.65988,54.33863</coordinates>
			  </Point>
			</Placemark><Placemark>
			  <name>HORNSEA CEMETERY</name>
			  <description><a href="http://www.cwgc.org/find-a-cemetery/cemetery/45735/HORNSEA%20CEMETERY">HORNSEA CEMETERY at the Commonwealth War Graves Commission</a>
			  </description>
			  <Point>
				<coordinates> -0.17176,53.90799</coordinates>
			  </Point>
			</Placemark><Placemark>
			  <name>HOVINGHAM CEMETERY</name>
			  <description><a href="http://www.cwgc.org/find-a-cemetery/cemetery/45848/HOVINGHAM%20CEMETERY">HOVINGHAM CEMETERY at the Commonwealth War Graves Commission</a>
			  </description>
			  <Point>
				<coordinates> -0.98086,54.1749</coordinates>
			  </Point>
			</Placemark><Placemark>
			  <name>HOWDEN (ST. PETER) CHURCHYARD</name>
			  <description><a href="http://www.cwgc.org/find-a-cemetery/cemetery/45740/HOWDEN%20(ST.%20PETER)%20CHURCHYARD">HOWDEN (ST. PETER) CHURCHYARD at the Commonwealth War Graves Commission</a>
			  </description>
			  <Point>
				<coordinates> -0.86637,53.74519</coordinates>
			  </Point>
			</Placemark><Placemark>
			  <name>HUNMANBY (ALL SAINTS) CHURCHYARD</name>
			  <description><a href="http://www.cwgc.org/find-a-cemetery/cemetery/45715/HUNMANBY%20(ALL%20SAINTS)%20CHURCHYARD">HUNMANBY (ALL SAINTS) CHURCHYARD at the Commonwealth War Graves Commission</a>
			  </description>
			  <Point>
				<coordinates> -0.32234,54.1809</coordinates>
			  </Point>
			</Placemark><Placemark>
			  <name>HUNMANBY (GOD'S ACRE) CEMETERY</name>
			  <description><a href="http://www.cwgc.org/find-a-cemetery/cemetery/45717/HUNMANBY%20(GOD'S%20ACRE)%20CEMETERY">HUNMANBY (GOD'S ACRE) CEMETERY at the Commonwealth War Graves Commission</a>
			  </description>
			  <Point>
				<coordinates> -0.31796,54.17399</coordinates>
			  </Point>
			</Placemark><Placemark>
			  <name>HUNTINGTON (ALL SAINTS) CHURCHYARD</name>
			  <description><a href="http://www.cwgc.org/find-a-cemetery/cemetery/45825/HUNTINGTON%20(ALL%20SAINTS)%20CHURCHYARD">HUNTINGTON (ALL SAINTS) CHURCHYARD at the Commonwealth War Graves Commission</a>
			  </description>
			  <Point>
				<coordinates> -1.06288,53.99758</coordinates>
			  </Point>
			</Placemark><Placemark>
			  <name>HUSTHWAITE CEMETERY</name>
			  <description><a href="http://www.cwgc.org/find-a-cemetery/cemetery/45818/HUSTHWAITE%20CEMETERY">HUSTHWAITE CEMETERY at the Commonwealth War Graves Commission</a>
			  </description>
			  <Point>
				<coordinates> -1.21414,54.16851</coordinates>
			  </Point>
			</Placemark><Placemark>
			  <name>HUTTONS AMBO (ST. MARGARET) CHURCHYARD</name>
			  <description><a href="http://www.cwgc.org/find-a-cemetery/cemetery/45849/HUTTONS%20AMBO%20(ST.%20MARGARET)%20CHURCHYARD">HUTTONS AMBO (ST. MARGARET) CHURCHYARD at the Commonwealth War Graves Commission</a>
			  </description>
			  <Point>
				<coordinates> -0.84848,54.10649</coordinates>
			  </Point>
			</Placemark><Placemark>
			  <name>KIRK ELLA CHURCH CEMETERY</name>
			  <description><a href="http://www.cwgc.org/find-a-cemetery/cemetery/45770/KIRK%20ELLA%20CHURCH%20CEMETERY">KIRK ELLA CHURCH CEMETERY at the Commonwealth War Graves Commission</a>
			  </description>
			  <Point>
				<coordinates> -0.45238,53.74731</coordinates>
			  </Point>
			</Placemark><Placemark>
			  <name>KIRKBY MOORSIDE (ALL SAINTS) CHURCHYARD</name>
			  <description><a href="http://www.cwgc.org/find-a-cemetery/cemetery/45837/KIRKBY%20MOORSIDE%20(ALL%20SAINTS)%20CHURCHYARD">KIRKBY MOORSIDE (ALL SAINTS) CHURCHYARD at the Commonwealth War Graves Commission</a>
			  </description>
			  <Point>
				<coordinates> -0.93081,54.27001</coordinates>
			  </Point>
			</Placemark><Placemark>
			  <name>LANGTOFT (ST. PETER) CHURCHYARD</name>
			  <description><a href="http://www.cwgc.org/find-a-cemetery/cemetery/45724/LANGTOFT%20(ST.%20PETER)%20CHURCHYARD">LANGTOFT (ST. PETER) CHURCHYARD at the Commonwealth War Graves Commission</a>
			  </description>
			  <Point>
				<coordinates> -0.45949,54.08913</coordinates>
			  </Point>
			</Placemark><Placemark>
			  <name>LANGTON-ON-SWALE (ST. WILFRID) CHURCHYARD</name>
			  <description><a href="http://www.cwgc.org/find-a-cemetery/cemetery/45871/LANGTON-ON-SWALE%20(ST.%20WILFRID)%20CHURCHYARD">LANGTON-ON-SWALE (ST. WILFRID) CHURCHYARD at the Commonwealth War Graves Commission</a>
			  </description>
			  <Point>
				<coordinates> -1.53709,54.35995</coordinates>
			  </Point>
			</Placemark><Placemark>
			  <name>LAXTON (ST. PETER) CHURCHYARD</name>
			  <description><a href="http://www.cwgc.org/find-a-cemetery/cemetery/45741/LAXTON%20(ST.%20PETER)%20CHURCHYARD">LAXTON (ST. PETER) CHURCHYARD at the Commonwealth War Graves Commission</a>
			  </description>
			  <Point>
				<coordinates> -0.80007,53.71966</coordinates>
			  </Point>
			</Placemark><Placemark>
			  <name>LEAKE (ST. MARY) CHURCHYARD</name>
			  <description><a href="http://www.cwgc.org/find-a-cemetery/cemetery/45872/LEAKE%20(ST.%20MARY)%20CHURCHYARD">LEAKE (ST. MARY) CHURCHYARD at the Commonwealth War Graves Commission</a>
			  </description>
			  <Point>
				<coordinates> -1.33585,54.30916</coordinates>
			  </Point>
			</Placemark><Placemark>
			  <name>LEEMING (ST. JOHN THE BAPTIST) CHURCHYARD</name>
			  <description><a href="http://www.cwgc.org/find-a-cemetery/cemetery/45807/LEEMING%20(ST.%20JOHN%20THE%20BAPTIST)%20CHURCHYARD">LEEMING (ST. JOHN THE BAPTIST) CHURCHYARD at the Commonwealth War Graves Commission</a>
			  </description>
			  <Point>
				<coordinates> -1.54971,54.29904</coordinates>
			  </Point>
			</Placemark><Placemark>
			  <name>LIVERTON (ST. MICHAEL) CHURCHYARD</name>
			  <description><a href="http://www.cwgc.org/find-a-cemetery/cemetery/45842/LIVERTON%20(ST.%20MICHAEL)%20CHURCHYARD">LIVERTON (ST. MICHAEL) CHURCHYARD at the Commonwealth War Graves Commission</a>
			  </description>
			  <Point>
				<coordinates> -0.90245,54.53673</coordinates>
			  </Point>
			</Placemark><Placemark>
			  <name>LOCKINGTON (ST. MARY) CHURCHYARD</name>
			  <description><a href="http://www.cwgc.org/find-a-cemetery/cemetery/45706/LOCKINGTON%20(ST.%20MARY)%20CHURCHYARD">LOCKINGTON (ST. MARY) CHURCHYARD at the Commonwealth War Graves Commission</a>
			  </description>
			  <Point>
				<coordinates> -0.48424,53.90832</coordinates>
			  </Point>
			</Placemark><Placemark>
			  <name>LOFTUS CEMETERY</name>
			  <description><a href="http://www.cwgc.org/find-a-cemetery/cemetery/45843/LOFTUS%20CEMETERY">LOFTUS CEMETERY at the Commonwealth War Graves Commission</a>
			  </description>
			  <Point>
				<coordinates> -0.87166,54.55325</coordinates>
			  </Point>
			</Placemark><Placemark>
			  <name>MAPPLETON (ALL SAINTS) CHURCHYARD</name>
			  <description><a href="http://www.cwgc.org/find-a-cemetery/cemetery/45779/MAPPLETON%20(ALL%20SAINTS)%20CHURCHYARD">MAPPLETON (ALL SAINTS) CHURCHYARD at the Commonwealth War Graves Commission</a>
			  </description>
			  <Point>
				<coordinates> -0.13709,53.87689</coordinates>
			  </Point>
			</Placemark><Placemark>
			  <name>MARKET WEIGHTON CEMETERY</name>
			  <description><a href="http://www.cwgc.org/find-a-cemetery/cemetery/45761/MARKET%20WEIGHTON%20CEMETERY">MARKET WEIGHTON CEMETERY at the Commonwealth War Graves Commission</a>
			  </description>
			  <Point>
				<coordinates> -0.67949,53.86135</coordinates>
			  </Point>
			</Placemark><Placemark>
			  <name>MARSKE-IN-CLEVELAND (ST. GERMAIN) CHURCHYARD</name>
			  <description><a href="http://www.cwgc.org/find-a-cemetery/cemetery/45829/MARSKE-IN-CLEVELAND%20(ST.%20GERMAIN)%20CHURCHYARD">MARSKE-IN-CLEVELAND (ST. GERMAIN) CHURCHYARD at the Commonwealth War Graves Commission</a>
			  </description>
			  <Point>
				<coordinates> -1.01152,54.5946</coordinates>
			  </Point>
			</Placemark><Placemark>
			  <name>MARTON-IN-CLEVELAND (ST. CUTHBERT) CHURCHYARD</name>
			  <description><a href="http://www.cwgc.org/find-a-cemetery/cemetery/45858/MARTON-IN-CLEVELAND%20(ST.%20CUTHBERT)%20CHURCHYARD">MARTON-IN-CLEVELAND (ST. CUTHBERT) CHURCHYARD at the Commonwealth War Graves Commission</a>
			  </description>
			  <Point>
				<coordinates> -1.20538,54.53558</coordinates>
			  </Point>
			</Placemark><Placemark>
			  <name>MASHAM (ST. MARY) CHURCHYARD</name>
			  <description><a href="http://www.cwgc.org/find-a-cemetery/cemetery/45854/MASHAM%20(ST.%20MARY)%20CHURCHYARD">MASHAM (ST. MARY) CHURCHYARD at the Commonwealth War Graves Commission</a>
			  </description>
			  <Point>
				<coordinates> -1.65465,54.22148</coordinates>
			  </Point>
			</Placemark><Placemark>
			  <name>MIDDLESBROUGH (LINTHORPE) CEMETERY</name>
			  <description><a href="http://www.cwgc.org/find-a-cemetery/cemetery/45855/MIDDLESBROUGH%20(LINTHORPE)%20CEMETERY">MIDDLESBROUGH (LINTHORPE) CEMETERY at the Commonwealth War Graves Commission</a>
			  </description>
			  <Point>
				<coordinates> -1.25605,54.55969</coordinates>
			  </Point>
			</Placemark><Placemark>
			  <name>MIDDLESBROUGH (NORTH ORMESBY) CEMETERY</name>
			  <description><a href="http://www.cwgc.org/find-a-cemetery/cemetery/45856/MIDDLESBROUGH%20(NORTH%20ORMESBY)%20CEMETERY">MIDDLESBROUGH (NORTH ORMESBY) CEMETERY at the Commonwealth War Graves Commission</a>
			  </description>
			  <Point>
				<coordinates> -1.20773,54.56527</coordinates>
			  </Point>
			</Placemark><Placemark>
			  <name>MIDDLETON (ST. ANDREW) CHURCHYARD</name>
			  <description><a href="http://www.cwgc.org/find-a-cemetery/cemetery/45864/MIDDLETON%20(ST.%20ANDREW)%20CHURCHYARD">MIDDLETON (ST. ANDREW) CHURCHYARD at the Commonwealth War Graves Commission</a>
			  </description>
			  <Point>
				<coordinates> -0.80154,54.25809</coordinates>
			  </Point>
			</Placemark><Placemark>
			  <name>NABURN (ST. MATTHEW) CHURCHYARD</name>
			  <description><a href="http://www.cwgc.org/find-a-cemetery/cemetery/45729/NABURN%20(ST.%20MATTHEW)%20CHURCHYARD">NABURN (ST. MATTHEW) CHURCHYARD at the Commonwealth War Graves Commission</a>
			  </description>
			  <Point>
				<coordinates> -1.09044,53.90079</coordinates>
			  </Point>
			</Placemark><Placemark>
			  <name>NAFFERTON (ALL SAINTS) NEW CHURCHYARD</name>
			  <description><a href="http://www.cwgc.org/find-a-cemetery/cemetery/45725/NAFFERTON%20(ALL%20SAINTS)%20NEW%20CHURCHYARD">NAFFERTON (ALL SAINTS) NEW CHURCHYARD at the Commonwealth War Graves Commission</a>
			  </description>
			  <Point>
				<coordinates> -0.39066,54.01582</coordinates>
			  </Point>
			</Placemark><Placemark>
			  <name>NEW MALTON CEMETERY</name>
			  <description><a href="http://www.cwgc.org/find-a-cemetery/cemetery/45844/NEW%20MALTON%20CEMETERY">NEW MALTON CEMETERY at the Commonwealth War Graves Commission</a>
			  </description>
			  <Point>
				<coordinates> -0.79638,54.13846</coordinates>
			  </Point>
			</Placemark><Placemark>
			  <name>NEWPORT (ST. STEPHEN) CHURCHYARD</name>
			  <description><a href="http://www.cwgc.org/find-a-cemetery/cemetery/45742/NEWPORT%20(ST.%20STEPHEN)%20CHURCHYARD">NEWPORT (ST. STEPHEN) CHURCHYARD at the Commonwealth War Graves Commission</a>
			  </description>
			  <Point>
				<coordinates> -0.71302,53.75784</coordinates>
			  </Point>
			</Placemark><Placemark>
			  <name>NORTH BURTON (ST. CUTHBERT) CHURCHYARD</name>
			  <description><a href="http://www.cwgc.org/find-a-cemetery/cemetery/45716/NORTH%20BURTON%20(ST.%20CUTHBERT)%20CHURCHYARD">NORTH BURTON (ST. CUTHBERT) CHURCHYARD at the Commonwealth War Graves Commission</a>
			  </description>
			  <Point>
				<coordinates> -0.34281,54.13567</coordinates>
			  </Point>
			</Placemark><Placemark>
			  <name>NORTH FERRIBY (ALL SAINTS) CHURCHYARD</name>
			  <description><a href="http://www.cwgc.org/find-a-cemetery/cemetery/45771/NORTH%20FERRIBY%20(ALL%20SAINTS)%20CHURCHYARD">NORTH FERRIBY (ALL SAINTS) CHURCHYARD at the Commonwealth War Graves Commission</a>
			  </description>
			  <Point>
				<coordinates> -0.50289,53.71938</coordinates>
			  </Point>
			</Placemark><Placemark>
			  <name>NORTH GRIMSTON (ST. NICHOLAS) CHURCHYARD</name>
			  <description><a href="http://www.cwgc.org/find-a-cemetery/cemetery/45745/NORTH%20GRIMSTON%20(ST.%20NICHOLAS)%20CHURCHYARD">NORTH GRIMSTON (ST. NICHOLAS) CHURCHYARD at the Commonwealth War Graves Commission</a>
			  </description>
			  <Point>
				<coordinates> -0.71493,54.09864</coordinates>
			  </Point>
			</Placemark><Placemark>
			  <name>NORTH NEWBALD CEMETERY</name>
			  <description><a href="http://www.cwgc.org/find-a-cemetery/cemetery/45707/NORTH%20NEWBALD%20CEMETERY">NORTH NEWBALD CEMETERY at the Commonwealth War Graves Commission</a>
			  </description>
			  <Point>
				<coordinates> -0.62384,53.81993</coordinates>
			  </Point>
			</Placemark><Placemark>
			  <name>NORTH ORMESBY (ST. JOSEPH'S) ROMAN CATHOLIC CEMETERY</name>
			  <description><a href="http://www.cwgc.org/find-a-cemetery/cemetery/45857/NORTH%20ORMESBY%20(ST.%20JOSEPH'S)%20ROMAN%20CATHOLIC%20CEMETERY">NORTH ORMESBY (ST. JOSEPH'S) ROMAN CATHOLIC CEMETERY at the Commonwealth War Graves Commission</a>
			  </description>
			  <Point>
				<coordinates> -1.20774,54.56527</coordinates>
			  </Point>
			</Placemark><Placemark>
			  <name>NORTHALLERTON CEMETERY</name>
			  <description><a href="http://www.cwgc.org/find-a-cemetery/cemetery/45860/NORTHALLERTON%20CEMETERY">NORTHALLERTON CEMETERY at the Commonwealth War Graves Commission</a>
			  </description>
			  <Point>
				<coordinates> -1.43773,54.3412</coordinates>
			  </Point>
			</Placemark><Placemark>
			  <name>NORTON CEMETERY</name>
			  <description><a href="http://www.cwgc.org/find-a-cemetery/cemetery/45743/NORTON%20CEMETERY">NORTON CEMETERY at the Commonwealth War Graves Commission</a>
			  </description>
			  <Point>
				<coordinates> -0.78315,54.13076</coordinates>
			  </Point>
			</Placemark><Placemark>
			  <name>OLD MALTON CEMETERY</name>
			  <description><a href="http://www.cwgc.org/find-a-cemetery/cemetery/45845/OLD%20MALTON%20CEMETERY">OLD MALTON CEMETERY at the Commonwealth War Graves Commission</a>
			  </description>
			  <Point>
				<coordinates> -0.78043,54.14451</coordinates>
			  </Point>
			</Placemark><Placemark>
			  <name>ORMESBY (ST. CUTHBERT) CHURCHYARD</name>
			  <description><a href="http://www.cwgc.org/find-a-cemetery/cemetery/45859/ORMESBY%20(ST.%20CUTHBERT)%20CHURCHYARD">ORMESBY (ST. CUTHBERT) CHURCHYARD at the Commonwealth War Graves Commission</a>
			  </description>
			  <Point>
				<coordinates> -1.17984,54.54317</coordinates>
			  </Point>
			</Placemark><Placemark>
			  <name>OSMOTHERLEY CEMETERY</name>
			  <description><a href="http://www.cwgc.org/find-a-cemetery/cemetery/45873/OSMOTHERLEY%20CEMETERY">OSMOTHERLEY CEMETERY at the Commonwealth War Graves Commission</a>
			  </description>
			  <Point>
				<coordinates> -1.30467,54.36841</coordinates>
			  </Point>
			</Placemark><Placemark>
			  <name>OTTRINGHAM (ST. WILFRID) CHURCHYARD</name>
			  <description><a href="http://www.cwgc.org/find-a-cemetery/cemetery/45753/OTTRINGHAM%20(ST.%20WILFRID)%20CHURCHYARD">OTTRINGHAM (ST. WILFRID) CHURCHYARD at the Commonwealth War Graves Commission</a>
			  </description>
			  <Point>
				<coordinates> -0.08051,53.70097</coordinates>
			  </Point>
			</Placemark><Placemark>
			  <name>PATRICK BROMPTON (ST. PATRICK) CHURCHYARD</name>
			  <description><a href="http://www.cwgc.org/find-a-cemetery/cemetery/45841/PATRICK%20BROMPTON%20(ST.%20PATRICK)%20CHURCHYARD">PATRICK BROMPTON (ST. PATRICK) CHURCHYARD at the Commonwealth War Graves Commission</a>
			  </description>
			  <Point>
				<coordinates> -1.66532,54.31121</coordinates>
			  </Point>
			</Placemark><Placemark>
			  <name>PATRINGTON (ST. PATRICK) CHURCHYARD</name>
			  <description><a href="http://www.cwgc.org/find-a-cemetery/cemetery/45754/PATRINGTON%20(ST.%20PATRICK)%20CHURCHYARD">PATRINGTON (ST. PATRICK) CHURCHYARD at the Commonwealth War Graves Commission</a>
			  </description>
			  <Point>
				<coordinates> -0.00951,53.68308</coordinates>
			  </Point>
			</Placemark><Placemark>
			  <name>PICKERING (SS. PETER AND PAUL) CHURCHYARD</name>
			  <description><a href="http://www.cwgc.org/find-a-cemetery/cemetery/45863/PICKERING%20(SS.%20PETER%20AND%20PAUL)%20CHURCHYARD">PICKERING (SS. PETER AND PAUL) CHURCHYARD at the Commonwealth War Graves Commission</a>
			  </description>
			  <Point>
				<coordinates> -0.77565,54.24533</coordinates>
			  </Point>
			</Placemark><Placemark>
			  <name>PICKERING CEMETERY</name>
			  <description><a href="http://www.cwgc.org/find-a-cemetery/cemetery/45862/PICKERING%20CEMETERY">PICKERING CEMETERY at the Commonwealth War Graves Commission</a>
			  </description>
			  <Point>
				<coordinates> -0.77038,54.24907</coordinates>
			  </Point>
			</Placemark><Placemark>
			  <name>RASKELF (ST. MARY) CHURCHYARD</name>
			  <description><a href="http://www.cwgc.org/find-a-cemetery/cemetery/45819/RASKELF%20(ST.%20MARY)%20CHURCHYARD">RASKELF (ST. MARY) CHURCHYARD at the Commonwealth War Graves Commission</a>
			  </description>
			  <Point>
				<coordinates> -1.25194,54.13082</coordinates>
			  </Point>
			</Placemark><Placemark>
			  <name>REDCAR CEMETERY</name>
			  <description><a href="http://www.cwgc.org/find-a-cemetery/cemetery/45874/REDCAR%20CEMETERY">REDCAR CEMETERY at the Commonwealth War Graves Commission</a>
			  </description>
			  <Point>
				<coordinates> -1.0597,54.61092</coordinates>
			  </Point>
			</Placemark><Placemark>
			  <name>RICCALL (ST. MARY) CHURCHYARD</name>
			  <description><a href="http://www.cwgc.org/find-a-cemetery/cemetery/45769/RICCALL%20(ST.%20MARY)%20CHURCHYARD">RICCALL (ST. MARY) CHURCHYARD at the Commonwealth War Graves Commission</a>
			  </description>
			  <Point>
				<coordinates> -1.06067,53.83287</coordinates>
			  </Point>
			</Placemark><Placemark>
			  <name>RILLINGTON (ST. ANDREW) CHURCHYARD EXTENSION</name>
			  <description><a href="http://www.cwgc.org/find-a-cemetery/cemetery/45746/RILLINGTON%20(ST.%20ANDREW)%20CHURCHYARD%20EXTENSION">RILLINGTON (ST. ANDREW) CHURCHYARD EXTENSION at the Commonwealth War Graves Commission</a>
			  </description>
			  <Point>
				<coordinates> -0.69265,54.15585</coordinates>
			  </Point>
			</Placemark><Placemark>
			  <name>RIMSWELL (ST. MARY) CHURCHYARD</name>
			  <description><a href="http://www.cwgc.org/find-a-cemetery/cemetery/45755/RIMSWELL%20(ST.%20MARY)%20CHURCHYARD">RIMSWELL (ST. MARY) CHURCHYARD at the Commonwealth War Graves Commission</a>
			  </description>
			  <Point>
				<coordinates> -0.01284,53.73884</coordinates>
			  </Point>
			</Placemark><Placemark>
			  <name>ROOS (ALL SAINTS) CHURCHYARD</name>
			  <description><a href="http://www.cwgc.org/find-a-cemetery/cemetery/45756/ROOS%20(ALL%20SAINTS)%20CHURCHYARD">ROOS (ALL SAINTS) CHURCHYARD at the Commonwealth War Graves Commission</a>
			  </description>
			  <Point>
				<coordinates> -0.04536,53.74693</coordinates>
			  </Point>
			</Placemark><Placemark>
			  <name>ROWLEY (ST. PETER) CHURCHYARD</name>
			  <description><a href="http://www.cwgc.org/find-a-cemetery/cemetery/45708/ROWLEY%20(ST.%20PETER)%20CHURCHYARD">ROWLEY (ST. PETER) CHURCHYARD at the Commonwealth War Graves Commission</a>
			  </description>
			  <Point>
				<coordinates> -0.52019,53.78092</coordinates>
			  </Point>
			</Placemark><Placemark>
			  <name>RUDSTON (ALL SAINTS) CHURCHYARD</name>
			  <description><a href="http://www.cwgc.org/find-a-cemetery/cemetery/45718/RUDSTON%20(ALL%20SAINTS)%20CHURCHYARD">RUDSTON (ALL SAINTS) CHURCHYARD at the Commonwealth War Graves Commission</a>
			  </description>
			  <Point>
				<coordinates> -0.323,54.09351</coordinates>
			  </Point>
			</Placemark><Placemark>
			  <name>SANCTON ROMAN CATHOLIC CEMETERY</name>
			  <description><a href="http://www.cwgc.org/find-a-cemetery/cemetery/45762/SANCTON%20ROMAN%20CATHOLIC%20CEMETERY">SANCTON ROMAN CATHOLIC CEMETERY at the Commonwealth War Graves Commission</a>
			  </description>
			  <Point>
				<coordinates> -0.63461,53.84356</coordinates>
			  </Point>
			</Placemark><Placemark>
			  <name>SEATON ROSS (ST. EDMUND) CHURCHYARD</name>
			  <description><a href="http://www.cwgc.org/find-a-cemetery/cemetery/45763/SEATON%20ROSS%20(ST.%20EDMUND)%20CHURCHYARD">SEATON ROSS (ST. EDMUND) CHURCHYARD at the Commonwealth War Graves Commission</a>
			  </description>
			  <Point>
				<coordinates> -0.81321,53.86234</coordinates>
			  </Point>
			</Placemark><Placemark>
			  <name>SETTRINGTON CHURCH CEMETERY</name>
			  <description><a href="http://www.cwgc.org/find-a-cemetery/cemetery/45747/SETTRINGTON%20CHURCH%20CEMETERY">SETTRINGTON CHURCH CEMETERY at the Commonwealth War Graves Commission</a>
			  </description>
			  <Point>
				<coordinates> -0.72217,54.12542</coordinates>
			  </Point>
			</Placemark><Placemark>
			  <name>SHERBURN (ST. HILDA) CHURCHYARD</name>
			  <description><a href="http://www.cwgc.org/find-a-cemetery/cemetery/45775/SHERBURN%20(ST.%20HILDA)%20CHURCHYARD">SHERBURN (ST. HILDA) CHURCHYARD at the Commonwealth War Graves Commission</a>
			  </description>
			  <Point>
				<coordinates> -0.53172,54.18327</coordinates>
			  </Point>
			</Placemark><Placemark>
			  <name>SHERIFF HUTTON (ST. HELEN AND HOLY CROSS) CHURCHYARD</name>
			  <description><a href="http://www.cwgc.org/find-a-cemetery/cemetery/45850/SHERIFF%20HUTTON%20(ST.%20HELEN%20AND%20HOLY%20CROSS)%20CHURCHYARD">SHERIFF HUTTON (ST. HELEN AND HOLY CROSS) CHURCHYARD at the Commonwealth War Graves Commission</a>
			  </description>
			  <Point>
				<coordinates> -0.9971,54.08839</coordinates>
			  </Point>
			</Placemark><Placemark>
			  <name>SIGGLESTHORNE (ST. LAURENCE) CHURCHYARD</name>
			  <description><a href="http://www.cwgc.org/find-a-cemetery/cemetery/45780/SIGGLESTHORNE%20(ST.%20LAURENCE)%20CHURCHYARD">SIGGLESTHORNE (ST. LAURENCE) CHURCHYARD at the Commonwealth War Graves Commission</a>
			  </description>
			  <Point>
				<coordinates> -0.24448,53.89424</coordinates>
			  </Point>
			</Placemark><Placemark>
			  <name>SINNINGTON (ALL SAINTS) CHURCHYARD</name>
			  <description><a href="http://www.cwgc.org/find-a-cemetery/cemetery/45865/SINNINGTON%20(ALL%20SAINTS)%20CHURCHYARD">SINNINGTON (ALL SAINTS) CHURCHYARD at the Commonwealth War Graves Commission</a>
			  </description>
			  <Point>
				<coordinates> -0.85587,54.26461</coordinates>
			  </Point>
			</Placemark><Placemark>
			  <name>SKIRLAUGH (ST. AUGUSTINE) CHURCHYARD</name>
			  <description><a href="http://www.cwgc.org/find-a-cemetery/cemetery/45781/SKIRLAUGH%20(ST.%20AUGUSTINE)%20CHURCHYARD">SKIRLAUGH (ST. AUGUSTINE) CHURCHYARD at the Commonwealth War Graves Commission</a>
			  </description>
			  <Point>
				<coordinates> -0.26586,53.84098</coordinates>
			  </Point>
			</Placemark><Placemark>
			  <name>SLEDMERE (ST. MARY) CHURCHYARD</name>
			  <description><a href="http://www.cwgc.org/find-a-cemetery/cemetery/45726/SLEDMERE%20(ST.%20MARY)%20CHURCHYARD">SLEDMERE (ST. MARY) CHURCHYARD at the Commonwealth War Graves Commission</a>
			  </description>
			  <Point>
				<coordinates> -0.58071,54.06853</coordinates>
			  </Point>
			</Placemark><Placemark>
			  <name>SLINGSBY CEMETERY</name>
			  <description><a href="http://www.cwgc.org/find-a-cemetery/cemetery/45851/SLINGSBY%20CEMETERY">SLINGSBY CEMETERY at the Commonwealth War Graves Commission</a>
			  </description>
			  <Point>
				<coordinates> -0.92557,54.16505</coordinates>
			  </Point>
			</Placemark><Placemark>
			  <name>SOUTH CAVE CHURCH CEMETERY</name>
			  <description><a href="http://www.cwgc.org/find-a-cemetery/cemetery/45709/SOUTH%20CAVE%20CHURCH%20CEMETERY">SOUTH CAVE CHURCH CEMETERY at the Commonwealth War Graves Commission</a>
			  </description>
			  <Point>
				<coordinates> -0.60424,53.77543</coordinates>
			  </Point>
			</Placemark><Placemark>
			  <name>SOUTH COWTON (ST. MARY) CHURCHYARD</name>
			  <description><a href="http://www.cwgc.org/find-a-cemetery/cemetery/45861/SOUTH%20COWTON%20(ST.%20MARY)%20CHURCHYARD">SOUTH COWTON (ST. MARY) CHURCHYARD at the Commonwealth War Graves Commission</a>
			  </description>
			  <Point>
				<coordinates> -1.55018,54.41876</coordinates>
			  </Point>
			</Placemark><Placemark>
			  <name>SOUTH DALTON (ST. MARY) CHURCHYARD</name>
			  <description><a href="http://www.cwgc.org/find-a-cemetery/cemetery/45710/SOUTH%20DALTON%20(ST.%20MARY)%20CHURCHYARD">SOUTH DALTON (ST. MARY) CHURCHYARD at the Commonwealth War Graves Commission</a>
			  </description>
			  <Point>
				<coordinates> -0.53005,53.89695</coordinates>
			  </Point>
			</Placemark><Placemark>
			  <name>SPROATLEY (ST. SWITHIN) CHURCHYARD</name>
			  <description><a href="http://www.cwgc.org/find-a-cemetery/cemetery/45782/SPROATLEY%20(ST.%20SWITHIN)%20CHURCHYARD">SPROATLEY (ST. SWITHIN) CHURCHYARD at the Commonwealth War Graves Commission</a>
			  </description>
			  <Point>
				<coordinates> -0.18824,53.7925</coordinates>
			  </Point>
			</Placemark><Placemark>
			  <name>STALLING BUSK (ST. MATTHEW) CHURCHYARD</name>
			  <description><a href="http://www.cwgc.org/find-a-cemetery/cemetery/45804/STALLING%20BUSK%20(ST.%20MATTHEW)%20CHURCHYARD">STALLING BUSK (ST. MATTHEW) CHURCHYARD at the Commonwealth War Graves Commission</a>
			  </description>
			  <Point>
				<coordinates> -2.13019,54.26853</coordinates>
			  </Point>
			</Placemark><Placemark>
			  <name>STAMFORD BRIDGE (ST. JOHN THE BAPTIST) CHURCHYARD</name>
			  <description><a href="http://www.cwgc.org/find-a-cemetery/cemetery/45764/STAMFORD%20BRIDGE%20(ST.%20JOHN%20THE%20BAPTIST)%20CHURCHYARD">STAMFORD BRIDGE (ST. JOHN THE BAPTIST) CHURCHYARD at the Commonwealth War Graves Commission</a>
			  </description>
			  <Point>
				<coordinates> -0.91218,53.9901</coordinates>
			  </Point>
			</Placemark><Placemark>
			  <name>STILLINGTON (ST. NICHOLAS) CHURCHYARD</name>
			  <description><a href="http://www.cwgc.org/find-a-cemetery/cemetery/45820/STILLINGTON%20(ST.%20NICHOLAS)%20CHURCHYARD">STILLINGTON (ST. NICHOLAS) CHURCHYARD at the Commonwealth War Graves Commission</a>
			  </description>
			  <Point>
				<coordinates> -1.10941,54.10302</coordinates>
			  </Point>
			</Placemark><Placemark>
			  <name>STRENSALL (ST. MARY) CHURCHYARD</name>
			  <description><a href="http://www.cwgc.org/find-a-cemetery/cemetery/45826/STRENSALL%20(ST.%20MARY)%20CHURCHYARD">STRENSALL (ST. MARY) CHURCHYARD at the Commonwealth War Graves Commission</a>
			  </description>
			  <Point>
				<coordinates> -1.03906,54.03883</coordinates>
			  </Point>
			</Placemark><Placemark>
			  <name>SUTTON (OR SUTTON-IN-HOLDERNESS) (ST. JAMES) CHURCHYARD</name>
			  <description><a href="http://www.cwgc.org/find-a-cemetery/cemetery/45772/SUTTON%20(OR%20SUTTON-IN-HOLDERNESS)%20(ST.%20JAMES)%20CHURCHYARD">SUTTON (OR SUTTON-IN-HOLDERNESS) (ST. JAMES) CHURCHYARD at the Commonwealth War Graves Commission</a>
			  </description>
			  <Point>
				<coordinates> -0.30515,53.78098</coordinates>
			  </Point>
			</Placemark><Placemark>
			  <name>SUTTON-UPON-DERWENT (ST. MICHAEL) CHURCHYARD</name>
			  <description><a href="http://www.cwgc.org/find-a-cemetery/cemetery/45765/SUTTON-UPON-DERWENT%20(ST.%20MICHAEL)%20CHURCHYARD">SUTTON-UPON-DERWENT (ST. MICHAEL) CHURCHYARD at the Commonwealth War Graves Commission</a>
			  </description>
			  <Point>
				<coordinates> -0.92641,53.91712</coordinates>
			  </Point>
			</Placemark><Placemark>
			  <name>THORNTON DALE (ALL SAINTS) CHURCHYARD</name>
			  <description><a href="http://www.cwgc.org/find-a-cemetery/cemetery/45866/THORNTON%20DALE%20(ALL%20SAINTS)%20CHURCHYARD">THORNTON DALE (ALL SAINTS) CHURCHYARD at the Commonwealth War Graves Commission</a>
			  </description>
			  <Point>
				<coordinates> -0.71546,54.23683</coordinates>
			  </Point>
			</Placemark><Placemark>
			  <name>THORNTON WATLASS (ST. MARY) CHURCHYARD</name>
			  <description><a href="http://www.cwgc.org/find-a-cemetery/cemetery/45808/THORNTON%20WATLASS%20(ST.%20MARY)%20CHURCHYARD">THORNTON WATLASS (ST. MARY) CHURCHYARD at the Commonwealth War Graves Commission</a>
			  </description>
			  <Point>
				<coordinates> -1.64456,54.26245</coordinates>
			  </Point>
			</Placemark><Placemark>
			  <name>THORPE BASSETT (ALL SAINTS) CHURCHYARD</name>
			  <description><a href="http://www.cwgc.org/find-a-cemetery/cemetery/45748/THORPE%20BASSETT%20(ALL%20SAINTS)%20CHURCHYARD">THORPE BASSETT (ALL SAINTS) CHURCHYARD at the Commonwealth War Graves Commission</a>
			  </description>
			  <Point>
				<coordinates> -0.68784,54.14967</coordinates>
			  </Point>
			</Placemark><Placemark>
			  <name>TICKTON (ST. PAUL) CHURCHYARD</name>
			  <description><a href="http://www.cwgc.org/find-a-cemetery/cemetery/45711/TICKTON%20(ST.%20PAUL)%20CHURCHYARD">TICKTON (ST. PAUL) CHURCHYARD at the Commonwealth War Graves Commission</a>
			  </description>
			  <Point>
				<coordinates> -0.38604,53.86181</coordinates>
			  </Point>
			</Placemark><Placemark>
			  <name>ULROME (ST. ANDREW) CHURCHYARD</name>
			  <description><a href="http://www.cwgc.org/find-a-cemetery/cemetery/45719/ULROME%20(ST.%20ANDREW)%20CHURCHYARD">ULROME (ST. ANDREW) CHURCHYARD at the Commonwealth War Graves Commission</a>
			  </description>
			  <Point>
				<coordinates> -0.22926,53.99343</coordinates>
			  </Point>
			</Placemark><Placemark>
			  <name>WALKINGTON (ALL HALLOWS) CHURCHYARD</name>
			  <description><a href="http://www.cwgc.org/find-a-cemetery/cemetery/45712/WALKINGTON%20(ALL%20HALLOWS)%20CHURCHYARD">WALKINGTON (ALL HALLOWS) CHURCHYARD at the Commonwealth War Graves Commission</a>
			  </description>
			  <Point>
				<coordinates> -0.48541,53.81777</coordinates>
			  </Point>
			</Placemark><Placemark>
			  <name>WARTHILL (ST. MARY) CHURCHYARD</name>
			  <description><a href="http://www.cwgc.org/find-a-cemetery/cemetery/45827/WARTHILL%20(ST.%20MARY)%20CHURCHYARD">WARTHILL (ST. MARY) CHURCHYARD at the Commonwealth War Graves Commission</a>
			  </description>
			  <Point>
				<coordinates> -0.97154,53.98882</coordinates>
			  </Point>
			</Placemark><Placemark>
			  <name>WELBURN (ST. JOHN) CHURCHYARD</name>
			  <description><a href="http://www.cwgc.org/find-a-cemetery/cemetery/45852/WELBURN%20(ST.%20JOHN)%20CHURCHYARD">WELBURN (ST. JOHN) CHURCHYARD at the Commonwealth War Graves Commission</a>
			  </description>
			  <Point>
				<coordinates> -0.89853,54.10095</coordinates>
			  </Point>
			</Placemark><Placemark>
			  <name>WELL (ST. MICHAEL) CHURCHYARD</name>
			  <description><a href="http://www.cwgc.org/find-a-cemetery/cemetery/45809/WELL%20(ST.%20MICHAEL)%20CHURCHYARD">WELL (ST. MICHAEL) CHURCHYARD at the Commonwealth War Graves Commission</a>
			  </description>
			  <Point>
				<coordinates> -1.59013,54.23332</coordinates>
			  </Point>
			</Placemark><Placemark>
			  <name>WELTON CHURCH CEMETERY</name>
			  <description><a href="http://www.cwgc.org/find-a-cemetery/cemetery/45773/WELTON%20CHURCH%20CEMETERY">WELTON CHURCH CEMETERY at the Commonwealth War Graves Commission</a>
			  </description>
			  <Point>
				<coordinates> -0.55148,53.72978</coordinates>
			  </Point>
			</Placemark><Placemark>
			  <name>WELWICK (ST. MARY) CHURCHYARD</name>
			  <description><a href="http://www.cwgc.org/find-a-cemetery/cemetery/45757/WELWICK%20(ST.%20MARY)%20CHURCHYARD">WELWICK (ST. MARY) CHURCHYARD at the Commonwealth War Graves Commission</a>
			  </description>
			  <Point>
				<coordinates> 0.02942,53.669</coordinates>
			  </Point>
			</Placemark><Placemark>
			  <name>WEST HESLERTON (ALL SAINTS) CHURCHYARD</name>
			  <description><a href="http://www.cwgc.org/find-a-cemetery/cemetery/45749/WEST%20HESLERTON%20(ALL%20SAINTS)%20CHURCHYARD">WEST HESLERTON (ALL SAINTS) CHURCHYARD at the Commonwealth War Graves Commission</a>
			  </description>
			  <Point>
				<coordinates> -0.60552,54.17057</coordinates>
			  </Point>
			</Placemark><Placemark>
			  <name>WETWANG (ST. NICHOLAS) CHURCHYARD</name>
			  <description><a href="http://www.cwgc.org/find-a-cemetery/cemetery/45727/WETWANG%20(ST.%20NICHOLAS)%20CHURCHYARD">WETWANG (ST. NICHOLAS) CHURCHYARD at the Commonwealth War Graves Commission</a>
			  </description>
			  <Point>
				<coordinates> -0.57773,54.01941</coordinates>
			  </Point>
			</Placemark><Placemark>
			  <name>WILBERFOSS (ST. JOHN THE BAPTIST) CHURCHYARD</name>
			  <description><a href="http://www.cwgc.org/find-a-cemetery/cemetery/45766/WILBERFOSS%20(ST.%20JOHN%20THE%20BAPTIST)%20CHURCHYARD">WILBERFOSS (ST. JOHN THE BAPTIST) CHURCHYARD at the Commonwealth War Graves Commission</a>
			  </description>
			  <Point>
				<coordinates> -0.8853,53.94972</coordinates>
			  </Point>
			</Placemark><Placemark>
			  <name>WILTON-IN-CLEVELAND (ST. CUTHBERT) CHURCHYARD</name>
			  <description><a href="http://www.cwgc.org/find-a-cemetery/cemetery/45830/WILTON-IN-CLEVELAND%20(ST.%20CUTHBERT)%20CHURCHYARD">WILTON-IN-CLEVELAND (ST. CUTHBERT) CHURCHYARD at the Commonwealth War Graves Commission</a>
			  </description>
			  <Point>
				<coordinates> -1.09989,54.56989</coordinates>
			  </Point>
			</Placemark><Placemark>
			  <name>WITHERNSEA (ST. NICHOLAS) CHURCHYARD</name>
			  <description><a href="http://www.cwgc.org/find-a-cemetery/cemetery/45784/WITHERNSEA%20(ST.%20NICHOLAS)%20CHURCHYARD">WITHERNSEA (ST. NICHOLAS) CHURCHYARD at the Commonwealth War Graves Commission</a>
			  </description>
			  <Point>
				<coordinates> 0.03273,53.72818</coordinates>
			  </Point>
			</Placemark><Placemark>
			  <name>WITHERNSEA CEMETERY</name>
			  <description><a href="http://www.cwgc.org/find-a-cemetery/cemetery/45783/WITHERNSEA%20CEMETERY">WITHERNSEA CEMETERY at the Commonwealth War Graves Commission</a>
			  </description>
			  <Point>
				<coordinates> 0.00841,53.72881</coordinates>
			  </Point>
			</Placemark><Placemark>
			  <name>YAPHAM (ST. MARTIN) CHURCHYARD</name>
			  <description><a href="http://www.cwgc.org/find-a-cemetery/cemetery/45767/YAPHAM%20(ST.%20MARTIN)%20CHURCHYARD">YAPHAM (ST. MARTIN) CHURCHYARD at the Commonwealth War Graves Commission</a>
			  </description>
			  <Point>
				<coordinates> -0.79987,53.95777</coordinates>
			  </Point>
			</Placemark><Placemark>
			  <name>YORK CEMETERY, YORKSHIRE</name>
			  <description><a href="http://www.cwgc.org/find-a-cemetery/cemetery/45785/YORK%20CEMETERY,%20YORKSHIRE">YORK CEMETERY, YORKSHIRE at the Commonwealth War Graves Commission</a>
			  </description>
			  <Point>
				<coordinates> -1.07236,53.95038</coordinates>
			  </Point>
			</Placemark><Placemark>
			  <name>ABERFORD (ST. RICARIUS) CHURCHYARD AND EXTENSION</name>
			  <description><a href="http://www.cwgc.org/find-a-cemetery/cemetery/46072/ABERFORD%20(ST.%20RICARIUS)%20CHURCHYARD%20AND%20EXTENSION">ABERFORD (ST. RICARIUS) CHURCHYARD AND EXTENSION at the Commonwealth War Graves Commission</a>
			  </description>
			  <Point>
				<coordinates> -1.34324,53.82855</coordinates>
			  </Point>
			</Placemark><Placemark>
			  <name>ACASTER SELBY (OR LOW ACASTER) (ST. JOHN) CHURCHYARD</name>
			  <description><a href="http://www.cwgc.org/find-a-cemetery/cemetery/46073/ACASTER%20SELBY%20(OR%20LOW%20ACASTER)%20(ST.%20JOHN)%20CHURCHYARD">ACASTER SELBY (OR LOW ACASTER) (ST. JOHN) CHURCHYARD at the Commonwealth War Graves Commission</a>
			  </description>
			  <Point>
				<coordinates> -1.12849,53.86157</coordinates>
			  </Point>
			</Placemark><Placemark>
			  <name>ACKWORTH (ALL SAINTS) CHURCHYARD</name>
			  <description><a href="http://www.cwgc.org/find-a-cemetery/cemetery/46026/ACKWORTH%20(ALL%20SAINTS)%20CHURCHYARD">ACKWORTH (ALL SAINTS) CHURCHYARD at the Commonwealth War Graves Commission</a>
			  </description>
			  <Point>
				<coordinates> -1.34071,53.64055</coordinates>
			  </Point>
			</Placemark><Placemark>
			  <name>ACKWORTH (ST. CUTHBERT) CHURCHYARD</name>
			  <description><a href="http://www.cwgc.org/find-a-cemetery/cemetery/46027/ACKWORTH%20(ST.%20CUTHBERT)%20CHURCHYARD">ACKWORTH (ST. CUTHBERT) CHURCHYARD at the Commonwealth War Graves Commission</a>
			  </description>
			  <Point>
				<coordinates> -1.335,53.6571</coordinates>
			  </Point>
			</Placemark><Placemark>
			  <name>ADEL (ST. JOHN THE BAPTIST) CHURCHYARD</name>
			  <description><a href="http://www.cwgc.org/find-a-cemetery/cemetery/46205/ADEL%20(ST.%20JOHN%20THE%20BAPTIST)%20CHURCHYARD">ADEL (ST. JOHN THE BAPTIST) CHURCHYARD at the Commonwealth War Graves Commission</a>
			  </description>
			  <Point>
				<coordinates> -1.5852,53.85742</coordinates>
			  </Point>
			</Placemark><Placemark>
			  <name>ADLINGFLEET (ALL SAINTS) CHURCHYARD</name>
			  <description><a href="http://www.cwgc.org/find-a-cemetery/cemetery/46009/ADLINGFLEET%20(ALL%20SAINTS)%20CHURCHYARD">ADLINGFLEET (ALL SAINTS) CHURCHYARD at the Commonwealth War Graves Commission</a>
			  </description>
			  <Point>
				<coordinates> -0.72384,53.67849</coordinates>
			  </Point>
			</Placemark><Placemark>
			  <name>AISLABY (ST. MARGARET) CHURCHYARD</name>
			  <description><a href="http://www.cwgc.org/find-a-cemetery/cemetery/45921/AISLABY%20(ST.%20MARGARET)%20CHURCHYARD">AISLABY (ST. MARGARET) CHURCHYARD at the Commonwealth War Graves Commission</a>
			  </description>
			  <Point>
				<coordinates> -0.67905,54.46569</coordinates>
			  </Point>
			</Placemark><Placemark>
			  <name>ALLERTON (PROSPECT) METHODIST CHAPELYARD</name>
			  <description><a href="http://www.cwgc.org/find-a-cemetery/cemetery/46313/ALLERTON%20(PROSPECT)%20METHODIST%20CHAPELYARD">ALLERTON (PROSPECT) METHODIST CHAPELYARD at the Commonwealth War Graves Commission</a>
			  </description>
			  <Point>
				<coordinates> -1.81566,53.80207</coordinates>
			  </Point>
			</Placemark><Placemark>
			  <name>ALLERTON BYWATER (ST. MARY) CHURCHYARD</name>
			  <description><a href="http://www.cwgc.org/find-a-cemetery/cemetery/46074/ALLERTON%20BYWATER%20(ST.%20MARY)%20CHURCHYARD">ALLERTON BYWATER (ST. MARY) CHURCHYARD at the Commonwealth War Graves Commission</a>
			  </description>
			  <Point>
				<coordinates> -1.36816,53.74551</coordinates>
			  </Point>
			</Placemark><Placemark>
			  <name>ALVERTHORPE (ST. PAUL) CHURCHYARD</name>
			  <description><a href="http://www.cwgc.org/find-a-cemetery/cemetery/46087/ALVERTHORPE%20(ST.%20PAUL)%20CHURCHYARD">ALVERTHORPE (ST. PAUL) CHURCHYARD at the Commonwealth War Graves Commission</a>
			  </description>
			  <Point>
				<coordinates> -1.53223,53.69227</coordinates>
			  </Point>
			</Placemark><Placemark>
			  <name>ARKENDALE CHURCH CEMETERY</name>
			  <description><a href="http://www.cwgc.org/find-a-cemetery/cemetery/46015/ARKENDALE%20CHURCH%20CEMETERY">ARKENDALE CHURCH CEMETERY at the Commonwealth War Graves Commission</a>
			  </description>
			  <Point>
				<coordinates> -1.40988,54.04341</coordinates>
			  </Point>
			</Placemark><Placemark>
			  <name>ARMLEY (ST. BARTHOLOMEW) CHURCHYARD</name>
			  <description><a href="http://www.cwgc.org/find-a-cemetery/cemetery/46207/ARMLEY%20(ST.%20BARTHOLOMEW)%20CHURCHYARD">ARMLEY (ST. BARTHOLOMEW) CHURCHYARD at the Commonwealth War Graves Commission</a>
			  </description>
			  <Point>
				<coordinates> -1.58753,53.79424</coordinates>
			  </Point>
			</Placemark><Placemark>
			  <name>BAGBY (ST. MARY) CHURCHYARD</name>
			  <description><a href="http://www.cwgc.org/find-a-cemetery/cemetery/45909/BAGBY%20(ST.%20MARY)%20CHURCHYARD">BAGBY (ST. MARY) CHURCHYARD at the Commonwealth War Graves Commission</a>
			  </description>
			  <Point>
				<coordinates> -1.29043,54.21941</coordinates>
			  </Point>
			</Placemark><Placemark>
			  <name>BAILDON (CHARLESTOWN) CEMETERY</name>
			  <description><a href="http://www.cwgc.org/find-a-cemetery/cemetery/46300/BAILDON%20(CHARLESTOWN)%20CEMETERY">BAILDON (CHARLESTOWN) CEMETERY at the Commonwealth War Graves Commission</a>
			  </description>
			  <Point>
				<coordinates> -1.75954,53.84363</coordinates>
			  </Point>
			</Placemark><Placemark>
			  <name>BAILDON (ST. JOHN) CHURCHYARD</name>
			  <description><a href="http://www.cwgc.org/find-a-cemetery/cemetery/46302/BAILDON%20(ST.%20JOHN)%20CHURCHYARD">BAILDON (ST. JOHN) CHURCHYARD at the Commonwealth War Graves Commission</a>
			  </description>
			  <Point>
				<coordinates> -1.76415,53.85269</coordinates>
			  </Point>
			</Placemark><Placemark>
			  <name>BAILDON MORAVIAN CHURCHYARD</name>
			  <description><a href="http://www.cwgc.org/find-a-cemetery/cemetery/46301/BAILDON%20MORAVIAN%20CHURCHYARD">BAILDON MORAVIAN CHURCHYARD at the Commonwealth War Graves Commission</a>
			  </description>
			  <Point>
				<coordinates> -1.76659,53.85229</coordinates>
			  </Point>
			</Placemark><Placemark>
			  <name>BANKFOOT (ST. MATTHEW) CHURCHYARD</name>
			  <description><a href="http://www.cwgc.org/find-a-cemetery/cemetery/46314/BANKFOOT%20(ST.%20MATTHEW)%20CHURCHYARD">BANKFOOT (ST. MATTHEW) CHURCHYARD at the Commonwealth War Graves Commission</a>
			  </description>
			  <Point>
				<coordinates> -1.76387,53.76915</coordinates>
			  </Point>
			</Placemark><Placemark>
			  <name>BARDSEY (ALL HALLOWS) CHURCHYARD</name>
			  <description><a href="http://www.cwgc.org/find-a-cemetery/cemetery/46096/BARDSEY%20(ALL%20HALLOWS)%20CHURCHYARD">BARDSEY (ALL HALLOWS) CHURCHYARD at the Commonwealth War Graves Commission</a>
			  </description>
			  <Point>
				<coordinates> -1.44502,53.88327</coordinates>
			  </Point>
			</Placemark><Placemark>
			  <name>BARNOLDSWICK (ST. MARY-LE-GILL) CHURCHYARD</name>
			  <description><a href="http://www.cwgc.org/find-a-cemetery/cemetery/46304/BARNOLDSWICK%20(ST.%20MARY-LE-GILL)%20CHURCHYARD">BARNOLDSWICK (ST. MARY-LE-GILL) CHURCHYARD at the Commonwealth War Graves Commission</a>
			  </description>
			  <Point>
				<coordinates> -2.1648,53.92786</coordinates>
			  </Point>
			</Placemark><Placemark>
			  <name>BARWICK-IN-ELMET (ALL SAINTS) CHURCHYARD</name>
			  <description><a href="http://www.cwgc.org/find-a-cemetery/cemetery/46075/BARWICK-IN-ELMET%20(ALL%20SAINTS)%20CHURCHYARD">BARWICK-IN-ELMET (ALL SAINTS) CHURCHYARD at the Commonwealth War Graves Commission</a>
			  </description>
			  <Point>
				<coordinates> -1.39292,53.83157</coordinates>
			  </Point>
			</Placemark><Placemark>
			  <name>BILSDALE MIDCABLE (ST. JOHN THE DIVINE) CHURCHYARD</name>
			  <description><a href="http://www.cwgc.org/find-a-cemetery/cemetery/45902/BILSDALE%20MIDCABLE%20(ST.%20JOHN%20THE%20DIVINE)%20CHURCHYARD">BILSDALE MIDCABLE (ST. JOHN THE DIVINE) CHURCHYARD at the Commonwealth War Graves Commission</a>
			  </description>
			  <Point>
				<coordinates> -1.11966,54.34333</coordinates>
			  </Point>
			</Placemark><Placemark>
			  <name>BILTON (ST. JOHN) CHURCHYARD</name>
			  <description><a href="http://www.cwgc.org/find-a-cemetery/cemetery/46024/BILTON%20(ST.%20JOHN)%20CHURCHYARD">BILTON (ST. JOHN) CHURCHYARD at the Commonwealth War Graves Commission</a>
			  </description>
			  <Point>
				<coordinates> -1.53706,54.00793</coordinates>
			  </Point>
			</Placemark><Placemark>
			  <name>BINGLEY CEMETERY</name>
			  <description><a href="http://www.cwgc.org/find-a-cemetery/cemetery/46305/BINGLEY%20CEMETERY">BINGLEY CEMETERY at the Commonwealth War Graves Commission</a>
			  </description>
			  <Point>
				<coordinates> -1.84281,53.85349</coordinates>
			  </Point>
			</Placemark><Placemark>
			  <name>BISHOPTHORPE (ST. ANDREW) CHURCHYARD</name>
			  <description><a href="http://www.cwgc.org/find-a-cemetery/cemetery/46000/BISHOPTHORPE%20(ST.%20ANDREW)%20CHURCHYARD">BISHOPTHORPE (ST. ANDREW) CHURCHYARD at the Commonwealth War Graves Commission</a>
			  </description>
			  <Point>
				<coordinates> -1.09466,53.92296</coordinates>
			  </Point>
			</Placemark><Placemark>
			  <name>BOLTON-BY-BOWLAND (SS. PETER AND PAUL) CHURCHYARD</name>
			  <description><a href="http://www.cwgc.org/find-a-cemetery/cemetery/46308/BOLTON-BY-BOWLAND%20(SS.%20PETER%20AND%20PAUL)%20CHURCHYARD">BOLTON-BY-BOWLAND (SS. PETER AND PAUL) CHURCHYARD at the Commonwealth War Graves Commission</a>
			  </description>
			  <Point>
				<coordinates> -2.32703,53.93998</coordinates>
			  </Point>
			</Placemark><Placemark>
			  <name>BOLTON-UPON-SWALE (ST. MARY) CHURCHYARD</name>
			  <description><a href="http://www.cwgc.org/find-a-cemetery/cemetery/45878/BOLTON-UPON-SWALE%20(ST.%20MARY)%20CHURCHYARD">BOLTON-UPON-SWALE (ST. MARY) CHURCHYARD at the Commonwealth War Graves Commission</a>
			  </description>
			  <Point>
				<coordinates> -1.61276,54.38753</coordinates>
			  </Point>
			</Placemark><Placemark>
			  <name>BOOSBECK (ST. AIDAN) CHURCHYARD</name>
			  <description><a href="http://www.cwgc.org/find-a-cemetery/cemetery/45893/BOOSBECK%20(ST.%20AIDAN)%20CHURCHYARD">BOOSBECK (ST. AIDAN) CHURCHYARD at the Commonwealth War Graves Commission</a>
			  </description>
			  <Point>
				<coordinates> -0.9791,54.54336</coordinates>
			  </Point>
			</Placemark><Placemark>
			  <name>BOROUGHBRIDGE CEMETERY</name>
			  <description><a href="http://www.cwgc.org/find-a-cemetery/cemetery/46016/BOROUGHBRIDGE%20CEMETERY">BOROUGHBRIDGE CEMETERY at the Commonwealth War Graves Commission</a>
			  </description>
			  <Point>
				<coordinates> -1.39753,54.09051</coordinates>
			  </Point>
			</Placemark><Placemark>
			  <name>BOWES AND GILMONBY CEMETERY</name>
			  <description><a href="http://www.cwgc.org/find-a-cemetery/cemetery/45897/BOWES%20AND%20GILMONBY%20CEMETERY">BOWES AND GILMONBY CEMETERY at the Commonwealth War Graves Commission</a>
			  </description>
			  <Point>
				<coordinates> -2.01241,54.51647</coordinates>
			  </Point>
			</Placemark><Placemark>
			  <name>BRADFORD (BOWLING) CEMETERY</name>
			  <description><a href="http://www.cwgc.org/find-a-cemetery/cemetery/46315/BRADFORD%20(BOWLING)%20CEMETERY">BRADFORD (BOWLING) CEMETERY at the Commonwealth War Graves Commission</a>
			  </description>
			  <Point>
				<coordinates> -1.73612,53.77079</coordinates>
			  </Point>
			</Placemark><Placemark>
			  <name>BRADFORD (NORTH BIERLEY) CEMETERY</name>
			  <description><a href="http://www.cwgc.org/find-a-cemetery/cemetery/46316/BRADFORD%20(NORTH%20BIERLEY)%20CEMETERY">BRADFORD (NORTH BIERLEY) CEMETERY at the Commonwealth War Graves Commission</a>
			  </description>
			  <Point>
				<coordinates> -1.77796,53.75853</coordinates>
			  </Point>
			</Placemark><Placemark>
			  <name>BRADFORD (SCHOLEMOOR) CEMETERY</name>
			  <description><a href="http://www.cwgc.org/find-a-cemetery/cemetery/46317/BRADFORD%20(SCHOLEMOOR)%20CEMETERY">BRADFORD (SCHOLEMOOR) CEMETERY at the Commonwealth War Graves Commission</a>
			  </description>
			  <Point>
				<coordinates> -1.79633,53.78747</coordinates>
			  </Point>
			</Placemark><Placemark>
			  <name>BRADFORD (THORNTON) CEMETERY</name>
			  <description><a href="http://www.cwgc.org/find-a-cemetery/cemetery/46318/BRADFORD%20(THORNTON)%20CEMETERY">BRADFORD (THORNTON) CEMETERY at the Commonwealth War Graves Commission</a>
			  </description>
			  <Point>
				<coordinates> -1.86849,53.79222</coordinates>
			  </Point>
			</Placemark><Placemark>
			  <name>BRADFORD (TONG) CEMETERY</name>
			  <description><a href="http://www.cwgc.org/find-a-cemetery/cemetery/46330/BRADFORD%20(TONG)%20CEMETERY">BRADFORD (TONG) CEMETERY at the Commonwealth War Graves Commission</a>
			  </description>
			  <Point>
				<coordinates> -1.70282,53.76457</coordinates>
			  </Point>
			</Placemark><Placemark>
			  <name>BRADFORD (UNDERCLIFFE) CEMETERY</name>
			  <description><a href="http://www.cwgc.org/find-a-cemetery/cemetery/46319/BRADFORD%20(UNDERCLIFFE)%20CEMETERY">BRADFORD (UNDERCLIFFE) CEMETERY at the Commonwealth War Graves Commission</a>
			  </description>
			  <Point>
				<coordinates> -1.73812,53.80532</coordinates>
			  </Point>
			</Placemark><Placemark>
			  <name>BRAMHOPE CEMETERY</name>
			  <description><a href="http://www.cwgc.org/find-a-cemetery/cemetery/46235/BRAMHOPE%20CEMETERY">BRAMHOPE CEMETERY at the Commonwealth War Graves Commission</a>
			  </description>
			  <Point>
				<coordinates> -1.62436,53.87787</coordinates>
			  </Point>
			</Placemark><Placemark>
			  <name>BRAMLEY (ST. PETER) CHURCHYARD</name>
			  <description><a href="http://www.cwgc.org/find-a-cemetery/cemetery/46208/BRAMLEY%20(ST.%20PETER)%20CHURCHYARD">BRAMLEY (ST. PETER) CHURCHYARD at the Commonwealth War Graves Commission</a>
			  </description>
			  <Point>
				<coordinates> -1.62939,53.8112</coordinates>
			  </Point>
			</Placemark><Placemark>
			  <name>BRAMLEY BAPTIST CHAPELYARD</name>
			  <description><a href="http://www.cwgc.org/find-a-cemetery/cemetery/46209/BRAMLEY%20BAPTIST%20CHAPELYARD">BRAMLEY BAPTIST CHAPELYARD at the Commonwealth War Graves Commission</a>
			  </description>
			  <Point>
				<coordinates> -1.63108,53.81007</coordinates>
			  </Point>
			</Placemark><Placemark>
			  <name>BRAMPTON BIERLOW (CHRIST CHURCH) CHURCHYARD</name>
			  <description><a href="http://www.cwgc.org/find-a-cemetery/cemetery/46094/BRAMPTON%20BIERLOW%20(CHRIST%20CHURCH)%20CHURCHYARD">BRAMPTON BIERLOW (CHRIST CHURCH) CHURCHYARD at the Commonwealth War Graves Commission</a>
			  </description>
			  <Point>
				<coordinates> -1.36574,53.50311</coordinates>
			  </Point>
			</Placemark><Placemark>
			  <name>BRAYTON (ST. WILFRID) CHURCHYARD</name>
			  <description><a href="http://www.cwgc.org/find-a-cemetery/cemetery/46067/BRAYTON%20(ST.%20WILFRID)%20CHURCHYARD">BRAYTON (ST. WILFRID) CHURCHYARD at the Commonwealth War Graves Commission</a>
			  </description>
			  <Point>
				<coordinates> -1.08513,53.77124</coordinates>
			  </Point>
			</Placemark><Placemark>
			  <name>BRIERLEY (GRIMETHORPE) CEMETERY</name>
			  <description><a href="http://www.cwgc.org/find-a-cemetery/cemetery/46028/BRIERLEY%20(GRIMETHORPE)%20CEMETERY">BRIERLEY (GRIMETHORPE) CEMETERY at the Commonwealth War Graves Commission</a>
			  </description>
			  <Point>
				<coordinates> -1.37325,53.57142</coordinates>
			  </Point>
			</Placemark><Placemark>
			  <name>BROMPTON (ALL SAINTS) CHURCHYARD</name>
			  <description><a href="http://www.cwgc.org/find-a-cemetery/cemetery/45885/BROMPTON%20(ALL%20SAINTS)%20CHURCHYARD">BROMPTON (ALL SAINTS) CHURCHYARD at the Commonwealth War Graves Commission</a>
			  </description>
			  <Point>
				<coordinates> -0.55512,54.22594</coordinates>
			  </Point>
			</Placemark><Placemark>
			  <name>BROTTON CHURCH CEMETERY</name>
			  <description><a href="http://www.cwgc.org/find-a-cemetery/cemetery/45894/BROTTON%20CHURCH%20CEMETERY">BROTTON CHURCH CEMETERY at the Commonwealth War Graves Commission</a>
			  </description>
			  <Point>
				<coordinates> -0.93059,54.56627</coordinates>
			  </Point>
			</Placemark><Placemark>
			  <name>BURLEY-IN-WHARFEDALE (ST. MARY) CHURCH CEMETERY</name>
			  <description><a href="http://www.cwgc.org/find-a-cemetery/cemetery/46334/BURLEY-IN-WHARFEDALE%20(ST.%20MARY)%20CHURCH%20CEMETERY">BURLEY-IN-WHARFEDALE (ST. MARY) CHURCH CEMETERY at the Commonwealth War Graves Commission</a>
			  </description>
			  <Point>
				<coordinates> -1.73969,53.89945</coordinates>
			  </Point>
			</Placemark><Placemark>
			  <name>BURTON LEONARD (ST. LEONARD) CHURCHYARD</name>
			  <description><a href="http://www.cwgc.org/find-a-cemetery/cemetery/46037/BURTON%20LEONARD%20(ST.%20LEONARD)%20CHURCHYARD">BURTON LEONARD (ST. LEONARD) CHURCHYARD at the Commonwealth War Graves Commission</a>
			  </description>
			  <Point>
				<coordinates> -1.50091,54.06941</coordinates>
			  </Point>
			</Placemark><Placemark>
			  <name>BUTTERSHAW (ST. PAUL) CHURCHYARD</name>
			  <description><a href="http://www.cwgc.org/find-a-cemetery/cemetery/46320/BUTTERSHAW%20(ST.%20PAUL)%20CHURCHYARD">BUTTERSHAW (ST. PAUL) CHURCHYARD at the Commonwealth War Graves Commission</a>
			  </description>
			  <Point>
				<coordinates> -1.77802,53.76341</coordinates>
			  </Point>
			</Placemark><Placemark>
			  <name>CALVERLEY (ST. WILFRID) CHURCHYARD</name>
			  <description><a href="http://www.cwgc.org/find-a-cemetery/cemetery/46200/CALVERLEY%20(ST.%20WILFRID)%20CHURCHYARD">CALVERLEY (ST. WILFRID) CHURCHYARD at the Commonwealth War Graves Commission</a>
			  </description>
			  <Point>
				<coordinates> -1.68529,53.83015</coordinates>
			  </Point>
			</Placemark><Placemark>
			  <name>CARLTON-IN-CLEVELAND (ST. BOTOLPH) CHURCHYARD</name>
			  <description><a href="http://www.cwgc.org/find-a-cemetery/cemetery/45903/CARLTON-IN-CLEVELAND%20(ST.%20BOTOLPH)%20CHURCHYARD">CARLTON-IN-CLEVELAND (ST. BOTOLPH) CHURCHYARD at the Commonwealth War Graves Commission</a>
			  </description>
			  <Point>
				<coordinates> -1.21995,54.43382</coordinates>
			  </Point>
			</Placemark><Placemark>
			  <name>CASTLEFORD NEW CEMETERY</name>
			  <description><a href="http://www.cwgc.org/find-a-cemetery/cemetery/46002/CASTLEFORD%20NEW%20CEMETERY">CASTLEFORD NEW CEMETERY at the Commonwealth War Graves Commission</a>
			  </description>
			  <Point>
				<coordinates> -1.33947,53.72653</coordinates>
			  </Point>
			</Placemark><Placemark>
			  <name>CASTLEFORD OLD CEMETERY</name>
			  <description><a href="http://www.cwgc.org/find-a-cemetery/cemetery/46003/CASTLEFORD%20OLD%20CEMETERY">CASTLEFORD OLD CEMETERY at the Commonwealth War Graves Commission</a>
			  </description>
			  <Point>
				<coordinates> -1.33955,53.72663</coordinates>
			  </Point>
			</Placemark><Placemark>
			  <name>CATTERICK CEMETERY</name>
			  <description><a href="http://www.cwgc.org/find-a-cemetery/cemetery/45879/CATTERICK%20CEMETERY">CATTERICK CEMETERY at the Commonwealth War Graves Commission</a>
			  </description>
			  <Point>
				<coordinates> -1.63484,54.37737</coordinates>
			  </Point>
			</Placemark><Placemark>
			  <name>CAWOOD CEMETERY</name>
			  <description><a href="http://www.cwgc.org/find-a-cemetery/cemetery/46068/CAWOOD%20CEMETERY">CAWOOD CEMETERY at the Commonwealth War Graves Commission</a>
			  </description>
			  <Point>
				<coordinates> -1.13415,53.83527</coordinates>
			  </Point>
			</Placemark><Placemark>
			  <name>CAYTON (ST. JOHN) CHURCHYARD</name>
			  <description><a href="http://www.cwgc.org/find-a-cemetery/cemetery/45886/CAYTON%20(ST.%20JOHN)%20CHURCHYARD">CAYTON (ST. JOHN) CHURCHYARD at the Commonwealth War Graves Commission</a>
			  </description>
			  <Point>
				<coordinates> -0.38093,54.23469</coordinates>
			  </Point>
			</Placemark><Placemark>
			  <name>CHAPEL ALLERTON (ST. MATTHEW) OLD CHURCHYARD</name>
			  <description><a href="http://www.cwgc.org/find-a-cemetery/cemetery/46210/CHAPEL%20ALLERTON%20(ST.%20MATTHEW)%20OLD%20CHURCHYARD">CHAPEL ALLERTON (ST. MATTHEW) OLD CHURCHYARD at the Commonwealth War Graves Commission</a>
			  </description>
			  <Point>
				<coordinates> -1.5357,53.8282</coordinates>
			  </Point>
			</Placemark><Placemark>
			  <name>CLAYTON BAPTIST CHAPELYARD</name>
			  <description><a href="http://www.cwgc.org/find-a-cemetery/cemetery/46321/CLAYTON%20BAPTIST%20CHAPELYARD">CLAYTON BAPTIST CHAPELYARD at the Commonwealth War Graves Commission</a>
			  </description>
			  <Point>
				<coordinates> -1.81915,53.783</coordinates>
			  </Point>
			</Placemark><Placemark>
			  <name>CLAYTON HEIGHTS METHODIST CHAPELYARD</name>
			  <description><a href="http://www.cwgc.org/find-a-cemetery/cemetery/46322/CLAYTON%20HEIGHTS%20METHODIST%20CHAPELYARD">CLAYTON HEIGHTS METHODIST CHAPELYARD at the Commonwealth War Graves Commission</a>
			  </description>
			  <Point>
				<coordinates> -1.82325,53.77041</coordinates>
			  </Point>
			</Placemark><Placemark>
			  <name>CLIFFORD (ST. LUKE) CHURCHYARD</name>
			  <description><a href="http://www.cwgc.org/find-a-cemetery/cemetery/46097/CLIFFORD%20(ST.%20LUKE)%20CHURCHYARD">CLIFFORD (ST. LUKE) CHURCHYARD at the Commonwealth War Graves Commission</a>
			  </description>
			  <Point>
				<coordinates> -1.35302,53.89172</coordinates>
			  </Point>
			</Placemark><Placemark>
			  <name>CLOUGHTON CHURCH CEMETERY</name>
			  <description><a href="http://www.cwgc.org/find-a-cemetery/cemetery/45887/CLOUGHTON%20CHURCH%20CEMETERY">CLOUGHTON CHURCH CEMETERY at the Commonwealth War Graves Commission</a>
			  </description>
			  <Point>
				<coordinates> -0.45071,54.33261</coordinates>
			  </Point>
			</Placemark><Placemark>
			  <name>COPMANTHORPE (ST. GILES) CHURCHYARD</name>
			  <description><a href="http://www.cwgc.org/find-a-cemetery/cemetery/46001/COPMANTHORPE%20(ST.%20GILES)%20CHURCHYARD">COPMANTHORPE (ST. GILES) CHURCHYARD at the Commonwealth War Graves Commission</a>
			  </description>
			  <Point>
				<coordinates> -1.14138,53.9147</coordinates>
			  </Point>
			</Placemark><Placemark>
			  <name>CRIGGLESTONE CEMETERY</name>
			  <description><a href="http://www.cwgc.org/find-a-cemetery/cemetery/46091/CRIGGLESTONE%20CEMETERY">CRIGGLESTONE CEMETERY at the Commonwealth War Graves Commission</a>
			  </description>
			  <Point>
				<coordinates> -1.51619,53.64326</coordinates>
			  </Point>
			</Placemark><Placemark>
			  <name>CUDWORTH (ST. JOHN THE BAPTIST) CHURCHYARD</name>
			  <description><a href="http://www.cwgc.org/find-a-cemetery/cemetery/46004/CUDWORTH%20(ST.%20JOHN%20THE%20BAPTIST)%20CHURCHYARD">CUDWORTH (ST. JOHN THE BAPTIST) CHURCHYARD at the Commonwealth War Graves Commission</a>
			  </description>
			  <Point>
				<coordinates> -1.41734,53.57501</coordinates>
			  </Point>
			</Placemark><Placemark>
			  <name>DACRE (HOLY TRINITY) CHURCHYARD</name>
			  <description><a href="http://www.cwgc.org/find-a-cemetery/cemetery/46047/DACRE%20(HOLY%20TRINITY)%20CHURCHYARD">DACRE (HOLY TRINITY) CHURCHYARD at the Commonwealth War Graves Commission</a>
			  </description>
			  <Point>
				<coordinates> -1.69876,54.05606</coordinates>
			  </Point>
			</Placemark><Placemark>
			  <name>DALTON (ST. JOHN) CHURCHYARD</name>
			  <description><a href="http://www.cwgc.org/find-a-cemetery/cemetery/45910/DALTON%20(ST.%20JOHN)%20CHURCHYARD">DALTON (ST. JOHN) CHURCHYARD at the Commonwealth War Graves Commission</a>
			  </description>
			  <Point>
				<coordinates> -1.33426,54.18059</coordinates>
			  </Point>
			</Placemark><Placemark>
			  <name>DARFIELD (ALL SAINTS) CHURCHYARD</name>
			  <description><a href="http://www.cwgc.org/find-a-cemetery/cemetery/46005/DARFIELD%20(ALL%20SAINTS)%20CHURCHYARD">DARFIELD (ALL SAINTS) CHURCHYARD at the Commonwealth War Graves Commission</a>
			  </description>
			  <Point>
				<coordinates> -1.37024,53.53368</coordinates>
			  </Point>
			</Placemark><Placemark>
			  <name>DARFIELD CEMETERY</name>
			  <description><a href="http://www.cwgc.org/find-a-cemetery/cemetery/46006/DARFIELD%20CEMETERY">DARFIELD CEMETERY at the Commonwealth War Graves Commission</a>
			  </description>
			  <Point>
				<coordinates> -1.37835,53.54127</coordinates>
			  </Point>
			</Placemark><Placemark>
			  <name>DENHOLME GATE (ST. PAUL) CHURCHYARD</name>
			  <description><a href="http://www.cwgc.org/find-a-cemetery/cemetery/46337/DENHOLME%20GATE%20(ST.%20PAUL)%20CHURCHYARD">DENHOLME GATE (ST. PAUL) CHURCHYARD at the Commonwealth War Graves Commission</a>
			  </description>
			  <Point>
				<coordinates> -1.89312,53.79658</coordinates>
			  </Point>
			</Placemark><Placemark>
			  <name>DENHOLME METHODIST CHAPELYARD</name>
			  <description><a href="http://www.cwgc.org/find-a-cemetery/cemetery/46335/DENHOLME%20METHODIST%20CHAPELYARD">DENHOLME METHODIST CHAPELYARD at the Commonwealth War Graves Commission</a>
			  </description>
			  <Point>
				<coordinates> -1.89498,53.80638</coordinates>
			  </Point>
			</Placemark><Placemark>
			  <name>DRAX (SS. PETER AND PAUL) CHURCHYARD</name>
			  <description><a href="http://www.cwgc.org/find-a-cemetery/cemetery/46069/DRAX%20(SS.%20PETER%20AND%20PAUL)%20CHURCHYARD">DRAX (SS. PETER AND PAUL) CHURCHYARD at the Commonwealth War Graves Commission</a>
			  </description>
			  <Point>
				<coordinates> -0.97708,53.72915</coordinates>
			  </Point>
			</Placemark><Placemark>
			  <name>EARBY (WHEATLANDS) CEMETERY</name>
			  <description><a href="http://www.cwgc.org/find-a-cemetery/cemetery/46339/EARBY%20(WHEATLANDS)%20CEMETERY">EARBY (WHEATLANDS) CEMETERY at the Commonwealth War Graves Commission</a>
			  </description>
			  <Point>
				<coordinates> -2.13916,53.91909</coordinates>
			  </Point>
			</Placemark><Placemark>
			  <name>EASBY (ST. AGATHA) CHURCHYARD</name>
			  <description><a href="http://www.cwgc.org/find-a-cemetery/cemetery/45880/EASBY%20(ST.%20AGATHA)%20CHURCHYARD">EASBY (ST. AGATHA) CHURCHYARD at the Commonwealth War Graves Commission</a>
			  </description>
			  <Point>
				<coordinates> -1.71585,54.3973</coordinates>
			  </Point>
			</Placemark><Placemark>
			  <name>EAST AYTON (ST. JOHN THE BAPTIST) CHURCHYARD</name>
			  <description><a href="http://www.cwgc.org/find-a-cemetery/cemetery/45888/EAST%20AYTON%20(ST.%20JOHN%20THE%20BAPTIST)%20CHURCHYARD">EAST AYTON (ST. JOHN THE BAPTIST) CHURCHYARD at the Commonwealth War Graves Commission</a>
			  </description>
			  <Point>
				<coordinates> -0.47929,54.25089</coordinates>
			  </Point>
			</Placemark><Placemark>
			  <name>EAST COWICK (HOLY TRINITY) CHURCHYARD</name>
			  <description><a href="http://www.cwgc.org/find-a-cemetery/cemetery/46010/EAST%20COWICK%20(HOLY%20TRINITY)%20CHURCHYARD">EAST COWICK (HOLY TRINITY) CHURCHYARD at the Commonwealth War Graves Commission</a>
			  </description>
			  <Point>
				<coordinates> -1.00042,53.68658</coordinates>
			  </Point>
			</Placemark><Placemark>
			  <name>EAST KESWICK (ST. MARY MAGDALENE) CHURCHYARD</name>
			  <description><a href="http://www.cwgc.org/find-a-cemetery/cemetery/46098/EAST%20KESWICK%20(ST.%20MARY%20MAGDALENE)%20CHURCHYARD">EAST KESWICK (ST. MARY MAGDALENE) CHURCHYARD at the Commonwealth War Graves Commission</a>
			  </description>
			  <Point>
				<coordinates> -1.45498,53.89491</coordinates>
			  </Point>
			</Placemark><Placemark>
			  <name>EASTOFT (ST. BARTHOLOMEW) CHURCHYARD</name>
			  <description><a href="http://www.cwgc.org/find-a-cemetery/cemetery/46011/EASTOFT%20(ST.%20BARTHOLOMEW)%20CHURCHYARD">EASTOFT (ST. BARTHOLOMEW) CHURCHYARD at the Commonwealth War Graves Commission</a>
			  </description>
			  <Point>
				<coordinates> -0.78181,53.63954</coordinates>
			  </Point>
			</Placemark><Placemark>
			  <name>ECCLESHILL (ST. LUKE) CHURCHYARD</name>
			  <description><a href="http://www.cwgc.org/find-a-cemetery/cemetery/46323/ECCLESHILL%20(ST.%20LUKE)%20CHURCHYARD">ECCLESHILL (ST. LUKE) CHURCHYARD at the Commonwealth War Graves Commission</a>
			  </description>
			  <Point>
				<coordinates> -1.72019,53.8161</coordinates>
			  </Point>
			</Placemark><Placemark>
			  <name>EGTON CEMETERY</name>
			  <description><a href="http://www.cwgc.org/find-a-cemetery/cemetery/45922/EGTON%20CEMETERY">EGTON CEMETERY at the Commonwealth War Graves Commission</a>
			  </description>
			  <Point>
				<coordinates> -0.76895,54.44825</coordinates>
			  </Point>
			</Placemark><Placemark>
			  <name>FAIRBURN (ST. JAMES) CHURCHYARD</name>
			  <description><a href="http://www.cwgc.org/find-a-cemetery/cemetery/46053/FAIRBURN%20(ST.%20JAMES)%20CHURCHYARD">FAIRBURN (ST. JAMES) CHURCHYARD at the Commonwealth War Graves Commission</a>
			  </description>
			  <Point>
				<coordinates> -1.28424,53.74241</coordinates>
			  </Point>
			</Placemark><Placemark>
			  <name>FAR HEADINGLEY (ST. CHAD) CHURCHYARD</name>
			  <description><a href="http://www.cwgc.org/find-a-cemetery/cemetery/46211/FAR%20HEADINGLEY%20(ST.%20CHAD)%20CHURCHYARD">FAR HEADINGLEY (ST. CHAD) CHURCHYARD at the Commonwealth War Graves Commission</a>
			  </description>
			  <Point>
				<coordinates> -1.58628,53.82791</coordinates>
			  </Point>
			</Placemark><Placemark>
			  <name>FARSLEY (ST. JOHN) CHURCHYARD</name>
			  <description><a href="http://www.cwgc.org/find-a-cemetery/cemetery/46201/FARSLEY%20(ST.%20JOHN)%20CHURCHYARD">FARSLEY (ST. JOHN) CHURCHYARD at the Commonwealth War Graves Commission</a>
			  </description>
			  <Point>
				<coordinates> -1.67213,53.81102</coordinates>
			  </Point>
			</Placemark><Placemark>
			  <name>FEATHERSTONE (OR NORTH FEATHERSTONE) CEMETERY</name>
			  <description><a href="http://www.cwgc.org/find-a-cemetery/cemetery/46007/FEATHERSTONE%20(OR%20NORTH%20FEATHERSTONE)%20CEMETERY">FEATHERSTONE (OR NORTH FEATHERSTONE) CEMETERY at the Commonwealth War Graves Commission</a>
			  </description>
			  <Point>
				<coordinates> -1.36368,53.69777</coordinates>
			  </Point>
			</Placemark><Placemark>
			  <name>FELKIRK (ST. PETER) CHURCHYARD</name>
			  <description><a href="http://www.cwgc.org/find-a-cemetery/cemetery/46029/FELKIRK%20(ST.%20PETER)%20CHURCHYARD">FELKIRK (ST. PETER) CHURCHYARD at the Commonwealth War Graves Commission</a>
			  </description>
			  <Point>
				<coordinates> -1.41606,53.60855</coordinates>
			  </Point>
			</Placemark><Placemark>
			  <name>FRYSTON (ST. PETER) CHURCHYARD</name>
			  <description><a href="http://www.cwgc.org/find-a-cemetery/cemetery/46054/FRYSTON%20(ST.%20PETER)%20CHURCHYARD">FRYSTON (ST. PETER) CHURCHYARD at the Commonwealth War Graves Commission</a>
			  </description>
			  <Point>
				<coordinates> -1.31502,53.73515</coordinates>
			  </Point>
			</Placemark><Placemark>
			  <name>FYLINGDALES (ST. STEPHEN) CHURCHYARD</name>
			  <description><a href="http://www.cwgc.org/find-a-cemetery/cemetery/45923/FYLINGDALES%20(ST.%20STEPHEN)%20CHURCHYARD">FYLINGDALES (ST. STEPHEN) CHURCHYARD at the Commonwealth War Graves Commission</a>
			  </description>
			  <Point>
				<coordinates> -0.53927,54.43399</coordinates>
			  </Point>
			</Placemark><Placemark>
			  <name>GARFORTH (ST. MARY) CHURCHYARD</name>
			  <description><a href="http://www.cwgc.org/find-a-cemetery/cemetery/46203/GARFORTH%20(ST.%20MARY)%20CHURCHYARD">GARFORTH (ST. MARY) CHURCHYARD at the Commonwealth War Graves Commission</a>
			  </description>
			  <Point>
				<coordinates> -1.37853,53.79267</coordinates>
			  </Point>
			</Placemark><Placemark>
			  <name>GARFORTH CEMETERY</name>
			  <description><a href="http://www.cwgc.org/find-a-cemetery/cemetery/46202/GARFORTH%20CEMETERY">GARFORTH CEMETERY at the Commonwealth War Graves Commission</a>
			  </description>
			  <Point>
				<coordinates> -1.37663,53.79163</coordinates>
			  </Point>
			</Placemark><Placemark>
			  <name>GILLING (ST. AGATHA) CHURCHYARD</name>
			  <description><a href="http://www.cwgc.org/find-a-cemetery/cemetery/45881/GILLING%20(ST.%20AGATHA)%20CHURCHYARD">GILLING (ST. AGATHA) CHURCHYARD at the Commonwealth War Graves Commission</a>
			  </description>
			  <Point>
				<coordinates> -1.72035,54.44139</coordinates>
			  </Point>
			</Placemark><Placemark>
			  <name>GISBURN (ST. MARY) CHURCHYARD</name>
			  <description><a href="http://www.cwgc.org/find-a-cemetery/cemetery/46309/GISBURN%20(ST.%20MARY)%20CHURCHYARD">GISBURN (ST. MARY) CHURCHYARD at the Commonwealth War Graves Commission</a>
			  </description>
			  <Point>
				<coordinates> -2.26102,53.93526</coordinates>
			  </Point>
			</Placemark><Placemark>
			  <name>GLAISDALE (ST. THOMAS) CHURCHYARD</name>
			  <description><a href="http://www.cwgc.org/find-a-cemetery/cemetery/45924/GLAISDALE%20(ST.%20THOMAS)%20CHURCHYARD">GLAISDALE (ST. THOMAS) CHURCHYARD at the Commonwealth War Graves Commission</a>
			  </description>
			  <Point>
				<coordinates> -0.80834,54.43737</coordinates>
			  </Point>
			</Placemark><Placemark>
			  <name>GOLDSBOROUGH (ST. MARY) CHURCHYARD</name>
			  <description><a href="http://www.cwgc.org/find-a-cemetery/cemetery/46038/GOLDSBOROUGH%20(ST.%20MARY)%20CHURCHYARD">GOLDSBOROUGH (ST. MARY) CHURCHYARD at the Commonwealth War Graves Commission</a>
			  </description>
			  <Point>
				<coordinates> -1.41519,53.99959</coordinates>
			  </Point>
			</Placemark><Placemark>
			  <name>GOOLE CEMETERY</name>
			  <description><a href="http://www.cwgc.org/find-a-cemetery/cemetery/46014/GOOLE%20CEMETERY">GOOLE CEMETERY at the Commonwealth War Graves Commission</a>
			  </description>
			  <Point>
				<coordinates> -0.85122,53.71059</coordinates>
			  </Point>
			</Placemark><Placemark>
			  <name>GREAT AYTON CEMETERY</name>
			  <description><a href="http://www.cwgc.org/find-a-cemetery/cemetery/45904/GREAT%20AYTON%20CEMETERY">GREAT AYTON CEMETERY at the Commonwealth War Graves Commission</a>
			  </description>
			  <Point>
				<coordinates> -1.13908,54.49317</coordinates>
			  </Point>
			</Placemark><Placemark>
			  <name>GRINDLETON (ST. AMBROSE) CHURCHYARD</name>
			  <description><a href="http://www.cwgc.org/find-a-cemetery/cemetery/46310/GRINDLETON%20(ST.%20AMBROSE)%20CHURCHYARD">GRINDLETON (ST. AMBROSE) CHURCHYARD at the Commonwealth War Graves Commission</a>
			  </description>
			  <Point>
				<coordinates> -2.36344,53.90612</coordinates>
			  </Point>
			</Placemark><Placemark>
			  <name>GUISELEY (ST. OSWALD) CHURCHYARD</name>
			  <description><a href="http://www.cwgc.org/find-a-cemetery/cemetery/46023/GUISELEY%20(ST.%20OSWALD)%20CHURCHYARD">GUISELEY (ST. OSWALD) CHURCHYARD at the Commonwealth War Graves Commission</a>
			  </description>
			  <Point>
				<coordinates> -1.70584,53.87526</coordinates>
			  </Point>
			</Placemark><Placemark>
			  <name>HACKNESS (ST. PETER) CHURCHYARD</name>
			  <description><a href="http://www.cwgc.org/find-a-cemetery/cemetery/45889/HACKNESS%20(ST.%20PETER)%20CHURCHYARD">HACKNESS (ST. PETER) CHURCHYARD at the Commonwealth War Graves Commission</a>
			  </description>
			  <Point>
				<coordinates> -0.51253,54.30162</coordinates>
			  </Point>
			</Placemark><Placemark>
			  <name>HAMPSTHWAITE (ST. THOMAS A BECKET) CHURCHYARD</name>
			  <description><a href="http://www.cwgc.org/find-a-cemetery/cemetery/46039/HAMPSTHWAITE%20(ST.%20THOMAS%20A%20BECKET)%20CHURCHYARD">HAMPSTHWAITE (ST. THOMAS A BECKET) CHURCHYARD at the Commonwealth War Graves Commission</a>
			  </description>
			  <Point>
				<coordinates> -1.60456,54.02655</coordinates>
			  </Point>
			</Placemark><Placemark>
			  <name>HAREWOOD CEMETERY</name>
			  <description><a href="http://www.cwgc.org/find-a-cemetery/cemetery/46099/HAREWOOD%20CEMETERY">HAREWOOD CEMETERY at the Commonwealth War Graves Commission</a>
			  </description>
			  <Point>
				<coordinates> -1.50084,53.89853</coordinates>
			  </Point>
			</Placemark><Placemark>
			  <name>HARROGATE (GROVE ROAD) CEMETERY</name>
			  <description><a href="http://www.cwgc.org/find-a-cemetery/cemetery/46025/HARROGATE%20(GROVE%20ROAD)%20CEMETERY">HARROGATE (GROVE ROAD) CEMETERY at the Commonwealth War Graves Commission</a>
			  </description>
			  <Point>
				<coordinates> -1.53573,54.00042</coordinates>
			  </Point>
			</Placemark><Placemark>
			  <name>HARROGATE (STONEFALL) CEMETERY</name>
			  <description><a href="http://www.cwgc.org/find-a-cemetery/cemetery/46040/HARROGATE%20(STONEFALL)%20CEMETERY">HARROGATE (STONEFALL) CEMETERY at the Commonwealth War Graves Commission</a>
			  </description>
			  <Point>
				<coordinates> -1.49527,53.98543</coordinates>
			  </Point>
			</Placemark><Placemark>
			  <name>HARTWITH (ST. JUDE) CHURCHYARD</name>
			  <description><a href="http://www.cwgc.org/find-a-cemetery/cemetery/46048/HARTWITH%20(ST.%20JUDE)%20CHURCHYARD">HARTWITH (ST. JUDE) CHURCHYARD at the Commonwealth War Graves Commission</a>
			  </description>
			  <Point>
				<coordinates> -1.67121,54.05079</coordinates>
			  </Point>
			</Placemark><Placemark>
			  <name>HAWORTH (ST. MICHAEL) CHURCHYARD</name>
			  <description><a href="http://www.cwgc.org/find-a-cemetery/cemetery/46341/HAWORTH%20(ST.%20MICHAEL)%20CHURCHYARD">HAWORTH (ST. MICHAEL) CHURCHYARD at the Commonwealth War Graves Commission</a>
			  </description>
			  <Point>
				<coordinates> -1.95645,53.8312</coordinates>
			  </Point>
			</Placemark><Placemark>
			  <name>HAWORTH (WEST LANE) METHODIST CHAPELYARD</name>
			  <description><a href="http://www.cwgc.org/find-a-cemetery/cemetery/46342/HAWORTH%20(WEST%20LANE)%20METHODIST%20CHAPELYARD">HAWORTH (WEST LANE) METHODIST CHAPELYARD at the Commonwealth War Graves Commission</a>
			  </description>
			  <Point>
				<coordinates> -1.95954,53.83245</coordinates>
			  </Point>
			</Placemark><Placemark>
			  <name>HEALAUGH (ST. JOHN THE BAPTIST) CHURCHYARD</name>
			  <description><a href="http://www.cwgc.org/find-a-cemetery/cemetery/46076/HEALAUGH%20(ST.%20JOHN%20THE%20BAPTIST)%20CHURCHYARD">HEALAUGH (ST. JOHN THE BAPTIST) CHURCHYARD at the Commonwealth War Graves Commission</a>
			  </description>
			  <Point>
				<coordinates> -1.24213,53.92437</coordinates>
			  </Point>
			</Placemark><Placemark>
			  <name>HEMSWORTH CEMETERY</name>
			  <description><a href="http://www.cwgc.org/find-a-cemetery/cemetery/46034/HEMSWORTH%20CEMETERY">HEMSWORTH CEMETERY at the Commonwealth War Graves Commission</a>
			  </description>
			  <Point>
				<coordinates> -1.35872,53.61686</coordinates>
			  </Point>
			</Placemark><Placemark>
			  <name>HENSALL (ST. PAUL) CHURCHYARD</name>
			  <description><a href="http://www.cwgc.org/find-a-cemetery/cemetery/46055/HENSALL%20(ST.%20PAUL)%20CHURCHYARD">HENSALL (ST. PAUL) CHURCHYARD at the Commonwealth War Graves Commission</a>
			  </description>
			  <Point>
				<coordinates> -1.11881,53.69641</coordinates>
			  </Point>
			</Placemark><Placemark>
			  <name>HIPSWELL (ST. JOHN) CHURCHYARD</name>
			  <description><a href="http://www.cwgc.org/find-a-cemetery/cemetery/45882/HIPSWELL%20(ST.%20JOHN)%20CHURCHYARD">HIPSWELL (ST. JOHN) CHURCHYARD at the Commonwealth War Graves Commission</a>
			  </description>
			  <Point>
				<coordinates> -1.71259,54.37957</coordinates>
			  </Point>
			</Placemark>